[
  {
    "cct_code_dept": "Corrèze",
    "code_postal": null,
    "cct_code_commune": "Brive-la-Gaillarde",
    "cct_denomination": "CENTRE AUTO CORREZIEN",
    "cct_adresse": "83 AV DU 11 NOVEMBRE 1918",
    "cct_tel": "555848567",
    "cct_url": null,
    "cat_vehicule_id": "5",
    "cat_vehicule_libelle": "Camping-car (moins de 3,5 tonnes)",
    "cat_energie_id": "2",
    "cat_energie_libelle": "Diesel",
    "prix_visite": 78,
    "date_application_visite": "2020-09-09",
    "prix_contre_visite_min": 10,
    "prix_contre_visite_max": 30,
    "date_application_contre_visite": "2020-09-09",
    "cct_siret": 37996427300054,
    "latitude": 45.162447,
    "longitude": 1.543341,
    "coordgeo": {
      "lon": 1.543341,
      "lat": 45.162447
    },
    "cct_statut": "actif"
  },
  {
    "cct_code_dept": "Corrèze",
    "code_postal": null,
    "cct_code_commune": "Brive-la-Gaillarde",
    "cct_denomination": "CENTRE AUTO CORREZIEN",
    "cct_adresse": "83 AV DU 11 NOVEMBRE 1918",
    "cct_tel": "555848567",
    "cct_url": null,
    "cat_vehicule_id": "5",
    "cat_vehicule_libelle": "Camping-car (moins de 3,5 tonnes)",
    "cat_energie_id": "5",
    "cat_energie_libelle": "Electrique",
    "prix_visite": 78,
    "date_application_visite": "2020-09-09",
    "prix_contre_visite_min": 78,
    "prix_contre_visite_max": 78,
    "date_application_contre_visite": "2020-09-09",
    "cct_siret": 37996427300054,
    "latitude": 45.162447,
    "longitude": 1.543341,
    "coordgeo": {
      "lon": 1.543341,
      "lat": 45.162447
    },
    "cct_statut": "actif"
  },
  {
    "cct_code_dept": "Corrèze",
    "code_postal": null,
    "cct_code_commune": "Brive-la-Gaillarde",
    "cct_denomination": "CENTRE AUTO CORREZIEN",
    "cct_adresse": "83 AV DU 11 NOVEMBRE 1918",
    "cct_tel": "555848567",
    "cct_url": null,
    "cat_vehicule_id": "1",
    "cat_vehicule_libelle": "Voiture Particulière",
    "cat_energie_id": "1",
    "cat_energie_libelle": "Essence",
    "prix_visite": 75,
    "date_application_visite": "2020-09-09",
    "prix_contre_visite_min": 10,
    "prix_contre_visite_max": 30,
    "date_application_contre_visite": "2020-09-09",
    "cct_siret": 37996427300054,
    "latitude": 45.162447,
    "longitude": 1.543341,
    "coordgeo": {
      "lon": 1.543341,
      "lat": 45.162447
    },
    "cct_statut": "actif"
  },
  {
    "cct_code_dept": "Corrèze",
    "code_postal": "19130",
    "cct_code_commune": "Objat",
    "cct_denomination": "AUTO BRIDAL CONTROLE",
    "cct_adresse": "Z A DE BRIDAL",
    "cct_tel": "555255019",
    "cct_url": "https://controle-technique-objat.autosecurite.com/",
    "cat_vehicule_id": "1",
    "cat_vehicule_libelle": "Voiture Particulière",
    "cat_energie_id": "4",
    "cat_energie_libelle": "Hybride",
    "prix_visite": 80,
    "date_application_visite": "2020-08-31",
    "prix_contre_visite_min": 10,
    "prix_contre_visite_max": 20,
    "date_application_contre_visite": "2020-08-31",
    "cct_siret": 75394334900013,
    "latitude": 45.253544,
    "longitude": 1.414393,
    "coordgeo": {
      "lon": 1.414393,
      "lat": 45.253544
    },
    "cct_statut": "actif"
  },
  {
    "cct_code_dept": "Corrèze",
    "code_postal": "19200",
    "cct_code_commune": "Ussel",
    "cct_denomination": "INSTALLAT USSEL CONTROLE TECHNIQUE AUTOM",
    "cct_adresse": "8 RTE DU THEIL",
    "cct_tel": "555460211",
    "cct_url": null,
    "cat_vehicule_id": "2",
    "cat_vehicule_libelle": "4 x 4",
    "cat_energie_id": "1",
    "cat_energie_libelle": "Essence",
    "prix_visite": 89,
    "date_application_visite": "2020-09-24",
    "prix_contre_visite_min": 15,
    "prix_contre_visite_max": 35,
    "date_application_contre_visite": "2020-09-24",
    "cct_siret": 38303427900018,
    "latitude": 45.554791,
    "longitude": 2.316492,
    "coordgeo": {
      "lon": 2.316492,
      "lat": 45.554791
    },
    "cct_statut": "actif"
  },
  {
    "cct_code_dept": "Corrèze",
    "code_postal": "15300",
    "cct_code_commune": "Ussel",
    "cct_denomination": "INSTALLAT USSEL CONTROLE TECHNIQUE AUTOM",
    "cct_adresse": "8 RTE DU THEIL",
    "cct_tel": "555460211",
    "cct_url": null,
    "cat_vehicule_id": "4",
    "cat_vehicule_libelle": "Camionnette",
    "cat_energie_id": "5",
    "cat_energie_libelle": "Electrique",
    "prix_visite": 97,
    "date_application_visite": "2020-09-24",
    "prix_contre_visite_min": 15,
    "prix_contre_visite_max": 35,
    "date_application_contre_visite": "2020-09-24",
    "cct_siret": 38303427900018,
    "latitude": 45.554791,
    "longitude": 2.316492,
    "coordgeo": {
      "lon": 2.316492,
      "lat": 45.554791
    },
    "cct_statut": "actif"
  },
  {
    "cct_code_dept": "Corrèze",
    "code_postal": "19250",
    "cct_code_commune": "Meymac",
    "cct_denomination": "INSTALLAT USSEL CONTROLE TECHNIQUE AUTOM",
    "cct_adresse": "14 PL DES PORROTS",
    "cct_tel": null,
    "cct_url": null,
    "cat_vehicule_id": "4",
    "cat_vehicule_libelle": "Camionnette",
    "cat_energie_id": "3",
    "cat_energie_libelle": "Gaz",
    "prix_visite": 91,
    "date_application_visite": "2021-03-08",
    "prix_contre_visite_min": 15,
    "prix_contre_visite_max": 35,
    "date_application_contre_visite": "2021-03-08",
    "cct_siret": 38303427900034,
    "latitude": 45.535037,
    "longitude": 2.145076,
    "coordgeo": {
      "lon": 2.145076,
      "lat": 45.535037
    },
    "cct_statut": "actif"
  },
  {
    "cct_code_dept": "Corrèze",
    "code_postal": "19250",
    "cct_code_commune": "Meymac",
    "cct_denomination": "INSTALLAT USSEL CONTROLE TECHNIQUE AUTOM",
    "cct_adresse": "14 PL DES PORROTS",
    "cct_tel": null,
    "cct_url": null,
    "cat_vehicule_id": "1",
    "cat_vehicule_libelle": "Voiture Particulière",
    "cat_energie_id": "1",
    "cat_energie_libelle": "Essence",
    "prix_visite": 86,
    "date_application_visite": "2021-03-08",
    "prix_contre_visite_min": 15,
    "prix_contre_visite_max": 35,
    "date_application_contre_visite": "2021-03-08",
    "cct_siret": 38303427900034,
    "latitude": 45.535037,
    "longitude": 2.145076,
    "coordgeo": {
      "lon": 2.145076,
      "lat": 45.535037
    },
    "cct_statut": "actif"
  },
  {
    "cct_code_dept": "Corrèze",
    "code_postal": null,
    "cct_code_commune": "Brive-la-Gaillarde",
    "cct_denomination": "CONTROLE TECHNIQUE AUTOMOBILE TULLISTE",
    "cct_adresse": "17 BD MIRABEAU",
    "cct_tel": null,
    "cct_url": null,
    "cat_vehicule_id": "5",
    "cat_vehicule_libelle": "Camping-car (moins de 3,5 tonnes)",
    "cat_energie_id": "5",
    "cat_energie_libelle": "Electrique",
    "prix_visite": 90,
    "date_application_visite": "2020-12-03",
    "prix_contre_visite_min": 17,
    "prix_contre_visite_max": 35,
    "date_application_contre_visite": "2020-12-03",
    "cct_siret": 40367208200068,
    "latitude": 45.164972,
    "longitude": 1.520704,
    "coordgeo": {
      "lon": 1.520704,
      "lat": 45.164972
    },
    "cct_statut": "actif"
  },
  {
    "cct_code_dept": "Corrèze",
    "code_postal": null,
    "cct_code_commune": "Brive-la-Gaillarde",
    "cct_denomination": "CONTROLE TECHNIQUE AUTOMOBILE TULLISTE",
    "cct_adresse": "17 BD MIRABEAU",
    "cct_tel": null,
    "cct_url": null,
    "cat_vehicule_id": "3",
    "cat_vehicule_libelle": "Voiture de collection",
    "cat_energie_id": "1",
    "cat_energie_libelle": "Essence",
    "prix_visite": 85,
    "date_application_visite": "2020-12-03",
    "prix_contre_visite_min": 17,
    "prix_contre_visite_max": 35,
    "date_application_contre_visite": "2020-12-03",
    "cct_siret": 40367208200068,
    "latitude": 45.164972,
    "longitude": 1.520704,
    "coordgeo": {
      "lon": 1.520704,
      "lat": 45.164972
    },
    "cct_statut": "actif"
  },
  {
    "cct_code_dept": "Corrèze",
    "code_postal": null,
    "cct_code_commune": "Brive-la-Gaillarde",
    "cct_denomination": "CONTROLE TECHNIQUE AUTOMOBILE TULLISTE",
    "cct_adresse": "10 BD VOLTAIRE",
    "cct_tel": null,
    "cct_url": null,
    "cat_vehicule_id": "2",
    "cat_vehicule_libelle": "4 x 4",
    "cat_energie_id": "2",
    "cat_energie_libelle": "Diesel",
    "prix_visite": 85,
    "date_application_visite": "2020-12-03",
    "prix_contre_visite_min": 17,
    "prix_contre_visite_max": 35,
    "date_application_contre_visite": "2020-12-03",
    "cct_siret": 40367208200126,
    "latitude": 45.159438,
    "longitude": 1.540684,
    "coordgeo": {
      "lon": 1.540684,
      "lat": 45.159438
    },
    "cct_statut": "actif"
  },
  {
    "cct_code_dept": "Corrèze",
    "code_postal": null,
    "cct_code_commune": "Saint-Priest-de-Gimel",
    "cct_denomination": "CT CORREZE",
    "cct_adresse": "1 RUE DES CHARDONNERETS",
    "cct_tel": "555209346",
    "cct_url": null,
    "cat_vehicule_id": "4",
    "cat_vehicule_libelle": "Camionnette",
    "cat_energie_id": "4",
    "cat_energie_libelle": "Hybride",
    "prix_visite": 81,
    "date_application_visite": "2020-09-24",
    "prix_contre_visite_min": 25,
    "prix_contre_visite_max": 35,
    "date_application_contre_visite": "2020-09-24",
    "cct_siret": 82405658400033,
    "latitude": 45.330917,
    "longitude": 1.877828,
    "coordgeo": {
      "lon": 1.877828,
      "lat": 45.330917
    },
    "cct_statut": "actif"
  },
  {
    "cct_code_dept": "Corrèze",
    "code_postal": "19210",
    "cct_code_commune": "Lubersac",
    "cct_denomination": "AUTOVISION LUBERSAC",
    "cct_adresse": "AV CHARLES DE GAULLE",
    "cct_tel": "555985363",
    "cct_url": null,
    "cat_vehicule_id": "3",
    "cat_vehicule_libelle": "Voiture de collection",
    "cat_energie_id": "3",
    "cat_energie_libelle": "Gaz",
    "prix_visite": 82,
    "date_application_visite": "2020-09-15",
    "prix_contre_visite_min": 5,
    "prix_contre_visite_max": 20,
    "date_application_contre_visite": "2020-09-15",
    "cct_siret": 40295599100029,
    "latitude": 45.447007,
    "longitude": 1.399245,
    "coordgeo": {
      "lon": 1.399245,
      "lat": 45.447007
    },
    "cct_statut": "actif"
  },
  {
    "cct_code_dept": "Corrèze",
    "code_postal": "19140",
    "cct_code_commune": "Uzerche",
    "cct_denomination": "CENTRE AUTO BILAN MONTREUIL",
    "cct_adresse": "LA GANNE LACHAUD",
    "cct_tel": "555934616",
    "cct_url": null,
    "cat_vehicule_id": "4",
    "cat_vehicule_libelle": "Camionnette",
    "cat_energie_id": "3",
    "cat_energie_libelle": "Gaz",
    "prix_visite": 80,
    "date_application_visite": "2020-09-12",
    "prix_contre_visite_min": 10,
    "prix_contre_visite_max": 38,
    "date_application_contre_visite": "2020-09-12",
    "cct_siret": 32838567900449,
    "latitude": 45.399929,
    "longitude": 1.570097,
    "coordgeo": {
      "lon": 1.570097,
      "lat": 45.399929
    },
    "cct_statut": "actif"
  },
  {
    "cct_code_dept": "Corrèze",
    "code_postal": "19140",
    "cct_code_commune": "Uzerche",
    "cct_denomination": "CENTRE AUTO BILAN MONTREUIL",
    "cct_adresse": "LA GANNE LACHAUD",
    "cct_tel": "555934616",
    "cct_url": null,
    "cat_vehicule_id": "3",
    "cat_vehicule_libelle": "Voiture de collection",
    "cat_energie_id": "2",
    "cat_energie_libelle": "Diesel",
    "prix_visite": 65,
    "date_application_visite": "2020-09-12",
    "prix_contre_visite_min": 10,
    "prix_contre_visite_max": 38,
    "date_application_contre_visite": "2020-09-12",
    "cct_siret": 32838567900449,
    "latitude": 45.399929,
    "longitude": 1.570097,
    "coordgeo": {
      "lon": 1.570097,
      "lat": 45.399929
    },
    "cct_statut": "actif"
  },
  {
    "cct_code_dept": "Corrèze",
    "code_postal": null,
    "cct_code_commune": "Brive-la-Gaillarde",
    "cct_denomination": "CENTRE TECHNIQUE DE CONTROLE AUTOMOBILE",
    "cct_adresse": "10 RUE COLONEL JEAN DELMAS",
    "cct_tel": "555743999",
    "cct_url": null,
    "cat_vehicule_id": "4",
    "cat_vehicule_libelle": "Camionnette",
    "cat_energie_id": "5",
    "cat_energie_libelle": "Electrique",
    "prix_visite": 80,
    "date_application_visite": "2020-09-14",
    "prix_contre_visite_min": 15,
    "prix_contre_visite_max": 45,
    "date_application_contre_visite": "2020-09-14",
    "cct_siret": 32983537500018,
    "latitude": 45.15461,
    "longitude": 1.535191,
    "coordgeo": {
      "lon": 1.535191,
      "lat": 45.15461
    },
    "cct_statut": "actif"
  },
  {
    "cct_code_dept": "Corrèze",
    "code_postal": null,
    "cct_code_commune": "Brive-la-Gaillarde",
    "cct_denomination": "CONTROLE TECHNIQUE DE BRIVE OUEST",
    "cct_adresse": "2 AV ROGER RONCIER",
    "cct_tel": "555880800",
    "cct_url": null,
    "cat_vehicule_id": "2",
    "cat_vehicule_libelle": "4 x 4",
    "cat_energie_id": "4",
    "cat_energie_libelle": "Hybride",
    "prix_visite": 80,
    "date_application_visite": "2020-09-14",
    "prix_contre_visite_min": 15,
    "prix_contre_visite_max": 45,
    "date_application_contre_visite": "2020-09-14",
    "cct_siret": 48986623600016,
    "latitude": 45.148904,
    "longitude": 1.489536,
    "coordgeo": {
      "lon": 1.489536,
      "lat": 45.148904
    },
    "cct_statut": "actif"
  },
  {
    "cct_code_dept": "Corrèze",
    "code_postal": "19270",
    "cct_code_commune": "Sadroc",
    "cct_denomination": "C.T.S.R.",
    "cct_adresse": "LA FONSALADE",
    "cct_tel": "555740953",
    "cct_url": "https://controle-technique-sadroc.securitest.fr/",
    "cat_vehicule_id": "2",
    "cat_vehicule_libelle": "4 x 4",
    "cat_energie_id": "3",
    "cat_energie_libelle": "Gaz",
    "prix_visite": 72,
    "date_application_visite": "2021-02-11",
    "prix_contre_visite_min": 15,
    "prix_contre_visite_max": 55,
    "date_application_contre_visite": "2021-02-11",
    "cct_siret": 50218621600011,
    "latitude": 45.266353,
    "longitude": 1.564993,
    "coordgeo": {
      "lon": 1.564993,
      "lat": 45.266353
    },
    "cct_statut": "actif"
  },
  {
    "cct_code_dept": "Corrèze",
    "code_postal": "19270",
    "cct_code_commune": "Sadroc",
    "cct_denomination": "C.T.S.R.",
    "cct_adresse": "LA FONSALADE",
    "cct_tel": "555740953",
    "cct_url": "https://controle-technique-sadroc.securitest.fr/",
    "cat_vehicule_id": "1",
    "cat_vehicule_libelle": "Voiture Particulière",
    "cat_energie_id": "3",
    "cat_energie_libelle": "Gaz",
    "prix_visite": 76,
    "date_application_visite": "2023-02-01",
    "prix_contre_visite_min": 15,
    "prix_contre_visite_max": 60,
    "date_application_contre_visite": "2023-02-01",
    "cct_siret": 50218621600011,
    "latitude": 45.266353,
    "longitude": 1.564993,
    "coordgeo": {
      "lon": 1.564993,
      "lat": 45.266353
    },
    "cct_statut": "actif"
  },
  {
    "cct_code_dept": "Corrèze",
    "code_postal": "19270",
    "cct_code_commune": "Sadroc",
    "cct_denomination": "C.T.S.R.",
    "cct_adresse": "LA FONSALADE",
    "cct_tel": "555740953",
    "cct_url": "https://controle-technique-sadroc.securitest.fr/",
    "cat_vehicule_id": "1",
    "cat_vehicule_libelle": "Voiture Particulière",
    "cat_energie_id": "3",
    "cat_energie_libelle": "Gaz",
    "prix_visite": 72,
    "date_application_visite": "2021-02-11",
    "prix_contre_visite_min": 15,
    "prix_contre_visite_max": 55,
    "date_application_contre_visite": "2021-02-11",
    "cct_siret": 50218621600011,
    "latitude": 45.266353,
    "longitude": 1.564993,
    "coordgeo": {
      "lon": 1.564993,
      "lat": 45.266353
    },
    "cct_statut": "actif"
  },
  {
    "cct_code_dept": "Corrèze",
    "code_postal": "19270",
    "cct_code_commune": "Sadroc",
    "cct_denomination": "C.T.S.R.",
    "cct_adresse": "LA FONSALADE",
    "cct_tel": "555740953",
    "cct_url": "https://controle-technique-sadroc.securitest.fr/",
    "cat_vehicule_id": "1",
    "cat_vehicule_libelle": "Voiture Particulière",
    "cat_energie_id": "4",
    "cat_energie_libelle": "Hybride",
    "prix_visite": 72,
    "date_application_visite": "2021-02-11",
    "prix_contre_visite_min": 10,
    "prix_contre_visite_max": 55,
    "date_application_contre_visite": "2021-02-11",
    "cct_siret": 50218621600011,
    "latitude": 45.266353,
    "longitude": 1.564993,
    "coordgeo": {
      "lon": 1.564993,
      "lat": 45.266353
    },
    "cct_statut": "actif"
  },
  {
    "cct_code_dept": "Corrèze",
    "code_postal": null,
    "cct_code_commune": "Saint-Mexant",
    "cct_denomination": "CCT VIGNAL PH.",
    "cct_adresse": "LA CROIX DE LA CHAPELLE",
    "cct_tel": "544405022",
    "cct_url": null,
    "cat_vehicule_id": "5",
    "cat_vehicule_libelle": "Camping-car (moins de 3,5 tonnes)",
    "cat_energie_id": "2",
    "cat_energie_libelle": "Diesel",
    "prix_visite": 75,
    "date_application_visite": "2020-09-03",
    "prix_contre_visite_min": 20,
    "prix_contre_visite_max": 30,
    "date_application_contre_visite": "2020-09-03",
    "cct_siret": 52232019100011,
    "latitude": 45.300772,
    "longitude": 1.701816,
    "coordgeo": {
      "lon": 1.701816,
      "lat": 45.300772
    },
    "cct_statut": "actif"
  },
  {
    "cct_code_dept": "Corrèze",
    "code_postal": null,
    "cct_code_commune": "Perpezac-le-Noir",
    "cct_denomination": "CTVA 19",
    "cct_adresse": "MOURNETAS",
    "cct_tel": null,
    "cct_url": null,
    "cat_vehicule_id": "1",
    "cat_vehicule_libelle": "Voiture Particulière",
    "cat_energie_id": "5",
    "cat_energie_libelle": "Electrique",
    "prix_visite": 77,
    "date_application_visite": "2020-10-12",
    "prix_contre_visite_min": 13,
    "prix_contre_visite_max": 31,
    "date_application_contre_visite": "2020-10-12",
    "cct_siret": 84243209800015,
    "latitude": 45.32084,
    "longitude": 1.554939,
    "coordgeo": {
      "lon": 1.554939,
      "lat": 45.32084
    },
    "cct_statut": "actif"
  },
  {
    "cct_code_dept": "Corrèze",
    "code_postal": null,
    "cct_code_commune": "Perpezac-le-Noir",
    "cct_denomination": "CTVA 19",
    "cct_adresse": "MOURNETAS",
    "cct_tel": null,
    "cct_url": null,
    "cat_vehicule_id": "3",
    "cat_vehicule_libelle": "Voiture de collection",
    "cat_energie_id": "5",
    "cat_energie_libelle": "Electrique",
    "prix_visite": 77,
    "date_application_visite": "2020-10-12",
    "prix_contre_visite_min": 13,
    "prix_contre_visite_max": 31,
    "date_application_contre_visite": "2020-10-12",
    "cct_siret": 84243209800015,
    "latitude": 45.32084,
    "longitude": 1.554939,
    "coordgeo": {
      "lon": 1.554939,
      "lat": 45.32084
    },
    "cct_statut": "actif"
  },
  {
    "cct_code_dept": "Corrèze",
    "code_postal": null,
    "cct_code_commune": "Brive-la-Gaillarde",
    "cct_denomination": "AUTO CONTROLE NOUVELLE AQUITAINE",
    "cct_adresse": "AV JEAN CHARLES RIVET",
    "cct_tel": "555869089",
    "cct_url": "https://controle-technique-brive.fr/",
    "cat_vehicule_id": "1",
    "cat_vehicule_libelle": "Voiture Particulière",
    "cat_energie_id": "2",
    "cat_energie_libelle": "Diesel",
    "prix_visite": 84,
    "date_application_visite": "2023-02-01",
    "prix_contre_visite_min": 15,
    "prix_contre_visite_max": 45,
    "date_application_contre_visite": "2023-02-01",
    "cct_siret": 53263444100010,
    "latitude": 45.149728,
    "longitude": 1.495529,
    "coordgeo": {
      "lon": 1.495529,
      "lat": 45.149728
    },
    "cct_statut": "actif"
  },
  {
    "cct_code_dept": "Corrèze",
    "code_postal": null,
    "cct_code_commune": "Brive-la-Gaillarde",
    "cct_denomination": "AUTO CONTROLE NOUVELLE AQUITAINE",
    "cct_adresse": "AV JEAN CHARLES RIVET",
    "cct_tel": "555869089",
    "cct_url": "https://controle-technique-brive.fr/",
    "cat_vehicule_id": "3",
    "cat_vehicule_libelle": "Voiture de collection",
    "cat_energie_id": "5",
    "cat_energie_libelle": "Electrique",
    "prix_visite": 95,
    "date_application_visite": "2023-02-01",
    "prix_contre_visite_min": 15,
    "prix_contre_visite_max": 45,
    "date_application_contre_visite": "2023-02-01",
    "cct_siret": 53263444100010,
    "latitude": 45.149728,
    "longitude": 1.495529,
    "coordgeo": {
      "lon": 1.495529,
      "lat": 45.149728
    },
    "cct_statut": "actif"
  },
  {
    "cct_code_dept": "Corrèze",
    "code_postal": "15300",
    "cct_code_commune": "Ussel",
    "cct_denomination": "AUTO CONTROLE MASSIF CENTRAL",
    "cct_adresse": "4 AV GAMBETTA",
    "cct_tel": "555725565",
    "cct_url": "https://controle-technique-ussel.securitest.fr/",
    "cat_vehicule_id": "2",
    "cat_vehicule_libelle": "4 x 4",
    "cat_energie_id": "4",
    "cat_energie_libelle": "Hybride",
    "prix_visite": 97,
    "date_application_visite": "2020-08-31",
    "prix_contre_visite_min": 15,
    "prix_contre_visite_max": 45,
    "date_application_contre_visite": "2020-08-31",
    "cct_siret": 38880588900010,
    "latitude": 45.545995,
    "longitude": 2.308461,
    "coordgeo": {
      "lon": 2.308461,
      "lat": 45.545995
    },
    "cct_statut": "actif"
  },
  {
    "cct_code_dept": "Corrèze",
    "code_postal": "15300",
    "cct_code_commune": "Ussel",
    "cct_denomination": "AUTO CONTROLE MASSIF CENTRAL",
    "cct_adresse": "4 AV GAMBETTA",
    "cct_tel": "555725565",
    "cct_url": "https://controle-technique-ussel.securitest.fr/",
    "cat_vehicule_id": "4",
    "cat_vehicule_libelle": "Camionnette",
    "cat_energie_id": "5",
    "cat_energie_libelle": "Electrique",
    "prix_visite": 97,
    "date_application_visite": "2020-08-31",
    "prix_contre_visite_min": 15,
    "prix_contre_visite_max": 45,
    "date_application_contre_visite": "2020-08-31",
    "cct_siret": 38880588900010,
    "latitude": 45.545995,
    "longitude": 2.308461,
    "coordgeo": {
      "lon": 2.308461,
      "lat": 45.545995
    },
    "cct_statut": "actif"
  },
  {
    "cct_code_dept": "Corrèze",
    "code_postal": "15300",
    "cct_code_commune": "Ussel",
    "cct_denomination": "AUTO CONTROLE MASSIF CENTRAL",
    "cct_adresse": "4 AV GAMBETTA",
    "cct_tel": "555725565",
    "cct_url": "https://controle-technique-ussel.securitest.fr/",
    "cat_vehicule_id": "5",
    "cat_vehicule_libelle": "Camping-car (moins de 3,5 tonnes)",
    "cat_energie_id": "3",
    "cat_energie_libelle": "Gaz",
    "prix_visite": 107,
    "date_application_visite": "2020-08-31",
    "prix_contre_visite_min": 15,
    "prix_contre_visite_max": 45,
    "date_application_contre_visite": "2020-08-31",
    "cct_siret": 38880588900010,
    "latitude": 45.545995,
    "longitude": 2.308461,
    "coordgeo": {
      "lon": 2.308461,
      "lat": 45.545995
    },
    "cct_statut": "actif"
  },
  {
    "cct_code_dept": "Corrèze",
    "code_postal": "15300",
    "cct_code_commune": "Ussel",
    "cct_denomination": "AUTO CONTROLE MASSIF CENTRAL",
    "cct_adresse": "4 AV GAMBETTA",
    "cct_tel": "555725565",
    "cct_url": "https://controle-technique-ussel.securitest.fr/",
    "cat_vehicule_id": "1",
    "cat_vehicule_libelle": "Voiture Particulière",
    "cat_energie_id": "5",
    "cat_energie_libelle": "Electrique",
    "prix_visite": 97,
    "date_application_visite": "2020-08-31",
    "prix_contre_visite_min": 15,
    "prix_contre_visite_max": 45,
    "date_application_contre_visite": "2020-08-31",
    "cct_siret": 38880588900010,
    "latitude": 45.545995,
    "longitude": 2.308461,
    "coordgeo": {
      "lon": 2.308461,
      "lat": 45.545995
    },
    "cct_statut": "actif"
  },
  {
    "cct_code_dept": "Corrèze",
    "code_postal": "15300",
    "cct_code_commune": "Ussel",
    "cct_denomination": "AUTO CONTROLE MASSIF CENTRAL",
    "cct_adresse": "4 AV GAMBETTA",
    "cct_tel": "555725565",
    "cct_url": "https://controle-technique-ussel.securitest.fr/",
    "cat_vehicule_id": "3",
    "cat_vehicule_libelle": "Voiture de collection",
    "cat_energie_id": "5",
    "cat_energie_libelle": "Electrique",
    "prix_visite": 97,
    "date_application_visite": "2020-08-31",
    "prix_contre_visite_min": 15,
    "prix_contre_visite_max": 45,
    "date_application_contre_visite": "2020-08-31",
    "cct_siret": 38880588900010,
    "latitude": 45.545995,
    "longitude": 2.308461,
    "coordgeo": {
      "lon": 2.308461,
      "lat": 45.545995
    },
    "cct_statut": "actif"
  },
  {
    "cct_code_dept": "Corrèze",
    "code_postal": "46240",
    "cct_code_commune": "Ussel",
    "cct_denomination": "AUTO CONTROLE MASSIF CENTRAL",
    "cct_adresse": "4 AV GAMBETTA",
    "cct_tel": "555725565",
    "cct_url": "https://controle-technique-ussel.securitest.fr/",
    "cat_vehicule_id": "3",
    "cat_vehicule_libelle": "Voiture de collection",
    "cat_energie_id": "4",
    "cat_energie_libelle": "Hybride",
    "prix_visite": 97,
    "date_application_visite": "2020-08-31",
    "prix_contre_visite_min": 15,
    "prix_contre_visite_max": 45,
    "date_application_contre_visite": "2020-08-31",
    "cct_siret": 38880588900010,
    "latitude": 45.545995,
    "longitude": 2.308461,
    "coordgeo": {
      "lon": 2.308461,
      "lat": 45.545995
    },
    "cct_statut": "actif"
  },
  {
    "cct_code_dept": "Corrèze",
    "code_postal": null,
    "cct_code_commune": "Égletons",
    "cct_denomination": "INSTALLAT USSEL CONTROLE TECHNIQUE AUTOM",
    "cct_adresse": "ZI LA CHAULAUDRE",
    "cct_tel": null,
    "cct_url": null,
    "cat_vehicule_id": "5",
    "cat_vehicule_libelle": "Camping-car (moins de 3,5 tonnes)",
    "cat_energie_id": "5",
    "cat_energie_libelle": "Electrique",
    "prix_visite": 97,
    "date_application_visite": "2021-03-08",
    "prix_contre_visite_min": 15,
    "prix_contre_visite_max": 35,
    "date_application_contre_visite": "2021-03-08",
    "cct_siret": 38303427900026,
    "latitude": 45.396019,
    "longitude": 2.037235,
    "coordgeo": {
      "lon": 2.037235,
      "lat": 45.396019
    },
    "cct_statut": "actif"
  },
  {
    "cct_code_dept": "Corrèze",
    "code_postal": "19240",
    "cct_code_commune": "Allassac",
    "cct_denomination": "ALLASSAC CONTROLE TECHNIQUE",
    "cct_adresse": "LES RIVIERES",
    "cct_tel": null,
    "cct_url": null,
    "cat_vehicule_id": "4",
    "cat_vehicule_libelle": "Camionnette",
    "cat_energie_id": "3",
    "cat_energie_libelle": "Gaz",
    "prix_visite": 0,
    "date_application_visite": "2020-09-21",
    "prix_contre_visite_min": 0,
    "prix_contre_visite_max": 0,
    "date_application_contre_visite": "2020-09-21",
    "cct_siret": 79874990900023,
    "latitude": 45.254907,
    "longitude": 1.459281,
    "coordgeo": {
      "lon": 1.459281,
      "lat": 45.254907
    },
    "cct_statut": "actif"
  },
  {
    "cct_code_dept": "Corrèze",
    "code_postal": "19240",
    "cct_code_commune": "Allassac",
    "cct_denomination": "ALLASSAC CONTROLE TECHNIQUE",
    "cct_adresse": "LES RIVIERES",
    "cct_tel": null,
    "cct_url": null,
    "cat_vehicule_id": "5",
    "cat_vehicule_libelle": "Camping-car (moins de 3,5 tonnes)",
    "cat_energie_id": "3",
    "cat_energie_libelle": "Gaz",
    "prix_visite": 0,
    "date_application_visite": "2023-01-01",
    "prix_contre_visite_min": 0,
    "prix_contre_visite_max": 0,
    "date_application_contre_visite": "2023-01-01",
    "cct_siret": 79874990900023,
    "latitude": 45.254907,
    "longitude": 1.459281,
    "coordgeo": {
      "lon": 1.459281,
      "lat": 45.254907
    },
    "cct_statut": "actif"
  },
  {
    "cct_code_dept": "Corrèze",
    "code_postal": "19240",
    "cct_code_commune": "Allassac",
    "cct_denomination": "ALLASSAC CONTROLE TECHNIQUE",
    "cct_adresse": "LES RIVIERES",
    "cct_tel": null,
    "cct_url": null,
    "cat_vehicule_id": "3",
    "cat_vehicule_libelle": "Voiture de collection",
    "cat_energie_id": "4",
    "cat_energie_libelle": "Hybride",
    "prix_visite": 0,
    "date_application_visite": "2020-09-21",
    "prix_contre_visite_min": 0,
    "prix_contre_visite_max": 0,
    "date_application_contre_visite": "2020-09-21",
    "cct_siret": 79874990900023,
    "latitude": 45.254907,
    "longitude": 1.459281,
    "coordgeo": {
      "lon": 1.459281,
      "lat": 45.254907
    },
    "cct_statut": "actif"
  },
  {
    "cct_code_dept": "Corrèze",
    "code_postal": "19240",
    "cct_code_commune": "Varetz",
    "cct_denomination": "CONTROLE TECHNIQUE DE VARETZ",
    "cct_adresse": "3 AV DU 11 NOVEMBRE",
    "cct_tel": null,
    "cct_url": null,
    "cat_vehicule_id": "5",
    "cat_vehicule_libelle": "Camping-car (moins de 3,5 tonnes)",
    "cat_energie_id": "1",
    "cat_energie_libelle": "Essence",
    "prix_visite": 75,
    "date_application_visite": "2020-09-11",
    "prix_contre_visite_min": 15,
    "prix_contre_visite_max": 40,
    "date_application_contre_visite": "2020-09-11",
    "cct_siret": 83980448100019,
    "latitude": 45.191899,
    "longitude": 1.454992,
    "coordgeo": {
      "lon": 1.454992,
      "lat": 45.191899
    },
    "cct_statut": "actif"
  },
  {
    "cct_code_dept": "Corrèze",
    "code_postal": "19370",
    "cct_code_commune": "Chamberet",
    "cct_denomination": "C.T. LACHAUD",
    "cct_adresse": "52  ZONE D'ACTIVITE DE L'ANGLE",
    "cct_tel": "555981059",
    "cct_url": "http://www.controle-technique-de-l-angle.fr",
    "cat_vehicule_id": "4",
    "cat_vehicule_libelle": "Camionnette",
    "cat_energie_id": "4",
    "cat_energie_libelle": "Hybride",
    "prix_visite": 75,
    "date_application_visite": "2022-01-03",
    "prix_contre_visite_min": 10,
    "prix_contre_visite_max": 15,
    "date_application_contre_visite": "2022-01-03",
    "cct_siret": 90261819800011,
    "latitude": 45.591914,
    "longitude": 1.722302,
    "coordgeo": {
      "lon": 1.722302,
      "lat": 45.591914
    },
    "cct_statut": "actif"
  },
  {
    "cct_code_dept": "Corrèze",
    "code_postal": "19370",
    "cct_code_commune": "Chamberet",
    "cct_denomination": "C.T. LACHAUD",
    "cct_adresse": "52  ZONE D'ACTIVITE DE L'ANGLE",
    "cct_tel": "555981059",
    "cct_url": "http://www.controle-technique-de-l-angle.fr",
    "cat_vehicule_id": "3",
    "cat_vehicule_libelle": "Voiture de collection",
    "cat_energie_id": "5",
    "cat_energie_libelle": "Electrique",
    "prix_visite": 75,
    "date_application_visite": "2022-01-03",
    "prix_contre_visite_min": 75,
    "prix_contre_visite_max": 75,
    "date_application_contre_visite": "2022-01-03",
    "cct_siret": 90261819800011,
    "latitude": 45.591914,
    "longitude": 1.722302,
    "coordgeo": {
      "lon": 1.722302,
      "lat": 45.591914
    },
    "cct_statut": "actif"
  },
  {
    "cct_code_dept": "Corrèze",
    "code_postal": "19000",
    "cct_code_commune": "Tulle",
    "cct_denomination": "TULLE AUTO CONTROLE",
    "cct_adresse": "43 RUE DU DOCTEUR VALETTE",
    "cct_tel": "555208320",
    "cct_url": null,
    "cat_vehicule_id": "5",
    "cat_vehicule_libelle": "Camping-car (moins de 3,5 tonnes)",
    "cat_energie_id": "4",
    "cat_energie_libelle": "Hybride",
    "prix_visite": 95,
    "date_application_visite": "2020-09-01",
    "prix_contre_visite_min": 15,
    "prix_contre_visite_max": 30,
    "date_application_contre_visite": "2020-09-01",
    "cct_siret": 39883850800016,
    "latitude": 45.25621,
    "longitude": 1.755926,
    "coordgeo": {
      "lon": 1.755926,
      "lat": 45.25621
    },
    "cct_statut": "actif"
  },
  {
    "cct_code_dept": "Corrèze",
    "code_postal": "19000",
    "cct_code_commune": "Tulle",
    "cct_denomination": "TULLE AUTO CONTROLE",
    "cct_adresse": "43 RUE DU DOCTEUR VALETTE",
    "cct_tel": "555208320",
    "cct_url": null,
    "cat_vehicule_id": "3",
    "cat_vehicule_libelle": "Voiture de collection",
    "cat_energie_id": "3",
    "cat_energie_libelle": "Gaz",
    "prix_visite": 85,
    "date_application_visite": "2020-09-01",
    "prix_contre_visite_min": 15,
    "prix_contre_visite_max": 30,
    "date_application_contre_visite": "2020-09-01",
    "cct_siret": 39883850800016,
    "latitude": 45.25621,
    "longitude": 1.755926,
    "coordgeo": {
      "lon": 1.755926,
      "lat": 45.25621
    },
    "cct_statut": "actif"
  },
  {
    "cct_code_dept": "Corrèze",
    "code_postal": null,
    "cct_code_commune": "Brive-la-Gaillarde",
    "cct_denomination": "CENTRE AUTO CORREZIEN",
    "cct_adresse": "83 AV DU 11 NOVEMBRE 1918",
    "cct_tel": "555848567",
    "cct_url": null,
    "cat_vehicule_id": "2",
    "cat_vehicule_libelle": "4 x 4",
    "cat_energie_id": "2",
    "cat_energie_libelle": "Diesel",
    "prix_visite": 78,
    "date_application_visite": "2020-09-09",
    "prix_contre_visite_min": 78,
    "prix_contre_visite_max": 78,
    "date_application_contre_visite": "2020-09-09",
    "cct_siret": 37996427300054,
    "latitude": 45.162447,
    "longitude": 1.543341,
    "coordgeo": {
      "lon": 1.543341,
      "lat": 45.162447
    },
    "cct_statut": "actif"
  },
  {
    "cct_code_dept": "Corrèze",
    "code_postal": "46240",
    "cct_code_commune": "Ussel",
    "cct_denomination": "INSTALLAT USSEL CONTROLE TECHNIQUE AUTOM",
    "cct_adresse": "8 RTE DU THEIL",
    "cct_tel": "555460211",
    "cct_url": null,
    "cat_vehicule_id": "4",
    "cat_vehicule_libelle": "Camionnette",
    "cat_energie_id": "5",
    "cat_energie_libelle": "Electrique",
    "prix_visite": 97,
    "date_application_visite": "2020-09-24",
    "prix_contre_visite_min": 15,
    "prix_contre_visite_max": 35,
    "date_application_contre_visite": "2020-09-24",
    "cct_siret": 38303427900018,
    "latitude": 45.554791,
    "longitude": 2.316492,
    "coordgeo": {
      "lon": 2.316492,
      "lat": 45.554791
    },
    "cct_statut": "actif"
  },
  {
    "cct_code_dept": "Corrèze",
    "code_postal": "46240",
    "cct_code_commune": "Ussel",
    "cct_denomination": "INSTALLAT USSEL CONTROLE TECHNIQUE AUTOM",
    "cct_adresse": "8 RTE DU THEIL",
    "cct_tel": "555460211",
    "cct_url": null,
    "cat_vehicule_id": "4",
    "cat_vehicule_libelle": "Camionnette",
    "cat_energie_id": "4",
    "cat_energie_libelle": "Hybride",
    "prix_visite": 86,
    "date_application_visite": "2020-09-24",
    "prix_contre_visite_min": 15,
    "prix_contre_visite_max": 35,
    "date_application_contre_visite": "2020-09-24",
    "cct_siret": 38303427900018,
    "latitude": 45.554791,
    "longitude": 2.316492,
    "coordgeo": {
      "lon": 2.316492,
      "lat": 45.554791
    },
    "cct_statut": "actif"
  },
  {
    "cct_code_dept": "Corrèze",
    "code_postal": "15300",
    "cct_code_commune": "Ussel",
    "cct_denomination": "INSTALLAT USSEL CONTROLE TECHNIQUE AUTOM",
    "cct_adresse": "8 RTE DU THEIL",
    "cct_tel": "555460211",
    "cct_url": null,
    "cat_vehicule_id": "5",
    "cat_vehicule_libelle": "Camping-car (moins de 3,5 tonnes)",
    "cat_energie_id": "5",
    "cat_energie_libelle": "Electrique",
    "prix_visite": 97,
    "date_application_visite": "2020-09-24",
    "prix_contre_visite_min": 15,
    "prix_contre_visite_max": 35,
    "date_application_contre_visite": "2020-09-24",
    "cct_siret": 38303427900018,
    "latitude": 45.554791,
    "longitude": 2.316492,
    "coordgeo": {
      "lon": 2.316492,
      "lat": 45.554791
    },
    "cct_statut": "actif"
  },
  {
    "cct_code_dept": "Corrèze",
    "code_postal": "15300",
    "cct_code_commune": "Ussel",
    "cct_denomination": "INSTALLAT USSEL CONTROLE TECHNIQUE AUTOM",
    "cct_adresse": "8 RTE DU THEIL",
    "cct_tel": "555460211",
    "cct_url": null,
    "cat_vehicule_id": "3",
    "cat_vehicule_libelle": "Voiture de collection",
    "cat_energie_id": "1",
    "cat_energie_libelle": "Essence",
    "prix_visite": 86,
    "date_application_visite": "2020-09-24",
    "prix_contre_visite_min": 15,
    "prix_contre_visite_max": 35,
    "date_application_contre_visite": "2020-09-24",
    "cct_siret": 38303427900018,
    "latitude": 45.554791,
    "longitude": 2.316492,
    "coordgeo": {
      "lon": 2.316492,
      "lat": 45.554791
    },
    "cct_statut": "actif"
  },
  {
    "cct_code_dept": "Corrèze",
    "code_postal": null,
    "cct_code_commune": "Brive-la-Gaillarde",
    "cct_denomination": "CONTROLE TECHNIQUE AUTOMOBILE TULLISTE",
    "cct_adresse": "17 BD MIRABEAU",
    "cct_tel": null,
    "cct_url": null,
    "cat_vehicule_id": "2",
    "cat_vehicule_libelle": "4 x 4",
    "cat_energie_id": "3",
    "cat_energie_libelle": "Gaz",
    "prix_visite": 90,
    "date_application_visite": "2020-12-03",
    "prix_contre_visite_min": 17,
    "prix_contre_visite_max": 35,
    "date_application_contre_visite": "2020-12-03",
    "cct_siret": 40367208200068,
    "latitude": 45.164972,
    "longitude": 1.520704,
    "coordgeo": {
      "lon": 1.520704,
      "lat": 45.164972
    },
    "cct_statut": "actif"
  },
  {
    "cct_code_dept": "Corrèze",
    "code_postal": "19700",
    "cct_code_commune": "Seilhac",
    "cct_denomination": "CONTROLE TECHNIQUE AUTO SEILHACOIS",
    "cct_adresse": "RTE DU PUY PINSON",
    "cct_tel": "555278926",
    "cct_url": null,
    "cat_vehicule_id": "4",
    "cat_vehicule_libelle": "Camionnette",
    "cat_energie_id": "5",
    "cat_energie_libelle": "Electrique",
    "prix_visite": 87,
    "date_application_visite": "2020-09-11",
    "prix_contre_visite_min": 10,
    "prix_contre_visite_max": 20,
    "date_application_contre_visite": "2020-09-11",
    "cct_siret": 48532985800016,
    "latitude": 45.364767,
    "longitude": 1.712983,
    "coordgeo": {
      "lon": 1.712983,
      "lat": 45.364767
    },
    "cct_statut": "actif"
  },
  {
    "cct_code_dept": "Corrèze",
    "code_postal": null,
    "cct_code_commune": "Saint-Priest-de-Gimel",
    "cct_denomination": "CT CORREZE",
    "cct_adresse": "1 RUE DES CHARDONNERETS",
    "cct_tel": "555209346",
    "cct_url": null,
    "cat_vehicule_id": "5",
    "cat_vehicule_libelle": "Camping-car (moins de 3,5 tonnes)",
    "cat_energie_id": "3",
    "cat_energie_libelle": "Gaz",
    "prix_visite": 81,
    "date_application_visite": "2020-09-24",
    "prix_contre_visite_min": 25,
    "prix_contre_visite_max": 35,
    "date_application_contre_visite": "2020-09-24",
    "cct_siret": 82405658400033,
    "latitude": 45.330917,
    "longitude": 1.877828,
    "coordgeo": {
      "lon": 1.877828,
      "lat": 45.330917
    },
    "cct_statut": "actif"
  },
  {
    "cct_code_dept": "Corrèze",
    "code_postal": "19210",
    "cct_code_commune": "Lubersac",
    "cct_denomination": "AUTOVISION LUBERSAC",
    "cct_adresse": "AV CHARLES DE GAULLE",
    "cct_tel": "555985363",
    "cct_url": null,
    "cat_vehicule_id": "3",
    "cat_vehicule_libelle": "Voiture de collection",
    "cat_energie_id": "4",
    "cat_energie_libelle": "Hybride",
    "prix_visite": 70,
    "date_application_visite": "2020-09-15",
    "prix_contre_visite_min": 5,
    "prix_contre_visite_max": 20,
    "date_application_contre_visite": "2020-09-15",
    "cct_siret": 40295599100029,
    "latitude": 45.447007,
    "longitude": 1.399245,
    "coordgeo": {
      "lon": 1.399245,
      "lat": 45.447007
    },
    "cct_statut": "actif"
  },
  {
    "cct_code_dept": "Corrèze",
    "code_postal": "19140",
    "cct_code_commune": "Uzerche",
    "cct_denomination": "CENTRE AUTO BILAN MONTREUIL",
    "cct_adresse": "LA GANNE LACHAUD",
    "cct_tel": "555934616",
    "cct_url": null,
    "cat_vehicule_id": "1",
    "cat_vehicule_libelle": "Voiture Particulière",
    "cat_energie_id": "3",
    "cat_energie_libelle": "Gaz",
    "prix_visite": 80,
    "date_application_visite": "2020-09-12",
    "prix_contre_visite_min": 10,
    "prix_contre_visite_max": 38,
    "date_application_contre_visite": "2020-09-12",
    "cct_siret": 32838567900449,
    "latitude": 45.399929,
    "longitude": 1.570097,
    "coordgeo": {
      "lon": 1.570097,
      "lat": 45.399929
    },
    "cct_statut": "actif"
  },
  {
    "cct_code_dept": "Corrèze",
    "code_postal": null,
    "cct_code_commune": "Brive-la-Gaillarde",
    "cct_denomination": "CONTROLE TECHNIQUE DE BRIVE OUEST",
    "cct_adresse": "2 AV ROGER RONCIER",
    "cct_tel": "555880800",
    "cct_url": null,
    "cat_vehicule_id": "5",
    "cat_vehicule_libelle": "Camping-car (moins de 3,5 tonnes)",
    "cat_energie_id": "1",
    "cat_energie_libelle": "Essence",
    "prix_visite": 80,
    "date_application_visite": "2020-09-14",
    "prix_contre_visite_min": 15,
    "prix_contre_visite_max": 45,
    "date_application_contre_visite": "2020-09-14",
    "cct_siret": 48986623600016,
    "latitude": 45.148904,
    "longitude": 1.489536,
    "coordgeo": {
      "lon": 1.489536,
      "lat": 45.148904
    },
    "cct_statut": "actif"
  },
  {
    "cct_code_dept": "Corrèze",
    "code_postal": null,
    "cct_code_commune": "Brive-la-Gaillarde",
    "cct_denomination": "CONTROLE TECHNIQUE DE BRIVE OUEST",
    "cct_adresse": "2 AV ROGER RONCIER",
    "cct_tel": "555880800",
    "cct_url": null,
    "cat_vehicule_id": "3",
    "cat_vehicule_libelle": "Voiture de collection",
    "cat_energie_id": "5",
    "cat_energie_libelle": "Electrique",
    "prix_visite": 80,
    "date_application_visite": "2020-09-14",
    "prix_contre_visite_min": 15,
    "prix_contre_visite_max": 45,
    "date_application_contre_visite": "2020-09-14",
    "cct_siret": 48986623600016,
    "latitude": 45.148904,
    "longitude": 1.489536,
    "coordgeo": {
      "lon": 1.489536,
      "lat": 45.148904
    },
    "cct_statut": "actif"
  },
  {
    "cct_code_dept": "Corrèze",
    "code_postal": "19270",
    "cct_code_commune": "Sadroc",
    "cct_denomination": "C.T.S.R.",
    "cct_adresse": "LA FONSALADE",
    "cct_tel": "555740953",
    "cct_url": "https://controle-technique-sadroc.securitest.fr/",
    "cat_vehicule_id": "4",
    "cat_vehicule_libelle": "Camionnette",
    "cat_energie_id": "3",
    "cat_energie_libelle": "Gaz",
    "prix_visite": 72,
    "date_application_visite": "2021-02-11",
    "prix_contre_visite_min": 15,
    "prix_contre_visite_max": 55,
    "date_application_contre_visite": "2021-02-11",
    "cct_siret": 50218621600011,
    "latitude": 45.266353,
    "longitude": 1.564993,
    "coordgeo": {
      "lon": 1.564993,
      "lat": 45.266353
    },
    "cct_statut": "actif"
  },
  {
    "cct_code_dept": "Corrèze",
    "code_postal": "19270",
    "cct_code_commune": "Sadroc",
    "cct_denomination": "C.T.S.R.",
    "cct_adresse": "LA FONSALADE",
    "cct_tel": "555740953",
    "cct_url": "https://controle-technique-sadroc.securitest.fr/",
    "cat_vehicule_id": "1",
    "cat_vehicule_libelle": "Voiture Particulière",
    "cat_energie_id": "1",
    "cat_energie_libelle": "Essence",
    "prix_visite": 72,
    "date_application_visite": "2021-02-11",
    "prix_contre_visite_min": 15,
    "prix_contre_visite_max": 55,
    "date_application_contre_visite": "2021-02-11",
    "cct_siret": 50218621600011,
    "latitude": 45.266353,
    "longitude": 1.564993,
    "coordgeo": {
      "lon": 1.564993,
      "lat": 45.266353
    },
    "cct_statut": "actif"
  },
  {
    "cct_code_dept": "Corrèze",
    "code_postal": null,
    "cct_code_commune": "Bort-les-Orgues",
    "cct_denomination": "AUTO CONTROLE MASSIF CENTRAL",
    "cct_adresse": "740 RUE DE LA TUILERIE",
    "cct_tel": "555729605",
    "cct_url": "http://www.bort.securitest.fr/",
    "cat_vehicule_id": "2",
    "cat_vehicule_libelle": "4 x 4",
    "cat_energie_id": "1",
    "cat_energie_libelle": "Essence",
    "prix_visite": 91,
    "date_application_visite": "2023-02-01",
    "prix_contre_visite_min": 15,
    "prix_contre_visite_max": 45,
    "date_application_contre_visite": "2023-02-01",
    "cct_siret": 38880588900051,
    "latitude": 45.388919,
    "longitude": 2.488007,
    "coordgeo": {
      "lon": 2.488007,
      "lat": 45.388919
    },
    "cct_statut": "actif"
  },
  {
    "cct_code_dept": "Corrèze",
    "code_postal": null,
    "cct_code_commune": "Bort-les-Orgues",
    "cct_denomination": "AUTO CONTROLE MASSIF CENTRAL",
    "cct_adresse": "740 RUE DE LA TUILERIE",
    "cct_tel": "555729605",
    "cct_url": "http://www.bort.securitest.fr/",
    "cat_vehicule_id": "5",
    "cat_vehicule_libelle": "Camping-car (moins de 3,5 tonnes)",
    "cat_energie_id": "1",
    "cat_energie_libelle": "Essence",
    "prix_visite": 91,
    "date_application_visite": "2023-02-01",
    "prix_contre_visite_min": 15,
    "prix_contre_visite_max": 45,
    "date_application_contre_visite": "2023-02-01",
    "cct_siret": 38880588900051,
    "latitude": 45.388919,
    "longitude": 2.488007,
    "coordgeo": {
      "lon": 2.488007,
      "lat": 45.388919
    },
    "cct_statut": "actif"
  },
  {
    "cct_code_dept": "Corrèze",
    "code_postal": null,
    "cct_code_commune": "Bort-les-Orgues",
    "cct_denomination": "AUTO CONTROLE MASSIF CENTRAL",
    "cct_adresse": "740 RUE DE LA TUILERIE",
    "cct_tel": "555729605",
    "cct_url": "http://www.bort.securitest.fr/",
    "cat_vehicule_id": "1",
    "cat_vehicule_libelle": "Voiture Particulière",
    "cat_energie_id": "3",
    "cat_energie_libelle": "Gaz",
    "prix_visite": 99,
    "date_application_visite": "2023-02-01",
    "prix_contre_visite_min": 15,
    "prix_contre_visite_max": 45,
    "date_application_contre_visite": "2023-02-01",
    "cct_siret": 38880588900051,
    "latitude": 45.388919,
    "longitude": 2.488007,
    "coordgeo": {
      "lon": 2.488007,
      "lat": 45.388919
    },
    "cct_statut": "actif"
  },
  {
    "cct_code_dept": "Corrèze",
    "code_postal": "19240",
    "cct_code_commune": "Allassac",
    "cct_denomination": "ALLASSAC CONTROLE TECHNIQUE",
    "cct_adresse": "LES RIVIERES",
    "cct_tel": null,
    "cct_url": null,
    "cat_vehicule_id": "2",
    "cat_vehicule_libelle": "4 x 4",
    "cat_energie_id": "4",
    "cat_energie_libelle": "Hybride",
    "prix_visite": 76,
    "date_application_visite": "2020-09-21",
    "prix_contre_visite_min": 20,
    "prix_contre_visite_max": 20,
    "date_application_contre_visite": "2020-09-21",
    "cct_siret": 79874990900023,
    "latitude": 45.254907,
    "longitude": 1.459281,
    "coordgeo": {
      "lon": 1.459281,
      "lat": 45.254907
    },
    "cct_statut": "actif"
  },
  {
    "cct_code_dept": "Corrèze",
    "code_postal": "19240",
    "cct_code_commune": "Allassac",
    "cct_denomination": "ALLASSAC CONTROLE TECHNIQUE",
    "cct_adresse": "LES RIVIERES",
    "cct_tel": null,
    "cct_url": null,
    "cat_vehicule_id": "4",
    "cat_vehicule_libelle": "Camionnette",
    "cat_energie_id": "2",
    "cat_energie_libelle": "Diesel",
    "prix_visite": 78,
    "date_application_visite": "2023-01-01",
    "prix_contre_visite_min": 21,
    "prix_contre_visite_max": 21,
    "date_application_contre_visite": "2023-01-01",
    "cct_siret": 79874990900023,
    "latitude": 45.254907,
    "longitude": 1.459281,
    "coordgeo": {
      "lon": 1.459281,
      "lat": 45.254907
    },
    "cct_statut": "actif"
  },
  {
    "cct_code_dept": "Corrèze",
    "code_postal": "19240",
    "cct_code_commune": "Allassac",
    "cct_denomination": "ALLASSAC CONTROLE TECHNIQUE",
    "cct_adresse": "LES RIVIERES",
    "cct_tel": null,
    "cct_url": null,
    "cat_vehicule_id": "4",
    "cat_vehicule_libelle": "Camionnette",
    "cat_energie_id": "2",
    "cat_energie_libelle": "Diesel",
    "prix_visite": 76,
    "date_application_visite": "2020-09-21",
    "prix_contre_visite_min": 20,
    "prix_contre_visite_max": 20,
    "date_application_contre_visite": "2020-09-21",
    "cct_siret": 79874990900023,
    "latitude": 45.254907,
    "longitude": 1.459281,
    "coordgeo": {
      "lon": 1.459281,
      "lat": 45.254907
    },
    "cct_statut": "actif"
  },
  {
    "cct_code_dept": "Corrèze",
    "code_postal": "19240",
    "cct_code_commune": "Allassac",
    "cct_denomination": "ALLASSAC CONTROLE TECHNIQUE",
    "cct_adresse": "LES RIVIERES",
    "cct_tel": null,
    "cct_url": null,
    "cat_vehicule_id": "5",
    "cat_vehicule_libelle": "Camping-car (moins de 3,5 tonnes)",
    "cat_energie_id": "2",
    "cat_energie_libelle": "Diesel",
    "prix_visite": 78,
    "date_application_visite": "2023-01-01",
    "prix_contre_visite_min": 21,
    "prix_contre_visite_max": 21,
    "date_application_contre_visite": "2023-01-01",
    "cct_siret": 79874990900023,
    "latitude": 45.254907,
    "longitude": 1.459281,
    "coordgeo": {
      "lon": 1.459281,
      "lat": 45.254907
    },
    "cct_statut": "actif"
  },
  {
    "cct_code_dept": "Corrèze",
    "code_postal": "19240",
    "cct_code_commune": "Allassac",
    "cct_denomination": "ALLASSAC CONTROLE TECHNIQUE",
    "cct_adresse": "LES RIVIERES",
    "cct_tel": null,
    "cct_url": null,
    "cat_vehicule_id": "1",
    "cat_vehicule_libelle": "Voiture Particulière",
    "cat_energie_id": "3",
    "cat_energie_libelle": "Gaz",
    "prix_visite": 0,
    "date_application_visite": "2023-01-01",
    "prix_contre_visite_min": 0,
    "prix_contre_visite_max": 0,
    "date_application_contre_visite": "2023-01-01",
    "cct_siret": 79874990900023,
    "latitude": 45.254907,
    "longitude": 1.459281,
    "coordgeo": {
      "lon": 1.459281,
      "lat": 45.254907
    },
    "cct_statut": "actif"
  },
  {
    "cct_code_dept": "Corrèze",
    "code_postal": "19240",
    "cct_code_commune": "Varetz",
    "cct_denomination": "CONTROLE TECHNIQUE DE VARETZ",
    "cct_adresse": "3 AV DU 11 NOVEMBRE",
    "cct_tel": null,
    "cct_url": null,
    "cat_vehicule_id": "1",
    "cat_vehicule_libelle": "Voiture Particulière",
    "cat_energie_id": "1",
    "cat_energie_libelle": "Essence",
    "prix_visite": 75,
    "date_application_visite": "2020-09-11",
    "prix_contre_visite_min": 15,
    "prix_contre_visite_max": 40,
    "date_application_contre_visite": "2020-09-11",
    "cct_siret": 83980448100019,
    "latitude": 45.191899,
    "longitude": 1.454992,
    "coordgeo": {
      "lon": 1.454992,
      "lat": 45.191899
    },
    "cct_statut": "actif"
  },
  {
    "cct_code_dept": "Corrèze",
    "code_postal": null,
    "cct_code_commune": "Bort-les-Orgues",
    "cct_denomination": "CONTROLE TECH AUTOMOBILE DES ORGUES",
    "cct_adresse": "251 RUE GUYNEMER",
    "cct_tel": "555967696",
    "cct_url": null,
    "cat_vehicule_id": "4",
    "cat_vehicule_libelle": "Camionnette",
    "cat_energie_id": "1",
    "cat_energie_libelle": "Essence",
    "prix_visite": 72.5,
    "date_application_visite": "2020-09-04",
    "prix_contre_visite_min": 15,
    "prix_contre_visite_max": 30,
    "date_application_contre_visite": "2020-09-04",
    "cct_siret": 48391262200014,
    "latitude": 45.394325,
    "longitude": 2.493188,
    "coordgeo": {
      "lon": 2.493188,
      "lat": 45.394325
    },
    "cct_statut": "actif"
  },
  {
    "cct_code_dept": "Corrèze",
    "code_postal": null,
    "cct_code_commune": "Bort-les-Orgues",
    "cct_denomination": "CONTROLE TECH AUTOMOBILE DES ORGUES",
    "cct_adresse": "251 RUE GUYNEMER",
    "cct_tel": "555967696",
    "cct_url": null,
    "cat_vehicule_id": "1",
    "cat_vehicule_libelle": "Voiture Particulière",
    "cat_energie_id": "5",
    "cat_energie_libelle": "Electrique",
    "prix_visite": 72.5,
    "date_application_visite": "2020-09-04",
    "prix_contre_visite_min": 15,
    "prix_contre_visite_max": 30,
    "date_application_contre_visite": "2020-09-04",
    "cct_siret": 48391262200014,
    "latitude": 45.394325,
    "longitude": 2.493188,
    "coordgeo": {
      "lon": 2.493188,
      "lat": 45.394325
    },
    "cct_statut": "actif"
  },
  {
    "cct_code_dept": "Corrèze",
    "code_postal": "19500",
    "cct_code_commune": "Meyssac",
    "cct_denomination": "SOLERE C.T AUTOMOBILES",
    "cct_adresse": "PEYRELADE",
    "cct_tel": "677790168",
    "cct_url": null,
    "cat_vehicule_id": "3",
    "cat_vehicule_libelle": "Voiture de collection",
    "cat_energie_id": "2",
    "cat_energie_libelle": "Diesel",
    "prix_visite": 71.13,
    "date_application_visite": "2020-11-05",
    "prix_contre_visite_min": 13,
    "prix_contre_visite_max": 18,
    "date_application_contre_visite": "2020-11-05",
    "cct_siret": 51812813700024,
    "latitude": 45.043627,
    "longitude": 1.686632,
    "coordgeo": {
      "lon": 1.686632,
      "lat": 45.043627
    },
    "cct_statut": "actif"
  },
  {
    "cct_code_dept": "Corrèze",
    "code_postal": "19500",
    "cct_code_commune": "Meyssac",
    "cct_denomination": "SOLERE C.T AUTOMOBILES",
    "cct_adresse": "PEYRELADE",
    "cct_tel": "677790168",
    "cct_url": null,
    "cat_vehicule_id": "3",
    "cat_vehicule_libelle": "Voiture de collection",
    "cat_energie_id": "1",
    "cat_energie_libelle": "Essence",
    "prix_visite": 71.13,
    "date_application_visite": "2020-11-05",
    "prix_contre_visite_min": 13,
    "prix_contre_visite_max": 18,
    "date_application_contre_visite": "2020-11-05",
    "cct_siret": 51812813700024,
    "latitude": 45.043627,
    "longitude": 1.686632,
    "coordgeo": {
      "lon": 1.686632,
      "lat": 45.043627
    },
    "cct_statut": "actif"
  },
  {
    "cct_code_dept": "Corrèze",
    "code_postal": "19500",
    "cct_code_commune": "Meyssac",
    "cct_denomination": "SOLERE C.T AUTOMOBILES",
    "cct_adresse": "PEYRELADE",
    "cct_tel": "677790168",
    "cct_url": null,
    "cat_vehicule_id": "3",
    "cat_vehicule_libelle": "Voiture de collection",
    "cat_energie_id": "4",
    "cat_energie_libelle": "Hybride",
    "prix_visite": 71.13,
    "date_application_visite": "2020-11-05",
    "prix_contre_visite_min": 13,
    "prix_contre_visite_max": 18,
    "date_application_contre_visite": "2020-11-05",
    "cct_siret": 51812813700024,
    "latitude": 45.043627,
    "longitude": 1.686632,
    "coordgeo": {
      "lon": 1.686632,
      "lat": 45.043627
    },
    "cct_statut": "actif"
  },
  {
    "cct_code_dept": "Corrèze",
    "code_postal": "19000",
    "cct_code_commune": "Tulle",
    "cct_denomination": "TULLE AUTO CONTROLE",
    "cct_adresse": "43 RUE DU DOCTEUR VALETTE",
    "cct_tel": "555208320",
    "cct_url": null,
    "cat_vehicule_id": "2",
    "cat_vehicule_libelle": "4 x 4",
    "cat_energie_id": "3",
    "cat_energie_libelle": "Gaz",
    "prix_visite": 95,
    "date_application_visite": "2020-09-01",
    "prix_contre_visite_min": 15,
    "prix_contre_visite_max": 30,
    "date_application_contre_visite": "2020-09-01",
    "cct_siret": 39883850800016,
    "latitude": 45.25621,
    "longitude": 1.755926,
    "coordgeo": {
      "lon": 1.755926,
      "lat": 45.25621
    },
    "cct_statut": "actif"
  },
  {
    "cct_code_dept": "Corrèze",
    "code_postal": "19000",
    "cct_code_commune": "Tulle",
    "cct_denomination": "TULLE AUTO CONTROLE",
    "cct_adresse": "43 RUE DU DOCTEUR VALETTE",
    "cct_tel": "555208320",
    "cct_url": null,
    "cat_vehicule_id": "3",
    "cat_vehicule_libelle": "Voiture de collection",
    "cat_energie_id": "5",
    "cat_energie_libelle": "Electrique",
    "prix_visite": 85,
    "date_application_visite": "2020-09-01",
    "prix_contre_visite_min": 15,
    "prix_contre_visite_max": 30,
    "date_application_contre_visite": "2020-09-01",
    "cct_siret": 39883850800016,
    "latitude": 45.25621,
    "longitude": 1.755926,
    "coordgeo": {
      "lon": 1.755926,
      "lat": 45.25621
    },
    "cct_statut": "actif"
  },
  {
    "cct_code_dept": "Corrèze",
    "code_postal": null,
    "cct_code_commune": "Bort-les-Orgues",
    "cct_denomination": "CONTROLE TECH AUTOMOBILE DES ORGUES",
    "cct_adresse": "251 RUE GUYNEMER",
    "cct_tel": "555967696",
    "cct_url": null,
    "cat_vehicule_id": "3",
    "cat_vehicule_libelle": "Voiture de collection",
    "cat_energie_id": "4",
    "cat_energie_libelle": "Hybride",
    "prix_visite": 72.5,
    "date_application_visite": "2020-09-04",
    "prix_contre_visite_min": 15,
    "prix_contre_visite_max": 30,
    "date_application_contre_visite": "2020-09-04",
    "cct_siret": 48391262200014,
    "latitude": 45.394325,
    "longitude": 2.493188,
    "coordgeo": {
      "lon": 2.493188,
      "lat": 45.394325
    },
    "cct_statut": "actif"
  },
  {
    "cct_code_dept": "Corrèze",
    "code_postal": "19000",
    "cct_code_commune": "Tulle",
    "cct_denomination": "TULLE AUTO CONTROLE",
    "cct_adresse": "43 RUE DU DOCTEUR VALETTE",
    "cct_tel": "555208320",
    "cct_url": null,
    "cat_vehicule_id": "1",
    "cat_vehicule_libelle": "Voiture Particulière",
    "cat_energie_id": "3",
    "cat_energie_libelle": "Gaz",
    "prix_visite": 95,
    "date_application_visite": "2020-09-01",
    "prix_contre_visite_min": 15,
    "prix_contre_visite_max": 30,
    "date_application_contre_visite": "2020-09-01",
    "cct_siret": 39883850800016,
    "latitude": 45.25621,
    "longitude": 1.755926,
    "coordgeo": {
      "lon": 1.755926,
      "lat": 45.25621
    },
    "cct_statut": "actif"
  },
  {
    "cct_code_dept": "Corrèze",
    "code_postal": null,
    "cct_code_commune": "Brive-la-Gaillarde",
    "cct_denomination": "CENTRE AUTO CORREZIEN",
    "cct_adresse": "83 AV DU 11 NOVEMBRE 1918",
    "cct_tel": "555848567",
    "cct_url": null,
    "cat_vehicule_id": "4",
    "cat_vehicule_libelle": "Camionnette",
    "cat_energie_id": "2",
    "cat_energie_libelle": "Diesel",
    "prix_visite": 75,
    "date_application_visite": "2020-09-09",
    "prix_contre_visite_min": 75,
    "prix_contre_visite_max": 75,
    "date_application_contre_visite": "2020-09-09",
    "cct_siret": 37996427300054,
    "latitude": 45.162447,
    "longitude": 1.543341,
    "coordgeo": {
      "lon": 1.543341,
      "lat": 45.162447
    },
    "cct_statut": "actif"
  },
  {
    "cct_code_dept": "Corrèze",
    "code_postal": null,
    "cct_code_commune": "Brive-la-Gaillarde",
    "cct_denomination": "CENTRE AUTO CORREZIEN",
    "cct_adresse": "83 AV DU 11 NOVEMBRE 1918",
    "cct_tel": "555848567",
    "cct_url": null,
    "cat_vehicule_id": "5",
    "cat_vehicule_libelle": "Camping-car (moins de 3,5 tonnes)",
    "cat_energie_id": "2",
    "cat_energie_libelle": "Diesel",
    "prix_visite": 80,
    "date_application_visite": "2020-09-09",
    "prix_contre_visite_min": 10,
    "prix_contre_visite_max": 30,
    "date_application_contre_visite": "2020-09-09",
    "cct_siret": 37996427300054,
    "latitude": 45.162447,
    "longitude": 1.543341,
    "coordgeo": {
      "lon": 1.543341,
      "lat": 45.162447
    },
    "cct_statut": "actif"
  },
  {
    "cct_code_dept": "Corrèze",
    "code_postal": null,
    "cct_code_commune": "Brive-la-Gaillarde",
    "cct_denomination": "CENTRE AUTO CORREZIEN",
    "cct_adresse": "83 AV DU 11 NOVEMBRE 1918",
    "cct_tel": "555848567",
    "cct_url": null,
    "cat_vehicule_id": "5",
    "cat_vehicule_libelle": "Camping-car (moins de 3,5 tonnes)",
    "cat_energie_id": "1",
    "cat_energie_libelle": "Essence",
    "prix_visite": 78,
    "date_application_visite": "2020-09-09",
    "prix_contre_visite_min": 10,
    "prix_contre_visite_max": 30,
    "date_application_contre_visite": "2020-09-09",
    "cct_siret": 37996427300054,
    "latitude": 45.162447,
    "longitude": 1.543341,
    "coordgeo": {
      "lon": 1.543341,
      "lat": 45.162447
    },
    "cct_statut": "actif"
  },
  {
    "cct_code_dept": "Corrèze",
    "code_postal": null,
    "cct_code_commune": "Brive-la-Gaillarde",
    "cct_denomination": "CENTRE AUTO CORREZIEN",
    "cct_adresse": "83 AV DU 11 NOVEMBRE 1918",
    "cct_tel": "555848567",
    "cct_url": null,
    "cat_vehicule_id": "3",
    "cat_vehicule_libelle": "Voiture de collection",
    "cat_energie_id": "2",
    "cat_energie_libelle": "Diesel",
    "prix_visite": 75,
    "date_application_visite": "2020-09-09",
    "prix_contre_visite_min": 10,
    "prix_contre_visite_max": 30,
    "date_application_contre_visite": "2020-09-09",
    "cct_siret": 37996427300054,
    "latitude": 45.162447,
    "longitude": 1.543341,
    "coordgeo": {
      "lon": 1.543341,
      "lat": 45.162447
    },
    "cct_statut": "actif"
  },
  {
    "cct_code_dept": "Corrèze",
    "code_postal": null,
    "cct_code_commune": "Brive-la-Gaillarde",
    "cct_denomination": "CENTRE AUTO CORREZIEN",
    "cct_adresse": "83 AV DU 11 NOVEMBRE 1918",
    "cct_tel": "555848567",
    "cct_url": null,
    "cat_vehicule_id": "3",
    "cat_vehicule_libelle": "Voiture de collection",
    "cat_energie_id": "1",
    "cat_energie_libelle": "Essence",
    "prix_visite": 75,
    "date_application_visite": "2020-09-09",
    "prix_contre_visite_min": 75,
    "prix_contre_visite_max": 75,
    "date_application_contre_visite": "2020-09-09",
    "cct_siret": 37996427300054,
    "latitude": 45.162447,
    "longitude": 1.543341,
    "coordgeo": {
      "lon": 1.543341,
      "lat": 45.162447
    },
    "cct_statut": "actif"
  },
  {
    "cct_code_dept": "Corrèze",
    "code_postal": "19200",
    "cct_code_commune": "Ussel",
    "cct_denomination": "INSTALLAT USSEL CONTROLE TECHNIQUE AUTOM",
    "cct_adresse": "8 RTE DU THEIL",
    "cct_tel": "555460211",
    "cct_url": null,
    "cat_vehicule_id": "3",
    "cat_vehicule_libelle": "Voiture de collection",
    "cat_energie_id": "1",
    "cat_energie_libelle": "Essence",
    "prix_visite": 86,
    "date_application_visite": "2020-09-24",
    "prix_contre_visite_min": 15,
    "prix_contre_visite_max": 35,
    "date_application_contre_visite": "2020-09-24",
    "cct_siret": 38303427900018,
    "latitude": 45.554791,
    "longitude": 2.316492,
    "coordgeo": {
      "lon": 2.316492,
      "lat": 45.554791
    },
    "cct_statut": "actif"
  },
  {
    "cct_code_dept": "Corrèze",
    "code_postal": "19250",
    "cct_code_commune": "Meymac",
    "cct_denomination": "INSTALLAT USSEL CONTROLE TECHNIQUE AUTOM",
    "cct_adresse": "14 PL DES PORROTS",
    "cct_tel": null,
    "cct_url": null,
    "cat_vehicule_id": "1",
    "cat_vehicule_libelle": "Voiture Particulière",
    "cat_energie_id": "5",
    "cat_energie_libelle": "Electrique",
    "prix_visite": 97,
    "date_application_visite": "2021-03-08",
    "prix_contre_visite_min": 15,
    "prix_contre_visite_max": 35,
    "date_application_contre_visite": "2021-03-08",
    "cct_siret": 38303427900034,
    "latitude": 45.535037,
    "longitude": 2.145076,
    "coordgeo": {
      "lon": 2.145076,
      "lat": 45.535037
    },
    "cct_statut": "actif"
  },
  {
    "cct_code_dept": "Corrèze",
    "code_postal": "19700",
    "cct_code_commune": "Seilhac",
    "cct_denomination": "CONTROLE TECHNIQUE AUTO SEILHACOIS",
    "cct_adresse": "RTE DU PUY PINSON",
    "cct_tel": "555278926",
    "cct_url": null,
    "cat_vehicule_id": "2",
    "cat_vehicule_libelle": "4 x 4",
    "cat_energie_id": "2",
    "cat_energie_libelle": "Diesel",
    "prix_visite": 87,
    "date_application_visite": "2020-09-11",
    "prix_contre_visite_min": 10,
    "prix_contre_visite_max": 20,
    "date_application_contre_visite": "2020-09-11",
    "cct_siret": 48532985800016,
    "latitude": 45.364767,
    "longitude": 1.712983,
    "coordgeo": {
      "lon": 1.712983,
      "lat": 45.364767
    },
    "cct_statut": "actif"
  },
  {
    "cct_code_dept": "Corrèze",
    "code_postal": "19700",
    "cct_code_commune": "Seilhac",
    "cct_denomination": "CONTROLE TECHNIQUE AUTO SEILHACOIS",
    "cct_adresse": "RTE DU PUY PINSON",
    "cct_tel": "555278926",
    "cct_url": null,
    "cat_vehicule_id": "5",
    "cat_vehicule_libelle": "Camping-car (moins de 3,5 tonnes)",
    "cat_energie_id": "3",
    "cat_energie_libelle": "Gaz",
    "prix_visite": 107,
    "date_application_visite": "2020-09-11",
    "prix_contre_visite_min": 10,
    "prix_contre_visite_max": 20,
    "date_application_contre_visite": "2020-09-11",
    "cct_siret": 48532985800016,
    "latitude": 45.364767,
    "longitude": 1.712983,
    "coordgeo": {
      "lon": 1.712983,
      "lat": 45.364767
    },
    "cct_statut": "actif"
  },
  {
    "cct_code_dept": "Corrèze",
    "code_postal": null,
    "cct_code_commune": "Brive-la-Gaillarde",
    "cct_denomination": "CONTROLE TECHNIQUE AUTOMOBILE TULLISTE",
    "cct_adresse": "10 BD VOLTAIRE",
    "cct_tel": null,
    "cct_url": null,
    "cat_vehicule_id": "1",
    "cat_vehicule_libelle": "Voiture Particulière",
    "cat_energie_id": "2",
    "cat_energie_libelle": "Diesel",
    "prix_visite": 85,
    "date_application_visite": "2020-12-03",
    "prix_contre_visite_min": 17,
    "prix_contre_visite_max": 35,
    "date_application_contre_visite": "2020-12-03",
    "cct_siret": 40367208200126,
    "latitude": 45.159438,
    "longitude": 1.540684,
    "coordgeo": {
      "lon": 1.540684,
      "lat": 45.159438
    },
    "cct_statut": "actif"
  },
  {
    "cct_code_dept": "Corrèze",
    "code_postal": null,
    "cct_code_commune": "Brive-la-Gaillarde",
    "cct_denomination": "CONTROLE TECHNIQUE AUTOMOBILE TULLISTE",
    "cct_adresse": "10 BD VOLTAIRE",
    "cct_tel": null,
    "cct_url": null,
    "cat_vehicule_id": "3",
    "cat_vehicule_libelle": "Voiture de collection",
    "cat_energie_id": "4",
    "cat_energie_libelle": "Hybride",
    "prix_visite": 85,
    "date_application_visite": "2020-12-03",
    "prix_contre_visite_min": 17,
    "prix_contre_visite_max": 35,
    "date_application_contre_visite": "2020-12-03",
    "cct_siret": 40367208200126,
    "latitude": 45.159438,
    "longitude": 1.540684,
    "coordgeo": {
      "lon": 1.540684,
      "lat": 45.159438
    },
    "cct_statut": "actif"
  },
  {
    "cct_code_dept": "Corrèze",
    "code_postal": null,
    "cct_code_commune": "Saint-Priest-de-Gimel",
    "cct_denomination": "CT CORREZE",
    "cct_adresse": "1 RUE DES CHARDONNERETS",
    "cct_tel": "555209346",
    "cct_url": null,
    "cat_vehicule_id": "2",
    "cat_vehicule_libelle": "4 x 4",
    "cat_energie_id": "2",
    "cat_energie_libelle": "Diesel",
    "prix_visite": 81,
    "date_application_visite": "2020-09-24",
    "prix_contre_visite_min": 25,
    "prix_contre_visite_max": 35,
    "date_application_contre_visite": "2020-09-24",
    "cct_siret": 82405658400033,
    "latitude": 45.330917,
    "longitude": 1.877828,
    "coordgeo": {
      "lon": 1.877828,
      "lat": 45.330917
    },
    "cct_statut": "actif"
  },
  {
    "cct_code_dept": "Corrèze",
    "code_postal": null,
    "cct_code_commune": "Arnac-Pompadour",
    "cct_denomination": "STEPH'CONTROLES",
    "cct_adresse": "15 AV DE LA GARE",
    "cct_tel": "555739516",
    "cct_url": "dekra-ct.fr",
    "cat_vehicule_id": "3",
    "cat_vehicule_libelle": "Voiture de collection",
    "cat_energie_id": "1",
    "cat_energie_libelle": "Essence",
    "prix_visite": 70,
    "date_application_visite": "2020-09-02",
    "prix_contre_visite_min": 10,
    "prix_contre_visite_max": 15,
    "date_application_contre_visite": "2020-09-02",
    "cct_siret": 82309208500021,
    "latitude": 45.395634,
    "longitude": 1.388087,
    "coordgeo": {
      "lon": 1.388087,
      "lat": 45.395634
    },
    "cct_statut": "actif"
  },
  {
    "cct_code_dept": "Corrèze",
    "code_postal": "19270",
    "cct_code_commune": "Sadroc",
    "cct_denomination": "C.T.S.R.",
    "cct_adresse": "LA FONSALADE",
    "cct_tel": "555740953",
    "cct_url": "https://controle-technique-sadroc.securitest.fr/",
    "cat_vehicule_id": "2",
    "cat_vehicule_libelle": "4 x 4",
    "cat_energie_id": "2",
    "cat_energie_libelle": "Diesel",
    "prix_visite": 72,
    "date_application_visite": "2021-02-11",
    "prix_contre_visite_min": 15,
    "prix_contre_visite_max": 55,
    "date_application_contre_visite": "2021-02-11",
    "cct_siret": 50218621600011,
    "latitude": 45.266353,
    "longitude": 1.564993,
    "coordgeo": {
      "lon": 1.564993,
      "lat": 45.266353
    },
    "cct_statut": "actif"
  },
  {
    "cct_code_dept": "Corrèze",
    "code_postal": "19270",
    "cct_code_commune": "Sadroc",
    "cct_denomination": "C.T.S.R.",
    "cct_adresse": "LA FONSALADE",
    "cct_tel": "555740953",
    "cct_url": "https://controle-technique-sadroc.securitest.fr/",
    "cat_vehicule_id": "4",
    "cat_vehicule_libelle": "Camionnette",
    "cat_energie_id": "1",
    "cat_energie_libelle": "Essence",
    "prix_visite": 72,
    "date_application_visite": "2021-02-11",
    "prix_contre_visite_min": 15,
    "prix_contre_visite_max": 55,
    "date_application_contre_visite": "2021-02-11",
    "cct_siret": 50218621600011,
    "latitude": 45.266353,
    "longitude": 1.564993,
    "coordgeo": {
      "lon": 1.564993,
      "lat": 45.266353
    },
    "cct_statut": "actif"
  },
  {
    "cct_code_dept": "Corrèze",
    "code_postal": "19270",
    "cct_code_commune": "Sadroc",
    "cct_denomination": "C.T.S.R.",
    "cct_adresse": "LA FONSALADE",
    "cct_tel": "555740953",
    "cct_url": "https://controle-technique-sadroc.securitest.fr/",
    "cat_vehicule_id": "3",
    "cat_vehicule_libelle": "Voiture de collection",
    "cat_energie_id": "4",
    "cat_energie_libelle": "Hybride",
    "prix_visite": 76,
    "date_application_visite": "2023-02-01",
    "prix_contre_visite_min": 15,
    "prix_contre_visite_max": 60,
    "date_application_contre_visite": "2023-02-01",
    "cct_siret": 50218621600011,
    "latitude": 45.266353,
    "longitude": 1.564993,
    "coordgeo": {
      "lon": 1.564993,
      "lat": 45.266353
    },
    "cct_statut": "actif"
  },
  {
    "cct_code_dept": "Corrèze",
    "code_postal": null,
    "cct_code_commune": "Perpezac-le-Noir",
    "cct_denomination": "CTVA 19",
    "cct_adresse": "MOURNETAS",
    "cct_tel": null,
    "cct_url": null,
    "cat_vehicule_id": "5",
    "cat_vehicule_libelle": "Camping-car (moins de 3,5 tonnes)",
    "cat_energie_id": "1",
    "cat_energie_libelle": "Essence",
    "prix_visite": 76,
    "date_application_visite": "2020-10-12",
    "prix_contre_visite_min": 13,
    "prix_contre_visite_max": 31,
    "date_application_contre_visite": "2020-10-12",
    "cct_siret": 84243209800015,
    "latitude": 45.32084,
    "longitude": 1.554939,
    "coordgeo": {
      "lon": 1.554939,
      "lat": 45.32084
    },
    "cct_statut": "actif"
  },
  {
    "cct_code_dept": "Corrèze",
    "code_postal": null,
    "cct_code_commune": "Bort-les-Orgues",
    "cct_denomination": "AUTO CONTROLE MASSIF CENTRAL",
    "cct_adresse": "740 RUE DE LA TUILERIE",
    "cct_tel": "555729605",
    "cct_url": "http://www.bort.securitest.fr/",
    "cat_vehicule_id": "3",
    "cat_vehicule_libelle": "Voiture de collection",
    "cat_energie_id": "5",
    "cat_energie_libelle": "Electrique",
    "prix_visite": 95,
    "date_application_visite": "2023-02-01",
    "prix_contre_visite_min": 15,
    "prix_contre_visite_max": 45,
    "date_application_contre_visite": "2023-02-01",
    "cct_siret": 38880588900051,
    "latitude": 45.388919,
    "longitude": 2.488007,
    "coordgeo": {
      "lon": 2.488007,
      "lat": 45.388919
    },
    "cct_statut": "actif"
  },
  {
    "cct_code_dept": "Corrèze",
    "code_postal": "15300",
    "cct_code_commune": "Ussel",
    "cct_denomination": "AUTO CONTROLE MASSIF CENTRAL",
    "cct_adresse": "4 AV GAMBETTA",
    "cct_tel": "555725565",
    "cct_url": "https://controle-technique-ussel.securitest.fr/",
    "cat_vehicule_id": "2",
    "cat_vehicule_libelle": "4 x 4",
    "cat_energie_id": "5",
    "cat_energie_libelle": "Electrique",
    "prix_visite": 97,
    "date_application_visite": "2020-08-31",
    "prix_contre_visite_min": 15,
    "prix_contre_visite_max": 45,
    "date_application_contre_visite": "2020-08-31",
    "cct_siret": 38880588900010,
    "latitude": 45.545995,
    "longitude": 2.308461,
    "coordgeo": {
      "lon": 2.308461,
      "lat": 45.545995
    },
    "cct_statut": "actif"
  },
  {
    "cct_code_dept": "Corrèze",
    "code_postal": "15300",
    "cct_code_commune": "Ussel",
    "cct_denomination": "AUTO CONTROLE MASSIF CENTRAL",
    "cct_adresse": "4 AV GAMBETTA",
    "cct_tel": "555725565",
    "cct_url": "https://controle-technique-ussel.securitest.fr/",
    "cat_vehicule_id": "2",
    "cat_vehicule_libelle": "4 x 4",
    "cat_energie_id": "3",
    "cat_energie_libelle": "Gaz",
    "prix_visite": 107,
    "date_application_visite": "2020-08-31",
    "prix_contre_visite_min": 15,
    "prix_contre_visite_max": 45,
    "date_application_contre_visite": "2020-08-31",
    "cct_siret": 38880588900010,
    "latitude": 45.545995,
    "longitude": 2.308461,
    "coordgeo": {
      "lon": 2.308461,
      "lat": 45.545995
    },
    "cct_statut": "actif"
  },
  {
    "cct_code_dept": "Corrèze",
    "code_postal": "19200",
    "cct_code_commune": "Ussel",
    "cct_denomination": "AUTO CONTROLE MASSIF CENTRAL",
    "cct_adresse": "4 AV GAMBETTA",
    "cct_tel": "555725565",
    "cct_url": "https://controle-technique-ussel.securitest.fr/",
    "cat_vehicule_id": "4",
    "cat_vehicule_libelle": "Camionnette",
    "cat_energie_id": "2",
    "cat_energie_libelle": "Diesel",
    "prix_visite": 87,
    "date_application_visite": "2020-08-31",
    "prix_contre_visite_min": 15,
    "prix_contre_visite_max": 45,
    "date_application_contre_visite": "2020-08-31",
    "cct_siret": 38880588900010,
    "latitude": 45.545995,
    "longitude": 2.308461,
    "coordgeo": {
      "lon": 2.308461,
      "lat": 45.545995
    },
    "cct_statut": "actif"
  },
  {
    "cct_code_dept": "Corrèze",
    "code_postal": null,
    "cct_code_commune": "Égletons",
    "cct_denomination": "INSTALLAT USSEL CONTROLE TECHNIQUE AUTOM",
    "cct_adresse": "ZI LA CHAULAUDRE",
    "cct_tel": null,
    "cct_url": null,
    "cat_vehicule_id": "4",
    "cat_vehicule_libelle": "Camionnette",
    "cat_energie_id": "2",
    "cat_energie_libelle": "Diesel",
    "prix_visite": 86,
    "date_application_visite": "2021-03-08",
    "prix_contre_visite_min": 15,
    "prix_contre_visite_max": 35,
    "date_application_contre_visite": "2021-03-08",
    "cct_siret": 38303427900026,
    "latitude": 45.396019,
    "longitude": 2.037235,
    "coordgeo": {
      "lon": 2.037235,
      "lat": 45.396019
    },
    "cct_statut": "actif"
  },
  {
    "cct_code_dept": "Corrèze",
    "code_postal": null,
    "cct_code_commune": "Égletons",
    "cct_denomination": "INSTALLAT USSEL CONTROLE TECHNIQUE AUTOM",
    "cct_adresse": "ZI LA CHAULAUDRE",
    "cct_tel": null,
    "cct_url": null,
    "cat_vehicule_id": "4",
    "cat_vehicule_libelle": "Camionnette",
    "cat_energie_id": "1",
    "cat_energie_libelle": "Essence",
    "prix_visite": 86,
    "date_application_visite": "2021-03-08",
    "prix_contre_visite_min": 15,
    "prix_contre_visite_max": 35,
    "date_application_contre_visite": "2021-03-08",
    "cct_siret": 38303427900026,
    "latitude": 45.396019,
    "longitude": 2.037235,
    "coordgeo": {
      "lon": 2.037235,
      "lat": 45.396019
    },
    "cct_statut": "actif"
  },
  {
    "cct_code_dept": "Corrèze",
    "code_postal": null,
    "cct_code_commune": "Égletons",
    "cct_denomination": "INSTALLAT USSEL CONTROLE TECHNIQUE AUTOM",
    "cct_adresse": "ZI LA CHAULAUDRE",
    "cct_tel": null,
    "cct_url": null,
    "cat_vehicule_id": "5",
    "cat_vehicule_libelle": "Camping-car (moins de 3,5 tonnes)",
    "cat_energie_id": "2",
    "cat_energie_libelle": "Diesel",
    "prix_visite": 89,
    "date_application_visite": "2021-03-08",
    "prix_contre_visite_min": 15,
    "prix_contre_visite_max": 35,
    "date_application_contre_visite": "2021-03-08",
    "cct_siret": 38303427900026,
    "latitude": 45.396019,
    "longitude": 2.037235,
    "coordgeo": {
      "lon": 2.037235,
      "lat": 45.396019
    },
    "cct_statut": "actif"
  },
  {
    "cct_code_dept": "Corrèze",
    "code_postal": null,
    "cct_code_commune": "Égletons",
    "cct_denomination": "INSTALLAT USSEL CONTROLE TECHNIQUE AUTOM",
    "cct_adresse": "ZI LA CHAULAUDRE",
    "cct_tel": null,
    "cct_url": null,
    "cat_vehicule_id": "5",
    "cat_vehicule_libelle": "Camping-car (moins de 3,5 tonnes)",
    "cat_energie_id": "1",
    "cat_energie_libelle": "Essence",
    "prix_visite": 89,
    "date_application_visite": "2021-03-08",
    "prix_contre_visite_min": 15,
    "prix_contre_visite_max": 35,
    "date_application_contre_visite": "2021-03-08",
    "cct_siret": 38303427900026,
    "latitude": 45.396019,
    "longitude": 2.037235,
    "coordgeo": {
      "lon": 2.037235,
      "lat": 45.396019
    },
    "cct_statut": "actif"
  },
  {
    "cct_code_dept": "Corrèze",
    "code_postal": null,
    "cct_code_commune": "Égletons",
    "cct_denomination": "INSTALLAT USSEL CONTROLE TECHNIQUE AUTOM",
    "cct_adresse": "ZI LA CHAULAUDRE",
    "cct_tel": null,
    "cct_url": null,
    "cat_vehicule_id": "1",
    "cat_vehicule_libelle": "Voiture Particulière",
    "cat_energie_id": "2",
    "cat_energie_libelle": "Diesel",
    "prix_visite": 86,
    "date_application_visite": "2021-03-08",
    "prix_contre_visite_min": 15,
    "prix_contre_visite_max": 35,
    "date_application_contre_visite": "2021-03-08",
    "cct_siret": 38303427900026,
    "latitude": 45.396019,
    "longitude": 2.037235,
    "coordgeo": {
      "lon": 2.037235,
      "lat": 45.396019
    },
    "cct_statut": "actif"
  },
  {
    "cct_code_dept": "Corrèze",
    "code_postal": "19240",
    "cct_code_commune": "Allassac",
    "cct_denomination": "ALLASSAC CONTROLE TECHNIQUE",
    "cct_adresse": "LES RIVIERES",
    "cct_tel": null,
    "cct_url": null,
    "cat_vehicule_id": "3",
    "cat_vehicule_libelle": "Voiture de collection",
    "cat_energie_id": "1",
    "cat_energie_libelle": "Essence",
    "prix_visite": 69,
    "date_application_visite": "2023-01-01",
    "prix_contre_visite_min": 21,
    "prix_contre_visite_max": 21,
    "date_application_contre_visite": "2023-01-01",
    "cct_siret": 79874990900023,
    "latitude": 45.254907,
    "longitude": 1.459281,
    "coordgeo": {
      "lon": 1.459281,
      "lat": 45.254907
    },
    "cct_statut": "actif"
  },
  {
    "cct_code_dept": "Corrèze",
    "code_postal": "19240",
    "cct_code_commune": "Varetz",
    "cct_denomination": "CONTROLE TECHNIQUE DE VARETZ",
    "cct_adresse": "3 AV DU 11 NOVEMBRE",
    "cct_tel": null,
    "cct_url": null,
    "cat_vehicule_id": "2",
    "cat_vehicule_libelle": "4 x 4",
    "cat_energie_id": "1",
    "cat_energie_libelle": "Essence",
    "prix_visite": 80,
    "date_application_visite": "2020-09-11",
    "prix_contre_visite_min": 15,
    "prix_contre_visite_max": 40,
    "date_application_contre_visite": "2020-09-11",
    "cct_siret": 83980448100019,
    "latitude": 45.191899,
    "longitude": 1.454992,
    "coordgeo": {
      "lon": 1.454992,
      "lat": 45.191899
    },
    "cct_statut": "actif"
  },
  {
    "cct_code_dept": "Corrèze",
    "code_postal": "19240",
    "cct_code_commune": "Varetz",
    "cct_denomination": "CONTROLE TECHNIQUE DE VARETZ",
    "cct_adresse": "3 AV DU 11 NOVEMBRE",
    "cct_tel": null,
    "cct_url": null,
    "cat_vehicule_id": "5",
    "cat_vehicule_libelle": "Camping-car (moins de 3,5 tonnes)",
    "cat_energie_id": "2",
    "cat_energie_libelle": "Diesel",
    "prix_visite": 75,
    "date_application_visite": "2020-09-11",
    "prix_contre_visite_min": 15,
    "prix_contre_visite_max": 40,
    "date_application_contre_visite": "2020-09-11",
    "cct_siret": 83980448100019,
    "latitude": 45.191899,
    "longitude": 1.454992,
    "coordgeo": {
      "lon": 1.454992,
      "lat": 45.191899
    },
    "cct_statut": "actif"
  },
  {
    "cct_code_dept": "Corrèze",
    "code_postal": "19370",
    "cct_code_commune": "Chamberet",
    "cct_denomination": "C.T. LACHAUD",
    "cct_adresse": "52  ZONE D'ACTIVITE DE L'ANGLE",
    "cct_tel": "555981059",
    "cct_url": "http://www.controle-technique-de-l-angle.fr",
    "cat_vehicule_id": "4",
    "cat_vehicule_libelle": "Camionnette",
    "cat_energie_id": "2",
    "cat_energie_libelle": "Diesel",
    "prix_visite": 75,
    "date_application_visite": "2022-01-03",
    "prix_contre_visite_min": 10,
    "prix_contre_visite_max": 15,
    "date_application_contre_visite": "2022-01-03",
    "cct_siret": 90261819800011,
    "latitude": 45.591914,
    "longitude": 1.722302,
    "coordgeo": {
      "lon": 1.722302,
      "lat": 45.591914
    },
    "cct_statut": "actif"
  },
  {
    "cct_code_dept": "Corrèze",
    "code_postal": "19370",
    "cct_code_commune": "Chamberet",
    "cct_denomination": "C.T. LACHAUD",
    "cct_adresse": "52  ZONE D'ACTIVITE DE L'ANGLE",
    "cct_tel": "555981059",
    "cct_url": "http://www.controle-technique-de-l-angle.fr",
    "cat_vehicule_id": "4",
    "cat_vehicule_libelle": "Camionnette",
    "cat_energie_id": "1",
    "cat_energie_libelle": "Essence",
    "prix_visite": 75,
    "date_application_visite": "2022-01-03",
    "prix_contre_visite_min": 10,
    "prix_contre_visite_max": 15,
    "date_application_contre_visite": "2022-01-03",
    "cct_siret": 90261819800011,
    "latitude": 45.591914,
    "longitude": 1.722302,
    "coordgeo": {
      "lon": 1.722302,
      "lat": 45.591914
    },
    "cct_statut": "actif"
  },
  {
    "cct_code_dept": "Corrèze",
    "code_postal": null,
    "cct_code_commune": "Brive-la-Gaillarde",
    "cct_denomination": "CENTRE AUTO CORREZIEN",
    "cct_adresse": "83 AV DU 11 NOVEMBRE 1918",
    "cct_tel": "555848567",
    "cct_url": null,
    "cat_vehicule_id": "2",
    "cat_vehicule_libelle": "4 x 4",
    "cat_energie_id": "2",
    "cat_energie_libelle": "Diesel",
    "prix_visite": 80,
    "date_application_visite": "2020-09-09",
    "prix_contre_visite_min": 10,
    "prix_contre_visite_max": 30,
    "date_application_contre_visite": "2020-09-09",
    "cct_siret": 37996427300054,
    "latitude": 45.162447,
    "longitude": 1.543341,
    "coordgeo": {
      "lon": 1.543341,
      "lat": 45.162447
    },
    "cct_statut": "actif"
  },
  {
    "cct_code_dept": "Corrèze",
    "code_postal": null,
    "cct_code_commune": "Brive-la-Gaillarde",
    "cct_denomination": "CENTRE AUTO CORREZIEN",
    "cct_adresse": "83 AV DU 11 NOVEMBRE 1918",
    "cct_tel": "555848567",
    "cct_url": null,
    "cat_vehicule_id": "2",
    "cat_vehicule_libelle": "4 x 4",
    "cat_energie_id": "4",
    "cat_energie_libelle": "Hybride",
    "prix_visite": 80,
    "date_application_visite": "2020-09-09",
    "prix_contre_visite_min": 10,
    "prix_contre_visite_max": 30,
    "date_application_contre_visite": "2020-09-09",
    "cct_siret": 37996427300054,
    "latitude": 45.162447,
    "longitude": 1.543341,
    "coordgeo": {
      "lon": 1.543341,
      "lat": 45.162447
    },
    "cct_statut": "actif"
  },
  {
    "cct_code_dept": "Corrèze",
    "code_postal": null,
    "cct_code_commune": "Brive-la-Gaillarde",
    "cct_denomination": "CENTRE AUTO CORREZIEN",
    "cct_adresse": "83 AV DU 11 NOVEMBRE 1918",
    "cct_tel": "555848567",
    "cct_url": null,
    "cat_vehicule_id": "4",
    "cat_vehicule_libelle": "Camionnette",
    "cat_energie_id": "5",
    "cat_energie_libelle": "Electrique",
    "prix_visite": 78,
    "date_application_visite": "2020-09-09",
    "prix_contre_visite_min": 10,
    "prix_contre_visite_max": 30,
    "date_application_contre_visite": "2020-09-09",
    "cct_siret": 37996427300054,
    "latitude": 45.162447,
    "longitude": 1.543341,
    "coordgeo": {
      "lon": 1.543341,
      "lat": 45.162447
    },
    "cct_statut": "actif"
  },
  {
    "cct_code_dept": "Corrèze",
    "code_postal": "19130",
    "cct_code_commune": "Objat",
    "cct_denomination": "AUTO BRIDAL CONTROLE",
    "cct_adresse": "Z A DE BRIDAL",
    "cct_tel": "555255019",
    "cct_url": "https://controle-technique-objat.autosecurite.com/",
    "cat_vehicule_id": "4",
    "cat_vehicule_libelle": "Camionnette",
    "cat_energie_id": "1",
    "cat_energie_libelle": "Essence",
    "prix_visite": 75,
    "date_application_visite": "2020-08-31",
    "prix_contre_visite_min": 10,
    "prix_contre_visite_max": 20,
    "date_application_contre_visite": "2020-08-31",
    "cct_siret": 75394334900013,
    "latitude": 45.253544,
    "longitude": 1.414393,
    "coordgeo": {
      "lon": 1.414393,
      "lat": 45.253544
    },
    "cct_statut": "actif"
  },
  {
    "cct_code_dept": "Corrèze",
    "code_postal": "19130",
    "cct_code_commune": "Objat",
    "cct_denomination": "AUTO BRIDAL CONTROLE",
    "cct_adresse": "Z A DE BRIDAL",
    "cct_tel": "555255019",
    "cct_url": "https://controle-technique-objat.autosecurite.com/",
    "cat_vehicule_id": "1",
    "cat_vehicule_libelle": "Voiture Particulière",
    "cat_energie_id": "1",
    "cat_energie_libelle": "Essence",
    "prix_visite": 75,
    "date_application_visite": "2020-08-31",
    "prix_contre_visite_min": 10,
    "prix_contre_visite_max": 20,
    "date_application_contre_visite": "2020-08-31",
    "cct_siret": 75394334900013,
    "latitude": 45.253544,
    "longitude": 1.414393,
    "coordgeo": {
      "lon": 1.414393,
      "lat": 45.253544
    },
    "cct_statut": "actif"
  },
  {
    "cct_code_dept": "Corrèze",
    "code_postal": "19130",
    "cct_code_commune": "Objat",
    "cct_denomination": "AUTO BRIDAL CONTROLE",
    "cct_adresse": "Z A DE BRIDAL",
    "cct_tel": "555255019",
    "cct_url": "https://controle-technique-objat.autosecurite.com/",
    "cat_vehicule_id": "3",
    "cat_vehicule_libelle": "Voiture de collection",
    "cat_energie_id": "5",
    "cat_energie_libelle": "Electrique",
    "prix_visite": 80,
    "date_application_visite": "2020-08-31",
    "prix_contre_visite_min": 10,
    "prix_contre_visite_max": 20,
    "date_application_contre_visite": "2020-08-31",
    "cct_siret": 75394334900013,
    "latitude": 45.253544,
    "longitude": 1.414393,
    "coordgeo": {
      "lon": 1.414393,
      "lat": 45.253544
    },
    "cct_statut": "actif"
  },
  {
    "cct_code_dept": "Corrèze",
    "code_postal": "46240",
    "cct_code_commune": "Ussel",
    "cct_denomination": "INSTALLAT USSEL CONTROLE TECHNIQUE AUTOM",
    "cct_adresse": "8 RTE DU THEIL",
    "cct_tel": "555460211",
    "cct_url": null,
    "cat_vehicule_id": "5",
    "cat_vehicule_libelle": "Camping-car (moins de 3,5 tonnes)",
    "cat_energie_id": "5",
    "cat_energie_libelle": "Electrique",
    "prix_visite": 97,
    "date_application_visite": "2020-09-24",
    "prix_contre_visite_min": 15,
    "prix_contre_visite_max": 35,
    "date_application_contre_visite": "2020-09-24",
    "cct_siret": 38303427900018,
    "latitude": 45.554791,
    "longitude": 2.316492,
    "coordgeo": {
      "lon": 2.316492,
      "lat": 45.554791
    },
    "cct_statut": "actif"
  },
  {
    "cct_code_dept": "Corrèze",
    "code_postal": "46240",
    "cct_code_commune": "Ussel",
    "cct_denomination": "INSTALLAT USSEL CONTROLE TECHNIQUE AUTOM",
    "cct_adresse": "8 RTE DU THEIL",
    "cct_tel": "555460211",
    "cct_url": null,
    "cat_vehicule_id": "3",
    "cat_vehicule_libelle": "Voiture de collection",
    "cat_energie_id": "2",
    "cat_energie_libelle": "Diesel",
    "prix_visite": 86,
    "date_application_visite": "2020-09-24",
    "prix_contre_visite_min": 15,
    "prix_contre_visite_max": 35,
    "date_application_contre_visite": "2020-09-24",
    "cct_siret": 38303427900018,
    "latitude": 45.554791,
    "longitude": 2.316492,
    "coordgeo": {
      "lon": 2.316492,
      "lat": 45.554791
    },
    "cct_statut": "actif"
  },
  {
    "cct_code_dept": "Corrèze",
    "code_postal": "19250",
    "cct_code_commune": "Meymac",
    "cct_denomination": "INSTALLAT USSEL CONTROLE TECHNIQUE AUTOM",
    "cct_adresse": "14 PL DES PORROTS",
    "cct_tel": null,
    "cct_url": null,
    "cat_vehicule_id": "5",
    "cat_vehicule_libelle": "Camping-car (moins de 3,5 tonnes)",
    "cat_energie_id": "4",
    "cat_energie_libelle": "Hybride",
    "prix_visite": 89,
    "date_application_visite": "2021-03-08",
    "prix_contre_visite_min": 15,
    "prix_contre_visite_max": 35,
    "date_application_contre_visite": "2021-03-08",
    "cct_siret": 38303427900034,
    "latitude": 45.535037,
    "longitude": 2.145076,
    "coordgeo": {
      "lon": 2.145076,
      "lat": 45.535037
    },
    "cct_statut": "actif"
  },
  {
    "cct_code_dept": "Corrèze",
    "code_postal": "19250",
    "cct_code_commune": "Meymac",
    "cct_denomination": "INSTALLAT USSEL CONTROLE TECHNIQUE AUTOM",
    "cct_adresse": "14 PL DES PORROTS",
    "cct_tel": null,
    "cct_url": null,
    "cat_vehicule_id": "1",
    "cat_vehicule_libelle": "Voiture Particulière",
    "cat_energie_id": "4",
    "cat_energie_libelle": "Hybride",
    "prix_visite": 86,
    "date_application_visite": "2021-03-08",
    "prix_contre_visite_min": 15,
    "prix_contre_visite_max": 35,
    "date_application_contre_visite": "2021-03-08",
    "cct_siret": 38303427900034,
    "latitude": 45.535037,
    "longitude": 2.145076,
    "coordgeo": {
      "lon": 2.145076,
      "lat": 45.535037
    },
    "cct_statut": "actif"
  },
  {
    "cct_code_dept": "Corrèze",
    "code_postal": null,
    "cct_code_commune": "Brive-la-Gaillarde",
    "cct_denomination": "CONTROLE TECHNIQUE AUTOMOBILE TULLISTE",
    "cct_adresse": "17 BD MIRABEAU",
    "cct_tel": null,
    "cct_url": null,
    "cat_vehicule_id": "4",
    "cat_vehicule_libelle": "Camionnette",
    "cat_energie_id": "5",
    "cat_energie_libelle": "Electrique",
    "prix_visite": 90,
    "date_application_visite": "2020-12-03",
    "prix_contre_visite_min": 17,
    "prix_contre_visite_max": 35,
    "date_application_contre_visite": "2020-12-03",
    "cct_siret": 40367208200068,
    "latitude": 45.164972,
    "longitude": 1.520704,
    "coordgeo": {
      "lon": 1.520704,
      "lat": 45.164972
    },
    "cct_statut": "actif"
  },
  {
    "cct_code_dept": "Corrèze",
    "code_postal": null,
    "cct_code_commune": "Brive-la-Gaillarde",
    "cct_denomination": "CONTROLE TECHNIQUE AUTOMOBILE TULLISTE",
    "cct_adresse": "17 BD MIRABEAU",
    "cct_tel": null,
    "cct_url": null,
    "cat_vehicule_id": "3",
    "cat_vehicule_libelle": "Voiture de collection",
    "cat_energie_id": "2",
    "cat_energie_libelle": "Diesel",
    "prix_visite": 85,
    "date_application_visite": "2020-12-03",
    "prix_contre_visite_min": 17,
    "prix_contre_visite_max": 35,
    "date_application_contre_visite": "2020-12-03",
    "cct_siret": 40367208200068,
    "latitude": 45.164972,
    "longitude": 1.520704,
    "coordgeo": {
      "lon": 1.520704,
      "lat": 45.164972
    },
    "cct_statut": "actif"
  },
  {
    "cct_code_dept": "Corrèze",
    "code_postal": null,
    "cct_code_commune": "Brive-la-Gaillarde",
    "cct_denomination": "CONTROLE TECHNIQUE AUTOMOBILE TULLISTE",
    "cct_adresse": "10 BD VOLTAIRE",
    "cct_tel": null,
    "cct_url": null,
    "cat_vehicule_id": "4",
    "cat_vehicule_libelle": "Camionnette",
    "cat_energie_id": "5",
    "cat_energie_libelle": "Electrique",
    "prix_visite": 90,
    "date_application_visite": "2020-12-03",
    "prix_contre_visite_min": 17,
    "prix_contre_visite_max": 35,
    "date_application_contre_visite": "2020-12-03",
    "cct_siret": 40367208200126,
    "latitude": 45.159438,
    "longitude": 1.540684,
    "coordgeo": {
      "lon": 1.540684,
      "lat": 45.159438
    },
    "cct_statut": "actif"
  },
  {
    "cct_code_dept": "Corrèze",
    "code_postal": null,
    "cct_code_commune": "Arnac-Pompadour",
    "cct_denomination": "STEPH'CONTROLES",
    "cct_adresse": "15 AV DE LA GARE",
    "cct_tel": "555739516",
    "cct_url": "dekra-ct.fr",
    "cat_vehicule_id": "3",
    "cat_vehicule_libelle": "Voiture de collection",
    "cat_energie_id": "2",
    "cat_energie_libelle": "Diesel",
    "prix_visite": 70,
    "date_application_visite": "2020-09-02",
    "prix_contre_visite_min": 10,
    "prix_contre_visite_max": 15,
    "date_application_contre_visite": "2020-09-02",
    "cct_siret": 82309208500021,
    "latitude": 45.395634,
    "longitude": 1.388087,
    "coordgeo": {
      "lon": 1.388087,
      "lat": 45.395634
    },
    "cct_statut": "actif"
  },
  {
    "cct_code_dept": "Corrèze",
    "code_postal": "19210",
    "cct_code_commune": "Lubersac",
    "cct_denomination": "AUTOVISION LUBERSAC",
    "cct_adresse": "AV CHARLES DE GAULLE",
    "cct_tel": "555985363",
    "cct_url": null,
    "cat_vehicule_id": "2",
    "cat_vehicule_libelle": "4 x 4",
    "cat_energie_id": "3",
    "cat_energie_libelle": "Gaz",
    "prix_visite": 82,
    "date_application_visite": "2020-09-15",
    "prix_contre_visite_min": 5,
    "prix_contre_visite_max": 20,
    "date_application_contre_visite": "2020-09-15",
    "cct_siret": 40295599100029,
    "latitude": 45.447007,
    "longitude": 1.399245,
    "coordgeo": {
      "lon": 1.399245,
      "lat": 45.447007
    },
    "cct_statut": "actif"
  },
  {
    "cct_code_dept": "Corrèze",
    "code_postal": "19210",
    "cct_code_commune": "Lubersac",
    "cct_denomination": "AUTOVISION LUBERSAC",
    "cct_adresse": "AV CHARLES DE GAULLE",
    "cct_tel": "555985363",
    "cct_url": null,
    "cat_vehicule_id": "1",
    "cat_vehicule_libelle": "Voiture Particulière",
    "cat_energie_id": "2",
    "cat_energie_libelle": "Diesel",
    "prix_visite": 70,
    "date_application_visite": "2020-09-15",
    "prix_contre_visite_min": 5,
    "prix_contre_visite_max": 20,
    "date_application_contre_visite": "2020-09-15",
    "cct_siret": 40295599100029,
    "latitude": 45.447007,
    "longitude": 1.399245,
    "coordgeo": {
      "lon": 1.399245,
      "lat": 45.447007
    },
    "cct_statut": "actif"
  },
  {
    "cct_code_dept": "Corrèze",
    "code_postal": "19140",
    "cct_code_commune": "Uzerche",
    "cct_denomination": "CENTRE AUTO BILAN MONTREUIL",
    "cct_adresse": "LA GANNE LACHAUD",
    "cct_tel": "555934616",
    "cct_url": null,
    "cat_vehicule_id": "1",
    "cat_vehicule_libelle": "Voiture Particulière",
    "cat_energie_id": "4",
    "cat_energie_libelle": "Hybride",
    "prix_visite": 65,
    "date_application_visite": "2020-09-12",
    "prix_contre_visite_min": 10,
    "prix_contre_visite_max": 38,
    "date_application_contre_visite": "2020-09-12",
    "cct_siret": 32838567900449,
    "latitude": 45.399929,
    "longitude": 1.570097,
    "coordgeo": {
      "lon": 1.570097,
      "lat": 45.399929
    },
    "cct_statut": "actif"
  },
  {
    "cct_code_dept": "Corrèze",
    "code_postal": null,
    "cct_code_commune": "Brive-la-Gaillarde",
    "cct_denomination": "CENTRE TECHNIQUE DE CONTROLE AUTOMOBILE",
    "cct_adresse": "10 RUE COLONEL JEAN DELMAS",
    "cct_tel": "555743999",
    "cct_url": null,
    "cat_vehicule_id": "5",
    "cat_vehicule_libelle": "Camping-car (moins de 3,5 tonnes)",
    "cat_energie_id": "4",
    "cat_energie_libelle": "Hybride",
    "prix_visite": 80,
    "date_application_visite": "2020-09-14",
    "prix_contre_visite_min": 15,
    "prix_contre_visite_max": 45,
    "date_application_contre_visite": "2020-09-14",
    "cct_siret": 32983537500018,
    "latitude": 45.15461,
    "longitude": 1.535191,
    "coordgeo": {
      "lon": 1.535191,
      "lat": 45.15461
    },
    "cct_statut": "actif"
  },
  {
    "cct_code_dept": "Corrèze",
    "code_postal": null,
    "cct_code_commune": "Brive-la-Gaillarde",
    "cct_denomination": "CENTRE TECHNIQUE DE CONTROLE AUTOMOBILE",
    "cct_adresse": "10 RUE COLONEL JEAN DELMAS",
    "cct_tel": "555743999",
    "cct_url": null,
    "cat_vehicule_id": "3",
    "cat_vehicule_libelle": "Voiture de collection",
    "cat_energie_id": "4",
    "cat_energie_libelle": "Hybride",
    "prix_visite": 80,
    "date_application_visite": "2020-09-14",
    "prix_contre_visite_min": 15,
    "prix_contre_visite_max": 45,
    "date_application_contre_visite": "2020-09-14",
    "cct_siret": 32983537500018,
    "latitude": 45.15461,
    "longitude": 1.535191,
    "coordgeo": {
      "lon": 1.535191,
      "lat": 45.15461
    },
    "cct_statut": "actif"
  },
  {
    "cct_code_dept": "Corrèze",
    "code_postal": "19270",
    "cct_code_commune": "Sadroc",
    "cct_denomination": "C.T.S.R.",
    "cct_adresse": "LA FONSALADE",
    "cct_tel": "555740953",
    "cct_url": "https://controle-technique-sadroc.securitest.fr/",
    "cat_vehicule_id": "5",
    "cat_vehicule_libelle": "Camping-car (moins de 3,5 tonnes)",
    "cat_energie_id": "4",
    "cat_energie_libelle": "Hybride",
    "prix_visite": 76,
    "date_application_visite": "2023-02-01",
    "prix_contre_visite_min": 15,
    "prix_contre_visite_max": 60,
    "date_application_contre_visite": "2023-02-01",
    "cct_siret": 50218621600011,
    "latitude": 45.266353,
    "longitude": 1.564993,
    "coordgeo": {
      "lon": 1.564993,
      "lat": 45.266353
    },
    "cct_statut": "actif"
  },
  {
    "cct_code_dept": "Corrèze",
    "code_postal": "19200",
    "cct_code_commune": "Ussel",
    "cct_denomination": "AUTO CONTROLE MASSIF CENTRAL",
    "cct_adresse": "4 AV GAMBETTA",
    "cct_tel": "555725565",
    "cct_url": "https://controle-technique-ussel.securitest.fr/",
    "cat_vehicule_id": "1",
    "cat_vehicule_libelle": "Voiture Particulière",
    "cat_energie_id": "2",
    "cat_energie_libelle": "Diesel",
    "prix_visite": 87,
    "date_application_visite": "2020-08-31",
    "prix_contre_visite_min": 15,
    "prix_contre_visite_max": 45,
    "date_application_contre_visite": "2020-08-31",
    "cct_siret": 38880588900010,
    "latitude": 45.545995,
    "longitude": 2.308461,
    "coordgeo": {
      "lon": 2.308461,
      "lat": 45.545995
    },
    "cct_statut": "actif"
  },
  {
    "cct_code_dept": "Corrèze",
    "code_postal": "19240",
    "cct_code_commune": "Allassac",
    "cct_denomination": "ALLASSAC CONTROLE TECHNIQUE",
    "cct_adresse": "LES RIVIERES",
    "cct_tel": null,
    "cct_url": null,
    "cat_vehicule_id": "5",
    "cat_vehicule_libelle": "Camping-car (moins de 3,5 tonnes)",
    "cat_energie_id": "1",
    "cat_energie_libelle": "Essence",
    "prix_visite": 78,
    "date_application_visite": "2023-01-01",
    "prix_contre_visite_min": 21,
    "prix_contre_visite_max": 21,
    "date_application_contre_visite": "2023-01-01",
    "cct_siret": 79874990900023,
    "latitude": 45.254907,
    "longitude": 1.459281,
    "coordgeo": {
      "lon": 1.459281,
      "lat": 45.254907
    },
    "cct_statut": "actif"
  },
  {
    "cct_code_dept": "Corrèze",
    "code_postal": "19240",
    "cct_code_commune": "Allassac",
    "cct_denomination": "ALLASSAC CONTROLE TECHNIQUE",
    "cct_adresse": "LES RIVIERES",
    "cct_tel": null,
    "cct_url": null,
    "cat_vehicule_id": "3",
    "cat_vehicule_libelle": "Voiture de collection",
    "cat_energie_id": "2",
    "cat_energie_libelle": "Diesel",
    "prix_visite": 68,
    "date_application_visite": "2023-01-01",
    "prix_contre_visite_min": 21,
    "prix_contre_visite_max": 21,
    "date_application_contre_visite": "2023-01-01",
    "cct_siret": 79874990900023,
    "latitude": 45.254907,
    "longitude": 1.459281,
    "coordgeo": {
      "lon": 1.459281,
      "lat": 45.254907
    },
    "cct_statut": "actif"
  },
  {
    "cct_code_dept": "Corrèze",
    "code_postal": "19240",
    "cct_code_commune": "Varetz",
    "cct_denomination": "CONTROLE TECHNIQUE DE VARETZ",
    "cct_adresse": "3 AV DU 11 NOVEMBRE",
    "cct_tel": null,
    "cct_url": null,
    "cat_vehicule_id": "1",
    "cat_vehicule_libelle": "Voiture Particulière",
    "cat_energie_id": "2",
    "cat_energie_libelle": "Diesel",
    "prix_visite": 59,
    "date_application_visite": "2020-09-11",
    "prix_contre_visite_min": 15,
    "prix_contre_visite_max": 40,
    "date_application_contre_visite": "2020-09-11",
    "cct_siret": 83980448100019,
    "latitude": 45.191899,
    "longitude": 1.454992,
    "coordgeo": {
      "lon": 1.454992,
      "lat": 45.191899
    },
    "cct_statut": "actif"
  },
  {
    "cct_code_dept": "Corrèze",
    "code_postal": null,
    "cct_code_commune": "Brive-la-Gaillarde",
    "cct_denomination": "G C CONTROLE BRIVISTE",
    "cct_adresse": "134 AV RIBOT",
    "cct_tel": "555877564",
    "cct_url": "https://brive.controle-technique.com/",
    "cat_vehicule_id": "2",
    "cat_vehicule_libelle": "4 x 4",
    "cat_energie_id": "5",
    "cat_energie_libelle": "Electrique",
    "prix_visite": 56,
    "date_application_visite": "2020-09-12",
    "prix_contre_visite_min": 10,
    "prix_contre_visite_max": 20,
    "date_application_contre_visite": "2023-01-01",
    "cct_siret": 84521526800028,
    "latitude": 45.164742,
    "longitude": 1.505778,
    "coordgeo": {
      "lon": 1.505778,
      "lat": 45.164742
    },
    "cct_statut": "actif"
  },