[
  {
    "cct_code_dept": "Côte-d'Or",
    "code_postal": "21000",
    "cct_code_commune": "Dijon",
    "cct_denomination": "FRANCOIS CARTHAGE SARL",
    "cct_adresse": "3 RUE DOCTEUR QUIGNARD",
    "cct_tel": "380734855",
    "cct_url": null,
    "cat_vehicule_id": "1",
    "cat_vehicule_libelle": "Voiture Particulière",
    "cat_energie_id": "1",
    "cat_energie_libelle": "Essence",
    "prix_visite": 83,
    "date_application_visite": "2020-09-04",
    "prix_contre_visite_min": 15,
    "prix_contre_visite_max": 25,
    "date_application_contre_visite": "2020-09-04",
    "cct_siret": 38396607400023,
    "latitude": 47.348241,
    "longitude": 5.064502,
    "coordgeo": {
      "lon": 5.064502,
      "lat": 47.348241
    },
    "cct_statut": "actif"
  },
  {
    "cct_code_dept": "Côte-d'Or",
    "code_postal": "21240",
    "cct_code_commune": "Talant",
    "cct_denomination": "TALANT CONTROLE TECHNIQUE",
    "cct_adresse": "6 RUE DES MOULISSARDS",
    "cct_tel": "380539898",
    "cct_url": "http://dijon-controle-technique.fr",
    "cat_vehicule_id": "2",
    "cat_vehicule_libelle": "4 x 4",
    "cat_energie_id": "4",
    "cat_energie_libelle": "Hybride",
    "prix_visite": 86,
    "date_application_visite": "2023-01-02",
    "prix_contre_visite_min": 8,
    "prix_contre_visite_max": 35,
    "date_application_contre_visite": "2023-01-02",
    "cct_siret": 38495387300013,
    "latitude": 47.343027,
    "longitude": 4.997353,
    "coordgeo": {
      "lon": 4.997353,
      "lat": 47.343027
    },
    "cct_statut": "actif"
  },
  {
    "cct_code_dept": "Côte-d'Or",
    "code_postal": "21240",
    "cct_code_commune": "Talant",
    "cct_denomination": "TALANT CONTROLE TECHNIQUE",
    "cct_adresse": "6 RUE DES MOULISSARDS",
    "cct_tel": "380539898",
    "cct_url": "http://dijon-controle-technique.fr",
    "cat_vehicule_id": "5",
    "cat_vehicule_libelle": "Camping-car (moins de 3,5 tonnes)",
    "cat_energie_id": "2",
    "cat_energie_libelle": "Diesel",
    "prix_visite": 82,
    "date_application_visite": "2023-01-02",
    "prix_contre_visite_min": 8,
    "prix_contre_visite_max": 35,
    "date_application_contre_visite": "2023-01-02",
    "cct_siret": 38495387300013,
    "latitude": 47.343027,
    "longitude": 4.997353,
    "coordgeo": {
      "lon": 4.997353,
      "lat": 47.343027
    },
    "cct_statut": "actif"
  },
  {
    "cct_code_dept": "Côte-d'Or",
    "code_postal": "21240",
    "cct_code_commune": "Talant",
    "cct_denomination": "TALANT CONTROLE TECHNIQUE",
    "cct_adresse": "6 RUE DES MOULISSARDS",
    "cct_tel": "380539898",
    "cct_url": "http://dijon-controle-technique.fr",
    "cat_vehicule_id": "3",
    "cat_vehicule_libelle": "Voiture de collection",
    "cat_energie_id": "1",
    "cat_energie_libelle": "Essence",
    "prix_visite": 82,
    "date_application_visite": "2020-10-06",
    "prix_contre_visite_min": 20,
    "prix_contre_visite_max": 35,
    "date_application_contre_visite": "2023-01-02",
    "cct_siret": 38495387300013,
    "latitude": 47.343027,
    "longitude": 4.997353,
    "coordgeo": {
      "lon": 4.997353,
      "lat": 47.343027
    },
    "cct_statut": "actif"
  },
  {
    "cct_code_dept": "Côte-d'Or",
    "code_postal": null,
    "cct_code_commune": "Chenôve",
    "cct_denomination": "TALANT CONTROLE TECHNIQUE",
    "cct_adresse": "48 RUE DE LONGVIC",
    "cct_tel": "380512425",
    "cct_url": "http://dijon-controle-technique.fr",
    "cat_vehicule_id": "2",
    "cat_vehicule_libelle": "4 x 4",
    "cat_energie_id": "2",
    "cat_energie_libelle": "Diesel",
    "prix_visite": 84,
    "date_application_visite": "2020-10-06",
    "prix_contre_visite_min": 10,
    "prix_contre_visite_max": 26,
    "date_application_contre_visite": "2020-10-06",
    "cct_siret": 38495387300021,
    "latitude": 47.285784,
    "longitude": 5.019322,
    "coordgeo": {
      "lon": 5.019322,
      "lat": 47.285784
    },
    "cct_statut": "actif"
  },
  {
    "cct_code_dept": "Côte-d'Or",
    "code_postal": null,
    "cct_code_commune": "Chenôve",
    "cct_denomination": "TALANT CONTROLE TECHNIQUE",
    "cct_adresse": "48 RUE DE LONGVIC",
    "cct_tel": "380512425",
    "cct_url": "http://dijon-controle-technique.fr",
    "cat_vehicule_id": "5",
    "cat_vehicule_libelle": "Camping-car (moins de 3,5 tonnes)",
    "cat_energie_id": "2",
    "cat_energie_libelle": "Diesel",
    "prix_visite": 86,
    "date_application_visite": "2023-01-02",
    "prix_contre_visite_min": 8,
    "prix_contre_visite_max": 35,
    "date_application_contre_visite": "2023-01-02",
    "cct_siret": 38495387300021,
    "latitude": 47.285784,
    "longitude": 5.019322,
    "coordgeo": {
      "lon": 5.019322,
      "lat": 47.285784
    },
    "cct_statut": "actif"
  },
  {
    "cct_code_dept": "Côte-d'Or",
    "code_postal": "21000",
    "cct_code_commune": "Dijon",
    "cct_denomination": "AUTO BILAN FRANCE",
    "cct_adresse": "9 RUE DES ARDENNES Village Autos",
    "cct_tel": "380712020",
    "cct_url": "https://www.dekra-norisko.fr/centres-controle-technique/dijon,21000/norisko,s021d074",
    "cat_vehicule_id": "1",
    "cat_vehicule_libelle": "Voiture Particulière",
    "cat_energie_id": "4",
    "cat_energie_libelle": "Hybride",
    "prix_visite": 89,
    "date_application_visite": "2020-10-12",
    "prix_contre_visite_min": 20,
    "prix_contre_visite_max": 35,
    "date_application_contre_visite": "2020-10-12",
    "cct_siret": 43780779501853,
    "latitude": 47.352282,
    "longitude": 5.067414,
    "coordgeo": {
      "lon": 5.067414,
      "lat": 47.352282
    },
    "cct_statut": "actif"
  },
  {
    "cct_code_dept": "Côte-d'Or",
    "code_postal": null,
    "cct_code_commune": "Morey-Saint-Denis",
    "cct_denomination": "AUTO BILAN DU VIGNOBLE",
    "cct_adresse": "23 RUE DES JARDINS",
    "cct_tel": "380518442",
    "cct_url": "https://www.dekra-norisko.fr/centres-controle-technique/morey-saint-denis,21220/auto-bilan-du-vignoble-sarl,s021d079",
    "cat_vehicule_id": "4",
    "cat_vehicule_libelle": "Camionnette",
    "cat_energie_id": "5",
    "cat_energie_libelle": "Electrique",
    "prix_visite": 85,
    "date_application_visite": "2020-08-28",
    "prix_contre_visite_min": 15,
    "prix_contre_visite_max": 35,
    "date_application_contre_visite": "2020-08-28",
    "cct_siret": 49901820800011,
    "latitude": 47.194627,
    "longitude": 4.972304,
    "coordgeo": {
      "lon": 4.972304,
      "lat": 47.194627
    },
    "cct_statut": "actif"
  },
  {
    "cct_code_dept": "Côte-d'Or",
    "code_postal": null,
    "cct_code_commune": "Morey-Saint-Denis",
    "cct_denomination": "AUTO BILAN DU VIGNOBLE",
    "cct_adresse": "23 RUE DES JARDINS",
    "cct_tel": "380518442",
    "cct_url": "https://www.dekra-norisko.fr/centres-controle-technique/morey-saint-denis,21220/auto-bilan-du-vignoble-sarl,s021d079",
    "cat_vehicule_id": "4",
    "cat_vehicule_libelle": "Camionnette",
    "cat_energie_id": "4",
    "cat_energie_libelle": "Hybride",
    "prix_visite": 85,
    "date_application_visite": "2020-08-28",
    "prix_contre_visite_min": 16,
    "prix_contre_visite_max": 36,
    "date_application_contre_visite": "2020-08-28",
    "cct_siret": 49901820800011,
    "latitude": 47.194627,
    "longitude": 4.972304,
    "coordgeo": {
      "lon": 4.972304,
      "lat": 47.194627
    },
    "cct_statut": "actif"
  },
  {
    "cct_code_dept": "Côte-d'Or",
    "code_postal": "21000",
    "cct_code_commune": "Dijon",
    "cct_denomination": "AUTO BILAN FRANCE",
    "cct_adresse": "16 RUE RENE CHAR",
    "cct_tel": "380780993",
    "cct_url": "https://www.dekra-norisko.fr/centres-controle-technique/dijon,21000/dekra,s021d088",
    "cat_vehicule_id": "2",
    "cat_vehicule_libelle": "4 x 4",
    "cat_energie_id": "5",
    "cat_energie_libelle": "Electrique",
    "prix_visite": 92,
    "date_application_visite": "2020-10-12",
    "prix_contre_visite_min": 20,
    "prix_contre_visite_max": 35,
    "date_application_contre_visite": "2020-10-12",
    "cct_siret": 43780779502489,
    "latitude": 47.352622,
    "longitude": 5.055957,
    "coordgeo": {
      "lon": 5.055957,
      "lat": 47.352622
    },
    "cct_statut": "actif"
  },
  {
    "cct_code_dept": "Côte-d'Or",
    "code_postal": null,
    "cct_code_commune": "Marsannay-la-Côte",
    "cct_denomination": "AUTO BILAN FRANCE",
    "cct_adresse": "6 RUE AMPERE",
    "cct_tel": "380511317",
    "cct_url": "https://www.dekra-norisko.fr/centres-controle-technique/marsannay-la-cote,21160/dekra,s021d089",
    "cat_vehicule_id": "5",
    "cat_vehicule_libelle": "Camping-car (moins de 3,5 tonnes)",
    "cat_energie_id": "2",
    "cat_energie_libelle": "Diesel",
    "prix_visite": 92,
    "date_application_visite": "2020-10-12",
    "prix_contre_visite_min": 20,
    "prix_contre_visite_max": 35,
    "date_application_contre_visite": "2020-10-12",
    "cct_siret": 43780779502471,
    "latitude": 47.281544,
    "longitude": 5.010054,
    "coordgeo": {
      "lon": 5.010054,
      "lat": 47.281544
    },
    "cct_statut": "actif"
  },
  {
    "cct_code_dept": "Côte-d'Or",
    "code_postal": null,
    "cct_code_commune": "Chevigny-Saint-Sauveur",
    "cct_denomination": "ASSOCIATION BOURGUIGNONNE DE CONTROLE TECHNIQUE AUTOMOBILE",
    "cct_adresse": "30 AV DE TAVAUX",
    "cct_tel": "380468366",
    "cct_url": null,
    "cat_vehicule_id": "4",
    "cat_vehicule_libelle": "Camionnette",
    "cat_energie_id": "2",
    "cat_energie_libelle": "Diesel",
    "prix_visite": 82,
    "date_application_visite": "2020-09-02",
    "prix_contre_visite_min": 15,
    "prix_contre_visite_max": 26,
    "date_application_contre_visite": "2020-09-02",
    "cct_siret": 79481059800027,
    "latitude": 47.290684,
    "longitude": 5.134444,
    "coordgeo": {
      "lon": 5.134444,
      "lat": 47.290684
    },
    "cct_statut": "actif"
  },
  {
    "cct_code_dept": "Côte-d'Or",
    "code_postal": null,
    "cct_code_commune": "Sainte-Colombe-sur-Seine",
    "cct_denomination": "AUTO BILAN FRANCE",
    "cct_adresse": "RTE DE CHATILLON SUR SEINE",
    "cct_tel": "380913854",
    "cct_url": "https://www.dekra-norisko.fr/centres-controle-technique/sainte-colombe-sur-seine,21400/auto-controle,s021d127",
    "cat_vehicule_id": "5",
    "cat_vehicule_libelle": "Camping-car (moins de 3,5 tonnes)",
    "cat_energie_id": "1",
    "cat_energie_libelle": "Essence",
    "prix_visite": 85,
    "date_application_visite": "2020-10-12",
    "prix_contre_visite_min": 20,
    "prix_contre_visite_max": 30,
    "date_application_contre_visite": "2020-10-12",
    "cct_siret": 43780779503677,
    "latitude": 47.865402,
    "longitude": 4.550893,
    "coordgeo": {
      "lon": 4.550893,
      "lat": 47.865402
    },
    "cct_statut": "actif"
  },
  {
    "cct_code_dept": "Côte-d'Or",
    "code_postal": null,
    "cct_code_commune": "Bretenière",
    "cct_denomination": "AUTO BILAN FRANCE",
    "cct_adresse": "13 Rue de la Plucharde ZA La Plucharde",
    "cct_tel": "380552596",
    "cct_url": "https://www.dekra-norisko.fr/centres-controle-technique/breteniere,21110/autocontrol,s021d132",
    "cat_vehicule_id": "5",
    "cat_vehicule_libelle": "Camping-car (moins de 3,5 tonnes)",
    "cat_energie_id": "1",
    "cat_energie_libelle": "Essence",
    "prix_visite": 92,
    "date_application_visite": "2020-10-12",
    "prix_contre_visite_min": 20,
    "prix_contre_visite_max": 35,
    "date_application_contre_visite": "2020-10-12",
    "cct_siret": 43780779503537,
    "latitude": 47.23798,
    "longitude": 5.108563,
    "coordgeo": {
      "lon": 5.108563,
      "lat": 47.23798
    },
    "cct_statut": "actif"
  },
  {
    "cct_code_dept": "Côte-d'Or",
    "code_postal": null,
    "cct_code_commune": "Bretenière",
    "cct_denomination": "AUTO BILAN FRANCE",
    "cct_adresse": "13 Rue de la Plucharde ZA La Plucharde",
    "cct_tel": "380552596",
    "cct_url": "https://www.dekra-norisko.fr/centres-controle-technique/breteniere,21110/autocontrol,s021d132",
    "cat_vehicule_id": "1",
    "cat_vehicule_libelle": "Voiture Particulière",
    "cat_energie_id": "2",
    "cat_energie_libelle": "Diesel",
    "prix_visite": 85,
    "date_application_visite": "2020-10-12",
    "prix_contre_visite_min": 20,
    "prix_contre_visite_max": 35,
    "date_application_contre_visite": "2020-10-12",
    "cct_siret": 43780779503537,
    "latitude": 47.23798,
    "longitude": 5.108563,
    "coordgeo": {
      "lon": 5.108563,
      "lat": 47.23798
    },
    "cct_statut": "actif"
  },
  {
    "cct_code_dept": "Côte-d'Or",
    "code_postal": null,
    "cct_code_commune": "Bretenière",
    "cct_denomination": "AUTO BILAN FRANCE",
    "cct_adresse": "13 Rue de la Plucharde ZA La Plucharde",
    "cct_tel": "380552596",
    "cct_url": "https://www.dekra-norisko.fr/centres-controle-technique/breteniere,21110/autocontrol,s021d132",
    "cat_vehicule_id": "1",
    "cat_vehicule_libelle": "Voiture Particulière",
    "cat_energie_id": "2",
    "cat_energie_libelle": "Diesel",
    "prix_visite": 83,
    "date_application_visite": "2020-10-12",
    "prix_contre_visite_min": 20,
    "prix_contre_visite_max": 35,
    "date_application_contre_visite": "2020-10-12",
    "cct_siret": 43780779503537,
    "latitude": 47.23798,
    "longitude": 5.108563,
    "coordgeo": {
      "lon": 5.108563,
      "lat": 47.23798
    },
    "cct_statut": "actif"
  },
  {
    "cct_code_dept": "Côte-d'Or",
    "code_postal": "21210",
    "cct_code_commune": "Saulieu",
    "cct_denomination": "CONTROLE TECHNIQUE DEKLISE SAULIEU",
    "cct_adresse": "FAUBOURG DE L'AUXOIS",
    "cct_tel": "380646704",
    "cct_url": "https://www.dekra-norisko.fr/",
    "cat_vehicule_id": "1",
    "cat_vehicule_libelle": "Voiture Particulière",
    "cat_energie_id": "3",
    "cat_energie_libelle": "Gaz",
    "prix_visite": 100,
    "date_application_visite": "2023-03-01",
    "prix_contre_visite_min": 10,
    "prix_contre_visite_max": 25,
    "date_application_contre_visite": "2023-03-01",
    "cct_siret": 81977102300028,
    "latitude": 47.28467,
    "longitude": 4.224156,
    "coordgeo": {
      "lon": 4.224156,
      "lat": 47.28467
    },
    "cct_statut": "actif"
  },
  {
    "cct_code_dept": "Côte-d'Or",
    "code_postal": "21210",
    "cct_code_commune": "Saulieu",
    "cct_denomination": "CONTROLE TECHNIQUE DEKLISE SAULIEU",
    "cct_adresse": "FAUBOURG DE L'AUXOIS",
    "cct_tel": "380646704",
    "cct_url": "https://www.dekra-norisko.fr/",
    "cat_vehicule_id": "3",
    "cat_vehicule_libelle": "Voiture de collection",
    "cat_energie_id": "2",
    "cat_energie_libelle": "Diesel",
    "prix_visite": 79,
    "date_application_visite": "2023-03-01",
    "prix_contre_visite_min": 10,
    "prix_contre_visite_max": 25,
    "date_application_contre_visite": "2023-03-01",
    "cct_siret": 81977102300028,
    "latitude": 47.28467,
    "longitude": 4.224156,
    "coordgeo": {
      "lon": 4.224156,
      "lat": 47.28467
    },
    "cct_statut": "actif"
  },
  {
    "cct_code_dept": "Côte-d'Or",
    "code_postal": null,
    "cct_code_commune": "Châtillon-sur-Seine",
    "cct_denomination": "AUTO BILAN FRANCE",
    "cct_adresse": "4 RUE DE LA LIBERATION",
    "cct_tel": "380915914",
    "cct_url": "https://www.dekra-norisko.fr/centres-controle-technique/chatillon-sur-seine,21400/dekra,s021d136",
    "cat_vehicule_id": "4",
    "cat_vehicule_libelle": "Camionnette",
    "cat_energie_id": "5",
    "cat_energie_libelle": "Electrique",
    "prix_visite": 93,
    "date_application_visite": "2020-10-12",
    "prix_contre_visite_min": 15,
    "prix_contre_visite_max": 30,
    "date_application_contre_visite": "2020-10-12",
    "cct_siret": 43780779503594,
    "latitude": 47.86235,
    "longitude": 4.574798,
    "coordgeo": {
      "lon": 4.574798,
      "lat": 47.86235
    },
    "cct_statut": "actif"
  },
  {
    "cct_code_dept": "Côte-d'Or",
    "code_postal": null,
    "cct_code_commune": "Châtillon-sur-Seine",
    "cct_denomination": "AUTO BILAN FRANCE",
    "cct_adresse": "4 RUE DE LA LIBERATION",
    "cct_tel": "380915914",
    "cct_url": "https://www.dekra-norisko.fr/centres-controle-technique/chatillon-sur-seine,21400/dekra,s021d136",
    "cat_vehicule_id": "5",
    "cat_vehicule_libelle": "Camping-car (moins de 3,5 tonnes)",
    "cat_energie_id": "4",
    "cat_energie_libelle": "Hybride",
    "prix_visite": 85,
    "date_application_visite": "2020-10-12",
    "prix_contre_visite_min": 20,
    "prix_contre_visite_max": 35,
    "date_application_contre_visite": "2020-10-12",
    "cct_siret": 43780779503594,
    "latitude": 47.86235,
    "longitude": 4.574798,
    "coordgeo": {
      "lon": 4.574798,
      "lat": 47.86235
    },
    "cct_statut": "actif"
  },
  {
    "cct_code_dept": "Côte-d'Or",
    "code_postal": null,
    "cct_code_commune": "Châtillon-sur-Seine",
    "cct_denomination": "AUTO BILAN FRANCE",
    "cct_adresse": "4 RUE DE LA LIBERATION",
    "cct_tel": "380915914",
    "cct_url": "https://www.dekra-norisko.fr/centres-controle-technique/chatillon-sur-seine,21400/dekra,s021d136",
    "cat_vehicule_id": "3",
    "cat_vehicule_libelle": "Voiture de collection",
    "cat_energie_id": "2",
    "cat_energie_libelle": "Diesel",
    "prix_visite": 85,
    "date_application_visite": "2020-10-12",
    "prix_contre_visite_min": 15,
    "prix_contre_visite_max": 30,
    "date_application_contre_visite": "2020-10-12",
    "cct_siret": 43780779503594,
    "latitude": 47.86235,
    "longitude": 4.574798,
    "coordgeo": {
      "lon": 4.574798,
      "lat": 47.86235
    },
    "cct_statut": "actif"
  },
  {
    "cct_code_dept": "Côte-d'Or",
    "code_postal": "21110",
    "cct_code_commune": "Genlis",
    "cct_denomination": "ETABLISSEMENTS DERUELLE SARL",
    "cct_adresse": "3 IMP ARAGO",
    "cct_tel": "380479962",
    "cct_url": null,
    "cat_vehicule_id": "3",
    "cat_vehicule_libelle": "Voiture de collection",
    "cat_energie_id": "1",
    "cat_energie_libelle": "Essence",
    "prix_visite": 89,
    "date_application_visite": "2020-09-18",
    "prix_contre_visite_min": 15,
    "prix_contre_visite_max": 40,
    "date_application_contre_visite": "2020-09-18",
    "cct_siret": 34135585700093,
    "latitude": 47.232662,
    "longitude": 5.234727,
    "coordgeo": {
      "lon": 5.234727,
      "lat": 47.232662
    },
    "cct_statut": "actif"
  },
  {
    "cct_code_dept": "Côte-d'Or",
    "code_postal": "21230",
    "cct_code_commune": "Mimeure",
    "cct_denomination": "AUTO BILAN FRANCE",
    "cct_adresse": "ZA PAQUIS AU ROY",
    "cct_tel": "380640713",
    "cct_url": "https://www.dekra-norisko.fr/centres-controle-technique/mimeure,21230/auto-bilan-france,s021d139",
    "cat_vehicule_id": "3",
    "cat_vehicule_libelle": "Voiture de collection",
    "cat_energie_id": "1",
    "cat_energie_libelle": "Essence",
    "prix_visite": 85,
    "date_application_visite": "2020-10-12",
    "prix_contre_visite_min": 20,
    "prix_contre_visite_max": 35,
    "date_application_contre_visite": "2020-10-12",
    "cct_siret": 43780779504170,
    "latitude": 47.139479,
    "longitude": 4.485851,
    "coordgeo": {
      "lon": 4.485851,
      "lat": 47.139479
    },
    "cct_statut": "actif"
  },
  {
    "cct_code_dept": "Côte-d'Or",
    "code_postal": null,
    "cct_code_commune": "Fontaine-lès-Dijon",
    "cct_denomination": "AUTOVISION ACEB",
    "cct_adresse": "6 RUE DE LA PETITE FIN",
    "cct_tel": "380560092",
    "cct_url": "https://www.autovision.fr/centre/210014-autovision-eurl-aceb-fontaine-les-dijon/",
    "cat_vehicule_id": "5",
    "cat_vehicule_libelle": "Camping-car (moins de 3,5 tonnes)",
    "cat_energie_id": "1",
    "cat_energie_libelle": "Essence",
    "prix_visite": 74,
    "date_application_visite": "2021-01-16",
    "prix_contre_visite_min": 0,
    "prix_contre_visite_max": 15,
    "date_application_contre_visite": "2021-01-16",
    "cct_siret": 45054610600011,
    "latitude": 47.348811,
    "longitude": 5.029587,
    "coordgeo": {
      "lon": 5.029587,
      "lat": 47.348811
    },
    "cct_statut": "actif"
  },
  {
    "cct_code_dept": "Côte-d'Or",
    "code_postal": null,
    "cct_code_commune": "Chenôve",
    "cct_denomination": "AUTO BILAN ADDOU CHENOVE",
    "cct_adresse": "58 AV ROLAND CARRAZ",
    "cct_tel": "380529762",
    "cct_url": null,
    "cat_vehicule_id": "4",
    "cat_vehicule_libelle": "Camionnette",
    "cat_energie_id": "4",
    "cat_energie_libelle": "Hybride",
    "prix_visite": 79,
    "date_application_visite": "2020-12-09",
    "prix_contre_visite_min": 28,
    "prix_contre_visite_max": 28,
    "date_application_contre_visite": "2020-12-09",
    "cct_siret": 45319641200010,
    "latitude": 47.294046,
    "longitude": 5.016631,
    "coordgeo": {
      "lon": 5.016631,
      "lat": 47.294046
    },
    "cct_statut": "actif"
  },
  {
    "cct_code_dept": "Côte-d'Or",
    "code_postal": "21600",
    "cct_code_commune": "Longvic",
    "cct_denomination": "AM CONTROLE TECHNIQUE",
    "cct_adresse": "RUE PIERRE LAUTERBACH",
    "cct_tel": "380383667",
    "cct_url": null,
    "cat_vehicule_id": "3",
    "cat_vehicule_libelle": "Voiture de collection",
    "cat_energie_id": "1",
    "cat_energie_libelle": "Essence",
    "prix_visite": 79,
    "date_application_visite": "2020-09-02",
    "prix_contre_visite_min": 16,
    "prix_contre_visite_max": 26,
    "date_application_contre_visite": "2020-09-02",
    "cct_siret": 52273181900010,
    "latitude": 47.284525,
    "longitude": 5.045583,
    "coordgeo": {
      "lon": 5.045583,
      "lat": 47.284525
    },
    "cct_statut": "actif"
  },
  {
    "cct_code_dept": "Côte-d'Or",
    "code_postal": null,
    "cct_code_commune": "Arc-sur-Tille",
    "cct_denomination": "CTAST",
    "cct_adresse": "67 RTE NATIONALE",
    "cct_tel": "380370023",
    "cct_url": "rdv online",
    "cat_vehicule_id": "2",
    "cat_vehicule_libelle": "4 x 4",
    "cat_energie_id": "4",
    "cat_energie_libelle": "Hybride",
    "prix_visite": 89,
    "date_application_visite": "2020-12-08",
    "prix_contre_visite_min": 10,
    "prix_contre_visite_max": 26,
    "date_application_contre_visite": "2020-12-08",
    "cct_siret": 81991326000017,
    "latitude": 47.347587,
    "longitude": 5.184142,
    "coordgeo": {
      "lon": 5.184142,
      "lat": 47.347587
    },
    "cct_statut": "actif"
  },
  {
    "cct_code_dept": "Côte-d'Or",
    "code_postal": "21210",
    "cct_code_commune": "Saulieu",
    "cct_denomination": "CONTROLE TECHNIQUE AUXOIS - MORVAN",
    "cct_adresse": "RTE DE LYON",
    "cct_tel": "380640737",
    "cct_url": null,
    "cat_vehicule_id": "2",
    "cat_vehicule_libelle": "4 x 4",
    "cat_energie_id": "4",
    "cat_energie_libelle": "Hybride",
    "prix_visite": 78,
    "date_application_visite": "2020-09-07",
    "prix_contre_visite_min": 15,
    "prix_contre_visite_max": 25,
    "date_application_contre_visite": "2020-09-07",
    "cct_siret": 38470827700015,
    "latitude": 47.276976,
    "longitude": 4.239626,
    "coordgeo": {
      "lon": 4.239626,
      "lat": 47.276976
    },
    "cct_statut": "actif"
  },
  {
    "cct_code_dept": "Côte-d'Or",
    "code_postal": null,
    "cct_code_commune": "Semur-en-Auxois",
    "cct_denomination": "CONTROLE TECHNIQUE AUXOIS - MORVAN",
    "cct_adresse": "RUE DE L OEUVRE",
    "cct_tel": "380974977",
    "cct_url": "380974977",
    "cat_vehicule_id": "3",
    "cat_vehicule_libelle": "Voiture de collection",
    "cat_energie_id": "1",
    "cat_energie_libelle": "Essence",
    "prix_visite": 85,
    "date_application_visite": "2020-09-07",
    "prix_contre_visite_min": 15,
    "prix_contre_visite_max": 25,
    "date_application_contre_visite": "2020-09-07",
    "cct_siret": 38470827700031,
    "latitude": 47.489163,
    "longitude": 4.352506,
    "coordgeo": {
      "lon": 4.352506,
      "lat": 47.489163
    },
    "cct_statut": "actif"
  },
  {
    "cct_code_dept": "Côte-d'Or",
    "code_postal": "58700",
    "cct_code_commune": "Nolay",
    "cct_denomination": "PRECIS AUTO CONTROLE",
    "cct_adresse": "27 rue marceau petit",
    "cct_tel": null,
    "cct_url": null,
    "cat_vehicule_id": "2",
    "cat_vehicule_libelle": "4 x 4",
    "cat_energie_id": "4",
    "cat_energie_libelle": "Hybride",
    "prix_visite": 82,
    "date_application_visite": "2020-09-11",
    "prix_contre_visite_min": 15,
    "prix_contre_visite_max": 25,
    "date_application_contre_visite": "2020-09-11",
    "cct_siret": 34098258600026,
    "latitude": 46.950209,
    "longitude": 4.62541,
    "coordgeo": {
      "lon": 4.62541,
      "lat": 46.950209
    },
    "cct_statut": "actif"
  },
  {
    "cct_code_dept": "Côte-d'Or",
    "code_postal": "21340",
    "cct_code_commune": "Nolay",
    "cct_denomination": "PRECIS AUTO CONTROLE",
    "cct_adresse": "27 rue marceau petit",
    "cct_tel": null,
    "cct_url": null,
    "cat_vehicule_id": "5",
    "cat_vehicule_libelle": "Camping-car (moins de 3,5 tonnes)",
    "cat_energie_id": "3",
    "cat_energie_libelle": "Gaz",
    "prix_visite": 91,
    "date_application_visite": "2020-09-11",
    "prix_contre_visite_min": 15,
    "prix_contre_visite_max": 25,
    "date_application_contre_visite": "2020-09-11",
    "cct_siret": 34098258600026,
    "latitude": 46.950209,
    "longitude": 4.62541,
    "coordgeo": {
      "lon": 4.62541,
      "lat": 46.950209
    },
    "cct_statut": "actif"
  },
  {
    "cct_code_dept": "Côte-d'Or",
    "code_postal": "58700",
    "cct_code_commune": "Nolay",
    "cct_denomination": "PRECIS AUTO CONTROLE",
    "cct_adresse": "27 rue marceau petit",
    "cct_tel": null,
    "cct_url": null,
    "cat_vehicule_id": "1",
    "cat_vehicule_libelle": "Voiture Particulière",
    "cat_energie_id": "2",
    "cat_energie_libelle": "Diesel",
    "prix_visite": 82,
    "date_application_visite": "2020-09-11",
    "prix_contre_visite_min": 15,
    "prix_contre_visite_max": 25,
    "date_application_contre_visite": "2020-09-11",
    "cct_siret": 34098258600026,
    "latitude": 46.950209,
    "longitude": 4.62541,
    "coordgeo": {
      "lon": 4.62541,
      "lat": 46.950209
    },
    "cct_statut": "actif"
  },
  {
    "cct_code_dept": "Côte-d'Or",
    "code_postal": "21340",
    "cct_code_commune": "Nolay",
    "cct_denomination": "PRECIS AUTO CONTROLE",
    "cct_adresse": "27 rue marceau petit",
    "cct_tel": null,
    "cct_url": null,
    "cat_vehicule_id": "1",
    "cat_vehicule_libelle": "Voiture Particulière",
    "cat_energie_id": "4",
    "cat_energie_libelle": "Hybride",
    "prix_visite": 79,
    "date_application_visite": "2020-09-11",
    "prix_contre_visite_min": 15,
    "prix_contre_visite_max": 25,
    "date_application_contre_visite": "2020-09-11",
    "cct_siret": 34098258600026,
    "latitude": 46.950209,
    "longitude": 4.62541,
    "coordgeo": {
      "lon": 4.62541,
      "lat": 46.950209
    },
    "cct_statut": "actif"
  },
  {
    "cct_code_dept": "Côte-d'Or",
    "code_postal": "21340",
    "cct_code_commune": "Nolay",
    "cct_denomination": "PRECIS AUTO CONTROLE",
    "cct_adresse": "27 rue marceau petit",
    "cct_tel": null,
    "cct_url": null,
    "cat_vehicule_id": "3",
    "cat_vehicule_libelle": "Voiture de collection",
    "cat_energie_id": "2",
    "cat_energie_libelle": "Diesel",
    "prix_visite": 82,
    "date_application_visite": "2020-09-11",
    "prix_contre_visite_min": 15,
    "prix_contre_visite_max": 25,
    "date_application_contre_visite": "2020-09-11",
    "cct_siret": 34098258600026,
    "latitude": 46.950209,
    "longitude": 4.62541,
    "coordgeo": {
      "lon": 4.62541,
      "lat": 46.950209
    },
    "cct_statut": "actif"
  },
  {
    "cct_code_dept": "Côte-d'Or",
    "code_postal": "58700",
    "cct_code_commune": "Nolay",
    "cct_denomination": "PRECIS AUTO CONTROLE",
    "cct_adresse": "27 rue marceau petit",
    "cct_tel": null,
    "cct_url": null,
    "cat_vehicule_id": "3",
    "cat_vehicule_libelle": "Voiture de collection",
    "cat_energie_id": "5",
    "cat_energie_libelle": "Electrique",
    "prix_visite": 82,
    "date_application_visite": "2020-09-11",
    "prix_contre_visite_min": 15,
    "prix_contre_visite_max": 25,
    "date_application_contre_visite": "2020-09-11",
    "cct_siret": 34098258600026,
    "latitude": 46.950209,
    "longitude": 4.62541,
    "coordgeo": {
      "lon": 4.62541,
      "lat": 46.950209
    },
    "cct_statut": "actif"
  },
  {
    "cct_code_dept": "Côte-d'Or",
    "code_postal": "21110",
    "cct_code_commune": "Aiserey",
    "cct_denomination": "GIBOULOT",
    "cct_adresse": "31 RUE MARIN LEJEAS",
    "cct_tel": "621332653",
    "cct_url": null,
    "cat_vehicule_id": "1",
    "cat_vehicule_libelle": "Voiture Particulière",
    "cat_energie_id": "2",
    "cat_energie_libelle": "Diesel",
    "prix_visite": 85,
    "date_application_visite": "2022-07-08",
    "prix_contre_visite_min": 10,
    "prix_contre_visite_max": 35,
    "date_application_contre_visite": "2022-07-08",
    "cct_siret": 53771301800019,
    "latitude": 47.181004,
    "longitude": 5.158728,
    "coordgeo": {
      "lon": 5.158728,
      "lat": 47.181004
    },
    "cct_statut": "actif"
  },
  {
    "cct_code_dept": "Côte-d'Or",
    "code_postal": null,
    "cct_code_commune": "Is-sur-Tille",
    "cct_denomination": "AUTO TEST",
    "cct_adresse": "1 PL DE LA REPUBLIQUE",
    "cct_tel": "380953541",
    "cct_url": "https://is-sur-tille.securitest.fr/",
    "cat_vehicule_id": "2",
    "cat_vehicule_libelle": "4 x 4",
    "cat_energie_id": "5",
    "cat_energie_libelle": "Electrique",
    "prix_visite": 83,
    "date_application_visite": "2020-09-11",
    "prix_contre_visite_min": 16,
    "prix_contre_visite_max": 29,
    "date_application_contre_visite": "2020-09-11",
    "cct_siret": 38359442100018,
    "latitude": 47.523483,
    "longitude": 5.112606,
    "coordgeo": {
      "lon": 5.112606,
      "lat": 47.523483
    },
    "cct_statut": "actif"
  },
  {
    "cct_code_dept": "Côte-d'Or",
    "code_postal": null,
    "cct_code_commune": "Is-sur-Tille",
    "cct_denomination": "AUTO TEST",
    "cct_adresse": "1 PL DE LA REPUBLIQUE",
    "cct_tel": "380953541",
    "cct_url": "https://is-sur-tille.securitest.fr/",
    "cat_vehicule_id": "2",
    "cat_vehicule_libelle": "4 x 4",
    "cat_energie_id": "1",
    "cat_energie_libelle": "Essence",
    "prix_visite": 83,
    "date_application_visite": "2020-09-11",
    "prix_contre_visite_min": 16,
    "prix_contre_visite_max": 29,
    "date_application_contre_visite": "2020-09-11",
    "cct_siret": 38359442100018,
    "latitude": 47.523483,
    "longitude": 5.112606,
    "coordgeo": {
      "lon": 5.112606,
      "lat": 47.523483
    },
    "cct_statut": "actif"
  },
  {
    "cct_code_dept": "Côte-d'Or",
    "code_postal": null,
    "cct_code_commune": "Is-sur-Tille",
    "cct_denomination": "AUTO TEST",
    "cct_adresse": "1 PL DE LA REPUBLIQUE",
    "cct_tel": "380953541",
    "cct_url": "https://is-sur-tille.securitest.fr/",
    "cat_vehicule_id": "3",
    "cat_vehicule_libelle": "Voiture de collection",
    "cat_energie_id": "2",
    "cat_energie_libelle": "Diesel",
    "prix_visite": 83,
    "date_application_visite": "2020-09-11",
    "prix_contre_visite_min": 18,
    "prix_contre_visite_max": 30,
    "date_application_contre_visite": "2022-05-02",
    "cct_siret": 38359442100018,
    "latitude": 47.523483,
    "longitude": 5.112606,
    "coordgeo": {
      "lon": 5.112606,
      "lat": 47.523483
    },
    "cct_statut": "actif"
  },
  {
    "cct_code_dept": "Côte-d'Or",
    "code_postal": null,
    "cct_code_commune": "Is-sur-Tille",
    "cct_denomination": "AUTO TEST",
    "cct_adresse": "1 PL DE LA REPUBLIQUE",
    "cct_tel": "380953541",
    "cct_url": "https://is-sur-tille.securitest.fr/",
    "cat_vehicule_id": "3",
    "cat_vehicule_libelle": "Voiture de collection",
    "cat_energie_id": "1",
    "cat_energie_libelle": "Essence",
    "prix_visite": 83,
    "date_application_visite": "2020-09-11",
    "prix_contre_visite_min": 16,
    "prix_contre_visite_max": 29,
    "date_application_contre_visite": "2020-09-11",
    "cct_siret": 38359442100018,
    "latitude": 47.523483,
    "longitude": 5.112606,
    "coordgeo": {
      "lon": 5.112606,
      "lat": 47.523483
    },
    "cct_statut": "actif"
  },
  {
    "cct_code_dept": "Côte-d'Or",
    "code_postal": null,
    "cct_code_commune": "Fleurey-sur-Ouche",
    "cct_denomination": "AUTO CONTROLE TECHNIQUE FLEUREY",
    "cct_adresse": "33  GRANDE RUE DU HAUT NUMERO 33",
    "cct_tel": "380336368",
    "cct_url": "https://controle-technique-fleurey-sur-ouche.securitest.fr/",
    "cat_vehicule_id": "2",
    "cat_vehicule_libelle": "4 x 4",
    "cat_energie_id": "2",
    "cat_energie_libelle": "Diesel",
    "prix_visite": 90,
    "date_application_visite": null,
    "prix_contre_visite_min": 10,
    "prix_contre_visite_max": 35,
    "date_application_contre_visite": null,
    "cct_siret": 79386202000013,
    "latitude": 47.30889,
    "longitude": 4.858912,
    "coordgeo": {
      "lon": 4.858912,
      "lat": 47.30889
    },
    "cct_statut": "actif"
  },
  {
    "cct_code_dept": "Côte-d'Or",
    "code_postal": null,
    "cct_code_commune": "Fleurey-sur-Ouche",
    "cct_denomination": "AUTO CONTROLE TECHNIQUE FLEUREY",
    "cct_adresse": "33  GRANDE RUE DU HAUT NUMERO 33",
    "cct_tel": "380336368",
    "cct_url": "https://controle-technique-fleurey-sur-ouche.securitest.fr/",
    "cat_vehicule_id": "5",
    "cat_vehicule_libelle": "Camping-car (moins de 3,5 tonnes)",
    "cat_energie_id": "1",
    "cat_energie_libelle": "Essence",
    "prix_visite": 95,
    "date_application_visite": null,
    "prix_contre_visite_min": 10,
    "prix_contre_visite_max": 35,
    "date_application_contre_visite": null,
    "cct_siret": 79386202000013,
    "latitude": 47.30889,
    "longitude": 4.858912,
    "coordgeo": {
      "lon": 4.858912,
      "lat": 47.30889
    },
    "cct_statut": "actif"
  },
  {
    "cct_code_dept": "Côte-d'Or",
    "code_postal": null,
    "cct_code_commune": "Fleurey-sur-Ouche",
    "cct_denomination": "AUTO CONTROLE TECHNIQUE FLEUREY",
    "cct_adresse": "33  GRANDE RUE DU HAUT NUMERO 33",
    "cct_tel": "380336368",
    "cct_url": "https://controle-technique-fleurey-sur-ouche.securitest.fr/",
    "cat_vehicule_id": "1",
    "cat_vehicule_libelle": "Voiture Particulière",
    "cat_energie_id": "2",
    "cat_energie_libelle": "Diesel",
    "prix_visite": 85,
    "date_application_visite": null,
    "prix_contre_visite_min": 70,
    "prix_contre_visite_max": 85,
    "date_application_contre_visite": null,
    "cct_siret": 79386202000013,
    "latitude": 47.30889,
    "longitude": 4.858912,
    "coordgeo": {
      "lon": 4.858912,
      "lat": 47.30889
    },
    "cct_statut": "actif"
  },
  {
    "cct_code_dept": "Côte-d'Or",
    "code_postal": null,
    "cct_code_commune": "Fleurey-sur-Ouche",
    "cct_denomination": "AUTO CONTROLE TECHNIQUE FLEUREY",
    "cct_adresse": "33  GRANDE RUE DU HAUT NUMERO 33",
    "cct_tel": "380336368",
    "cct_url": "https://controle-technique-fleurey-sur-ouche.securitest.fr/",
    "cat_vehicule_id": "1",
    "cat_vehicule_libelle": "Voiture Particulière",
    "cat_energie_id": "3",
    "cat_energie_libelle": "Gaz",
    "prix_visite": 105,
    "date_application_visite": "2020-10-01",
    "prix_contre_visite_min": 10,
    "prix_contre_visite_max": 55,
    "date_application_contre_visite": "2020-10-01",
    "cct_siret": 79386202000013,
    "latitude": 47.30889,
    "longitude": 4.858912,
    "coordgeo": {
      "lon": 4.858912,
      "lat": 47.30889
    },
    "cct_statut": "actif"
  },
  {
    "cct_code_dept": "Côte-d'Or",
    "code_postal": null,
    "cct_code_commune": "Crépand",
    "cct_denomination": "SARL CONTROLE TECHNIQUE MONTBARDOIS",
    "cct_adresse": "2 RTE DE SEMUR",
    "cct_tel": "380923444",
    "cct_url": null,
    "cat_vehicule_id": "2",
    "cat_vehicule_libelle": "4 x 4",
    "cat_energie_id": "3",
    "cat_energie_libelle": "Gaz",
    "prix_visite": 115,
    "date_application_visite": "2020-09-01",
    "prix_contre_visite_min": 115,
    "prix_contre_visite_max": 115,
    "date_application_contre_visite": "2020-09-01",
    "cct_siret": 75324781600030,
    "latitude": 47.614543,
    "longitude": 4.316742,
    "coordgeo": {
      "lon": 4.316742,
      "lat": 47.614543
    },
    "cct_statut": "actif"
  },
  {
    "cct_code_dept": "Côte-d'Or",
    "code_postal": null,
    "cct_code_commune": "Brazey-en-Plaine",
    "cct_denomination": "AUTO CONTROLE SEURROIS",
    "cct_adresse": "4 RUE DES ARTISANS",
    "cct_tel": null,
    "cct_url": null,
    "cat_vehicule_id": "5",
    "cat_vehicule_libelle": "Camping-car (moins de 3,5 tonnes)",
    "cat_energie_id": "2",
    "cat_energie_libelle": "Diesel",
    "prix_visite": 90,
    "date_application_visite": "2022-03-31",
    "prix_contre_visite_min": 90,
    "prix_contre_visite_max": 90,
    "date_application_contre_visite": "2022-03-31",
    "cct_siret": 78939171100031,
    "latitude": 47.128305,
    "longitude": 5.212284,
    "coordgeo": {
      "lon": 5.212284,
      "lat": 47.128305
    },
    "cct_statut": "actif"
  },
  {
    "cct_code_dept": "Côte-d'Or",
    "code_postal": "21800",
    "cct_code_commune": "Quetigny",
    "cct_denomination": "AUTO BILAN FRANCE",
    "cct_adresse": "18 BD DU CHAMP AUX METIERS",
    "cct_tel": "380719444",
    "cct_url": "https://www.dekra-norisko.fr/centres-controle-technique/quetigny,21800/norisko-auto,s021v019",
    "cat_vehicule_id": "1",
    "cat_vehicule_libelle": "Voiture Particulière",
    "cat_energie_id": "2",
    "cat_energie_libelle": "Diesel",
    "prix_visite": 85,
    "date_application_visite": "2020-10-12",
    "prix_contre_visite_min": 20,
    "prix_contre_visite_max": 35,
    "date_application_contre_visite": "2020-10-12",
    "cct_siret": 43780779500533,
    "latitude": 47.307853,
    "longitude": 5.102125,
    "coordgeo": {
      "lon": 5.102125,
      "lat": 47.307853
    },
    "cct_statut": "actif"
  },
  {
    "cct_code_dept": "Côte-d'Or",
    "code_postal": "21800",
    "cct_code_commune": "Quetigny",
    "cct_denomination": "AUTO BILAN FRANCE",
    "cct_adresse": "18 BD DU CHAMP AUX METIERS",
    "cct_tel": "380719444",
    "cct_url": "https://www.dekra-norisko.fr/centres-controle-technique/quetigny,21800/norisko-auto,s021v019",
    "cat_vehicule_id": "3",
    "cat_vehicule_libelle": "Voiture de collection",
    "cat_energie_id": "4",
    "cat_energie_libelle": "Hybride",
    "prix_visite": 95,
    "date_application_visite": "2020-10-12",
    "prix_contre_visite_min": 20,
    "prix_contre_visite_max": 35,
    "date_application_contre_visite": "2020-10-12",
    "cct_siret": 43780779500533,
    "latitude": 47.307853,
    "longitude": 5.102125,
    "coordgeo": {
      "lon": 5.102125,
      "lat": 47.307853
    },
    "cct_statut": "actif"
  },
  {
    "cct_code_dept": "Côte-d'Or",
    "code_postal": null,
    "cct_code_commune": "Villers-les-Pots",
    "cct_denomination": "PAYET CONTROLE",
    "cct_adresse": "RN 5",
    "cct_tel": null,
    "cct_url": null,
    "cat_vehicule_id": "5",
    "cat_vehicule_libelle": "Camping-car (moins de 3,5 tonnes)",
    "cat_energie_id": "2",
    "cat_energie_libelle": "Diesel",
    "prix_visite": 85,
    "date_application_visite": "2021-02-16",
    "prix_contre_visite_min": 10,
    "prix_contre_visite_max": 30,
    "date_application_contre_visite": "2021-02-16",
    "cct_siret": 79335793000015,
    "latitude": 47.20293,
    "longitude": 5.344811,
    "coordgeo": {
      "lon": 5.344811,
      "lat": 47.20293
    },
    "cct_statut": "actif"
  },
  {
    "cct_code_dept": "Côte-d'Or",
    "code_postal": "21000",
    "cct_code_commune": "Dijon",
    "cct_denomination": "CONTROLE TECHNIQUE DE LA SOURCE",
    "cct_adresse": "10 BD GASTON BACHELARD",
    "cct_tel": "380435403",
    "cct_url": null,
    "cat_vehicule_id": "2",
    "cat_vehicule_libelle": "4 x 4",
    "cat_energie_id": "1",
    "cat_energie_libelle": "Essence",
    "prix_visite": 72,
    "date_application_visite": "2020-09-01",
    "prix_contre_visite_min": 0,
    "prix_contre_visite_max": 20,
    "date_application_contre_visite": "2020-09-01",
    "cct_siret": 81155942600010,
    "latitude": 47.314841,
    "longitude": 5.00752,
    "coordgeo": {
      "lon": 5.00752,
      "lat": 47.314841
    },
    "cct_statut": "actif"
  },
  {
    "cct_code_dept": "Côte-d'Or",
    "code_postal": "21000",
    "cct_code_commune": "Dijon",
    "cct_denomination": "CONTROLE TECHNIQUE DE LA SOURCE",
    "cct_adresse": "10 BD GASTON BACHELARD",
    "cct_tel": "380435403",
    "cct_url": null,
    "cat_vehicule_id": "4",
    "cat_vehicule_libelle": "Camionnette",
    "cat_energie_id": "4",
    "cat_energie_libelle": "Hybride",
    "prix_visite": 72,
    "date_application_visite": "2020-09-01",
    "prix_contre_visite_min": 10,
    "prix_contre_visite_max": 20,
    "date_application_contre_visite": "2020-09-01",
    "cct_siret": 81155942600010,
    "latitude": 47.314841,
    "longitude": 5.00752,
    "coordgeo": {
      "lon": 5.00752,
      "lat": 47.314841
    },
    "cct_statut": "actif"
  },
  {
    "cct_code_dept": "Côte-d'Or",
    "code_postal": "21000",
    "cct_code_commune": "Dijon",
    "cct_denomination": "CONTROLE TECHNIQUE DE LA SOURCE",
    "cct_adresse": "10 BD GASTON BACHELARD",
    "cct_tel": "380435403",
    "cct_url": null,
    "cat_vehicule_id": "5",
    "cat_vehicule_libelle": "Camping-car (moins de 3,5 tonnes)",
    "cat_energie_id": "1",
    "cat_energie_libelle": "Essence",
    "prix_visite": 72,
    "date_application_visite": "2020-09-01",
    "prix_contre_visite_min": 10,
    "prix_contre_visite_max": 20,
    "date_application_contre_visite": "2020-09-01",
    "cct_siret": 81155942600010,
    "latitude": 47.314841,
    "longitude": 5.00752,
    "coordgeo": {
      "lon": 5.00752,
      "lat": 47.314841
    },
    "cct_statut": "actif"
  },
  {
    "cct_code_dept": "Côte-d'Or",
    "code_postal": "21000",
    "cct_code_commune": "Dijon",
    "cct_denomination": "CONTROLE TECHNIQUE DE LA SOURCE",
    "cct_adresse": "10 BD GASTON BACHELARD",
    "cct_tel": "380435403",
    "cct_url": null,
    "cat_vehicule_id": "1",
    "cat_vehicule_libelle": "Voiture Particulière",
    "cat_energie_id": "4",
    "cat_energie_libelle": "Hybride",
    "prix_visite": 72,
    "date_application_visite": "2020-09-01",
    "prix_contre_visite_min": 10,
    "prix_contre_visite_max": 20,
    "date_application_contre_visite": "2020-09-01",
    "cct_siret": 81155942600010,
    "latitude": 47.314841,
    "longitude": 5.00752,
    "coordgeo": {
      "lon": 5.00752,
      "lat": 47.314841
    },
    "cct_statut": "actif"
  },
  {
    "cct_code_dept": "Côte-d'Or",
    "code_postal": "21000",
    "cct_code_commune": "Dijon",
    "cct_denomination": "CONTROLE TECHNIQUE DE LA SOURCE",
    "cct_adresse": "10 BD GASTON BACHELARD",
    "cct_tel": "380435403",
    "cct_url": null,
    "cat_vehicule_id": "3",
    "cat_vehicule_libelle": "Voiture de collection",
    "cat_energie_id": "1",
    "cat_energie_libelle": "Essence",
    "prix_visite": 72,
    "date_application_visite": "2020-09-01",
    "prix_contre_visite_min": 0,
    "prix_contre_visite_max": 20,
    "date_application_contre_visite": "2020-09-01",
    "cct_siret": 81155942600010,
    "latitude": 47.314841,
    "longitude": 5.00752,
    "coordgeo": {
      "lon": 5.00752,
      "lat": 47.314841
    },
    "cct_statut": "actif"
  },
  {
    "cct_code_dept": "Côte-d'Or",
    "code_postal": "21190",
    "cct_code_commune": "Corpeau",
    "cct_denomination": "EURL CONTROLE TECHNIQUE FELIX",
    "cct_adresse": "9 RUE PREJEANNOT",
    "cct_tel": null,
    "cct_url": null,
    "cat_vehicule_id": "2",
    "cat_vehicule_libelle": "4 x 4",
    "cat_energie_id": "3",
    "cat_energie_libelle": "Gaz",
    "prix_visite": 80,
    "date_application_visite": "2021-10-08",
    "prix_contre_visite_min": 0,
    "prix_contre_visite_max": 20,
    "date_application_contre_visite": "2021-10-08",
    "cct_siret": 90029450500012,
    "latitude": 46.920918,
    "longitude": 4.751286,
    "coordgeo": {
      "lon": 4.751286,
      "lat": 46.920918
    },
    "cct_statut": "actif"
  },
  {
    "cct_code_dept": "Côte-d'Or",
    "code_postal": "21190",
    "cct_code_commune": "Corpeau",
    "cct_denomination": "EURL CONTROLE TECHNIQUE FELIX",
    "cct_adresse": "9 RUE PREJEANNOT",
    "cct_tel": null,
    "cct_url": null,
    "cat_vehicule_id": "5",
    "cat_vehicule_libelle": "Camping-car (moins de 3,5 tonnes)",
    "cat_energie_id": "2",
    "cat_energie_libelle": "Diesel",
    "prix_visite": 80,
    "date_application_visite": "2021-10-08",
    "prix_contre_visite_min": 0,
    "prix_contre_visite_max": 20,
    "date_application_contre_visite": "2021-10-08",
    "cct_siret": 90029450500012,
    "latitude": 46.920918,
    "longitude": 4.751286,
    "coordgeo": {
      "lon": 4.751286,
      "lat": 46.920918
    },
    "cct_statut": "actif"
  },
  {
    "cct_code_dept": "Côte-d'Or",
    "code_postal": "21190",
    "cct_code_commune": "Corpeau",
    "cct_denomination": "EURL CONTROLE TECHNIQUE FELIX",
    "cct_adresse": "9 RUE PREJEANNOT",
    "cct_tel": null,
    "cct_url": null,
    "cat_vehicule_id": "5",
    "cat_vehicule_libelle": "Camping-car (moins de 3,5 tonnes)",
    "cat_energie_id": "3",
    "cat_energie_libelle": "Gaz",
    "prix_visite": 80,
    "date_application_visite": "2021-10-08",
    "prix_contre_visite_min": 0,
    "prix_contre_visite_max": 20,
    "date_application_contre_visite": "2021-10-08",
    "cct_siret": 90029450500012,
    "latitude": 46.920918,
    "longitude": 4.751286,
    "coordgeo": {
      "lon": 4.751286,
      "lat": 46.920918
    },
    "cct_statut": "actif"
  },
  {
    "cct_code_dept": "Côte-d'Or",
    "code_postal": "21190",
    "cct_code_commune": "Corpeau",
    "cct_denomination": "EURL CONTROLE TECHNIQUE FELIX",
    "cct_adresse": "9 RUE PREJEANNOT",
    "cct_tel": null,
    "cct_url": null,
    "cat_vehicule_id": "1",
    "cat_vehicule_libelle": "Voiture Particulière",
    "cat_energie_id": "2",
    "cat_energie_libelle": "Diesel",
    "prix_visite": 80,
    "date_application_visite": "2021-10-08",
    "prix_contre_visite_min": 0,
    "prix_contre_visite_max": 20,
    "date_application_contre_visite": "2021-10-08",
    "cct_siret": 90029450500012,
    "latitude": 46.920918,
    "longitude": 4.751286,
    "coordgeo": {
      "lon": 4.751286,
      "lat": 46.920918
    },
    "cct_statut": "actif"
  },
  {
    "cct_code_dept": "Côte-d'Or",
    "code_postal": "21190",
    "cct_code_commune": "Corpeau",
    "cct_denomination": "EURL CONTROLE TECHNIQUE FELIX",
    "cct_adresse": "9 RUE PREJEANNOT",
    "cct_tel": null,
    "cct_url": null,
    "cat_vehicule_id": "3",
    "cat_vehicule_libelle": "Voiture de collection",
    "cat_energie_id": "3",
    "cat_energie_libelle": "Gaz",
    "prix_visite": 80,
    "date_application_visite": "2021-10-08",
    "prix_contre_visite_min": 0,
    "prix_contre_visite_max": 20,
    "date_application_contre_visite": "2021-10-08",
    "cct_siret": 90029450500012,
    "latitude": 46.920918,
    "longitude": 4.751286,
    "coordgeo": {
      "lon": 4.751286,
      "lat": 46.920918
    },
    "cct_statut": "actif"
  },
  {
    "cct_code_dept": "Côte-d'Or",
    "code_postal": null,
    "cct_code_commune": "Chenôve",
    "cct_denomination": "AUTO CONTROLE SECURITE DIJON SUD",
    "cct_adresse": "8 RUE DES FRERES LUMIERE",
    "cct_tel": "380523402",
    "cct_url": null,
    "cat_vehicule_id": "3",
    "cat_vehicule_libelle": "Voiture de collection",
    "cat_energie_id": "5",
    "cat_energie_libelle": "Electrique",
    "prix_visite": 82,
    "date_application_visite": "2022-02-11",
    "prix_contre_visite_min": 25,
    "prix_contre_visite_max": 60,
    "date_application_contre_visite": "2020-09-01",
    "cct_siret": 38359376100018,
    "latitude": 47.282852,
    "longitude": 5.012075,
    "coordgeo": {
      "lon": 5.012075,
      "lat": 47.282852
    },
    "cct_statut": "actif"
  },
  {
    "cct_code_dept": "Côte-d'Or",
    "code_postal": null,
    "cct_code_commune": "Chenôve",
    "cct_denomination": "AUTO CONTROLE SECURITE DIJON SUD",
    "cct_adresse": "8 RUE DES FRERES LUMIERE",
    "cct_tel": "380523402",
    "cct_url": null,
    "cat_vehicule_id": "3",
    "cat_vehicule_libelle": "Voiture de collection",
    "cat_energie_id": "1",
    "cat_energie_libelle": "Essence",
    "prix_visite": 82,
    "date_application_visite": "2022-02-11",
    "prix_contre_visite_min": 25,
    "prix_contre_visite_max": 60,
    "date_application_contre_visite": "2020-09-01",
    "cct_siret": 38359376100018,
    "latitude": 47.282852,
    "longitude": 5.012075,
    "coordgeo": {
      "lon": 5.012075,
      "lat": 47.282852
    },
    "cct_statut": "actif"
  },
  {
    "cct_code_dept": "Côte-d'Or",
    "code_postal": "21540",
    "cct_code_commune": "Sombernon",
    "cct_denomination": "CONTROLE TECHNIQUE SOMBERNONNAIS",
    "cct_adresse": "LD DERRIERE L'HOPITAL",
    "cct_tel": "380436759",
    "cct_url": null,
    "cat_vehicule_id": "4",
    "cat_vehicule_libelle": "Camionnette",
    "cat_energie_id": "5",
    "cat_energie_libelle": "Electrique",
    "prix_visite": 85,
    "date_application_visite": "2020-12-19",
    "prix_contre_visite_min": 15,
    "prix_contre_visite_max": 60,
    "date_application_contre_visite": "2020-12-19",
    "cct_siret": 51433512400020,
    "latitude": 47.317481,
    "longitude": 4.710924,
    "coordgeo": {
      "lon": 4.710924,
      "lat": 47.317481
    },
    "cct_statut": "actif"
  },
  {
    "cct_code_dept": "Côte-d'Or",
    "code_postal": "21000",
    "cct_code_commune": "Dijon",
    "cct_denomination": "TECHNIC AUTO DIJON",
    "cct_adresse": "57 AV ARISTIDE BRIAND",
    "cct_tel": "380479247",
    "cct_url": null,
    "cat_vehicule_id": "4",
    "cat_vehicule_libelle": "Camionnette",
    "cat_energie_id": "4",
    "cat_energie_libelle": "Hybride",
    "prix_visite": 75,
    "date_application_visite": "2020-12-09",
    "prix_contre_visite_min": 0,
    "prix_contre_visite_max": 35,
    "date_application_contre_visite": "2020-12-09",
    "cct_siret": 80044486100010,
    "latitude": 47.333892,
    "longitude": 5.052762,
    "coordgeo": {
      "lon": 5.052762,
      "lat": 47.333892
    },
    "cct_statut": "actif"
  },
  {
    "cct_code_dept": "Côte-d'Or",
    "code_postal": "21000",
    "cct_code_commune": "Dijon",
    "cct_denomination": "TECHNIC AUTO DIJON",
    "cct_adresse": "57 AV ARISTIDE BRIAND",
    "cct_tel": "380479247",
    "cct_url": null,
    "cat_vehicule_id": "5",
    "cat_vehicule_libelle": "Camping-car (moins de 3,5 tonnes)",
    "cat_energie_id": "5",
    "cat_energie_libelle": "Electrique",
    "prix_visite": 79,
    "date_application_visite": "2020-12-09",
    "prix_contre_visite_min": 0,
    "prix_contre_visite_max": 35,
    "date_application_contre_visite": "2020-12-09",
    "cct_siret": 80044486100010,
    "latitude": 47.333892,
    "longitude": 5.052762,
    "coordgeo": {
      "lon": 5.052762,
      "lat": 47.333892
    },
    "cct_statut": "actif"
  },
  {
    "cct_code_dept": "Côte-d'Or",
    "code_postal": null,
    "cct_code_commune": "Is-sur-Tille",
    "cct_denomination": "JC CONTROLE AUTO",
    "cct_adresse": "34  ROUTE DE DIJON",
    "cct_tel": "380950836",
    "cct_url": null,
    "cat_vehicule_id": "2",
    "cat_vehicule_libelle": "4 x 4",
    "cat_energie_id": "5",
    "cat_energie_libelle": "Electrique",
    "prix_visite": 83,
    "date_application_visite": "2020-09-12",
    "prix_contre_visite_min": 18,
    "prix_contre_visite_max": 65,
    "date_application_contre_visite": "2020-09-12",
    "cct_siret": 50875547700017,
    "latitude": 47.513039,
    "longitude": 5.109206,
    "coordgeo": {
      "lon": 5.109206,
      "lat": 47.513039
    },
    "cct_statut": "actif"
  },
  {
    "cct_code_dept": "Côte-d'Or",
    "code_postal": null,
    "cct_code_commune": "Pontailler-sur-Saône",
    "cct_denomination": "AUTO CONTROLE TECHNIQUE PONTAILLER",
    "cct_adresse": "RUE DES METIERS",
    "cct_tel": "980555417",
    "cct_url": "https://controle-technique-pontailler-sur-saone.securitest.fr/",
    "cat_vehicule_id": "2",
    "cat_vehicule_libelle": "4 x 4",
    "cat_energie_id": "4",
    "cat_energie_libelle": "Hybride",
    "prix_visite": 100,
    "date_application_visite": "2020-09-10",
    "prix_contre_visite_min": 15,
    "prix_contre_visite_max": 60,
    "date_application_contre_visite": "2020-09-10",
    "cct_siret": 82086950100016,
    "latitude": 47.314615,
    "longitude": 5.400265,
    "coordgeo": {
      "lon": 5.400265,
      "lat": 47.314615
    },
    "cct_statut": "actif"
  },
  {
    "cct_code_dept": "Côte-d'Or",
    "code_postal": null,
    "cct_code_commune": "Pontailler-sur-Saône",
    "cct_denomination": "AUTO CONTROLE TECHNIQUE PONTAILLER",
    "cct_adresse": "RUE DES METIERS",
    "cct_tel": "980555417",
    "cct_url": "https://controle-technique-pontailler-sur-saone.securitest.fr/",
    "cat_vehicule_id": "1",
    "cat_vehicule_libelle": "Voiture Particulière",
    "cat_energie_id": "5",
    "cat_energie_libelle": "Electrique",
    "prix_visite": 100,
    "date_application_visite": "2020-09-10",
    "prix_contre_visite_min": 15,
    "prix_contre_visite_max": 60,
    "date_application_contre_visite": "2020-09-10",
    "cct_siret": 82086950100016,
    "latitude": 47.314615,
    "longitude": 5.400265,
    "coordgeo": {
      "lon": 5.400265,
      "lat": 47.314615
    },
    "cct_statut": "actif"
  },
  {
    "cct_code_dept": "Côte-d'Or",
    "code_postal": "21130",
    "cct_code_commune": "Auxonne",
    "cct_denomination": "CONTROLE AUTO DU VAL DE SAONE",
    "cct_adresse": "10 RUE DU BIEF PEROU",
    "cct_tel": "380374870",
    "cct_url": null,
    "cat_vehicule_id": "2",
    "cat_vehicule_libelle": "4 x 4",
    "cat_energie_id": "5",
    "cat_energie_libelle": "Electrique",
    "prix_visite": 86,
    "date_application_visite": "2020-09-01",
    "prix_contre_visite_min": 15,
    "prix_contre_visite_max": 35,
    "date_application_contre_visite": "2020-09-01",
    "cct_siret": 38899399000018,
    "latitude": 47.178399,
    "longitude": 5.402463,
    "coordgeo": {
      "lon": 5.402463,
      "lat": 47.178399
    },
    "cct_statut": "actif"
  },
  {
    "cct_code_dept": "Côte-d'Or",
    "code_postal": "21130",
    "cct_code_commune": "Auxonne",
    "cct_denomination": "CONTROLE AUTO DU VAL DE SAONE",
    "cct_adresse": "10 RUE DU BIEF PEROU",
    "cct_tel": "380374870",
    "cct_url": null,
    "cat_vehicule_id": "3",
    "cat_vehicule_libelle": "Voiture de collection",
    "cat_energie_id": "3",
    "cat_energie_libelle": "Gaz",
    "prix_visite": 115,
    "date_application_visite": "2020-09-01",
    "prix_contre_visite_min": 15,
    "prix_contre_visite_max": 35,
    "date_application_contre_visite": "2020-09-01",
    "cct_siret": 38899399000018,
    "latitude": 47.178399,
    "longitude": 5.402463,
    "coordgeo": {
      "lon": 5.402463,
      "lat": 47.178399
    },
    "cct_statut": "actif"
  },
  {
    "cct_code_dept": "Côte-d'Or",
    "code_postal": "21000",
    "cct_code_commune": "Dijon",
    "cct_denomination": "FRANCOIS CARTHAGE SARL",
    "cct_adresse": "3 RUE DOCTEUR QUIGNARD",
    "cct_tel": "380734855",
    "cct_url": null,
    "cat_vehicule_id": "4",
    "cat_vehicule_libelle": "Camionnette",
    "cat_energie_id": "3",
    "cat_energie_libelle": "Gaz",
    "prix_visite": 94,
    "date_application_visite": "2020-09-04",
    "prix_contre_visite_min": 15,
    "prix_contre_visite_max": 25,
    "date_application_contre_visite": "2020-09-04",
    "cct_siret": 38396607400023,
    "latitude": 47.348241,
    "longitude": 5.064502,
    "coordgeo": {
      "lon": 5.064502,
      "lat": 47.348241
    },
    "cct_statut": "actif"
  },
  {
    "cct_code_dept": "Côte-d'Or",
    "code_postal": "21200",
    "cct_code_commune": "Beaune",
    "cct_denomination": "CONTROLE TECHNIQUE AUTO BEAUNOIS",
    "cct_adresse": "37 RTE DE SEURRE",
    "cct_tel": "380241918",
    "cct_url": "https://beaune.autosecurite.com/",
    "cat_vehicule_id": "5",
    "cat_vehicule_libelle": "Camping-car (moins de 3,5 tonnes)",
    "cat_energie_id": "1",
    "cat_energie_libelle": "Essence",
    "prix_visite": 98,
    "date_application_visite": "2020-08-31",
    "prix_contre_visite_min": 15,
    "prix_contre_visite_max": 35,
    "date_application_contre_visite": "2020-08-31",
    "cct_siret": 52105810700017,
    "latitude": 47.019335,
    "longitude": 4.85644,
    "coordgeo": {
      "lon": 4.85644,
      "lat": 47.019335
    },
    "cct_statut": "actif"
  },
  {
    "cct_code_dept": "Côte-d'Or",
    "code_postal": null,
    "cct_code_commune": "Chenôve",
    "cct_denomination": "TALANT CONTROLE TECHNIQUE",
    "cct_adresse": "48 RUE DE LONGVIC",
    "cct_tel": "380512425",
    "cct_url": "http://dijon-controle-technique.fr",
    "cat_vehicule_id": "5",
    "cat_vehicule_libelle": "Camping-car (moins de 3,5 tonnes)",
    "cat_energie_id": "4",
    "cat_energie_libelle": "Hybride",
    "prix_visite": 86,
    "date_application_visite": "2023-01-02",
    "prix_contre_visite_min": 8,
    "prix_contre_visite_max": 35,
    "date_application_contre_visite": "2023-01-02",
    "cct_siret": 38495387300021,
    "latitude": 47.285784,
    "longitude": 5.019322,
    "coordgeo": {
      "lon": 5.019322,
      "lat": 47.285784
    },
    "cct_statut": "actif"
  },
  {
    "cct_code_dept": "Côte-d'Or",
    "code_postal": null,
    "cct_code_commune": "Nuits-Saint-Georges",
    "cct_denomination": "NUITS-SAINT-GEORGES AUTO CONTROLE",
    "cct_adresse": "RUE FRANCOIS APPERT",
    "cct_tel": "681073382",
    "cct_url": null,
    "cat_vehicule_id": "3",
    "cat_vehicule_libelle": "Voiture de collection",
    "cat_energie_id": "2",
    "cat_energie_libelle": "Diesel",
    "prix_visite": 82,
    "date_application_visite": "2020-09-12",
    "prix_contre_visite_min": 20,
    "prix_contre_visite_max": 35,
    "date_application_contre_visite": "2020-09-12",
    "cct_siret": 47935710500010,
    "latitude": 47.124885,
    "longitude": 4.961216,
    "coordgeo": {
      "lon": 4.961216,
      "lat": 47.124885
    },
    "cct_statut": "actif"
  },
  {
    "cct_code_dept": "Côte-d'Or",
    "code_postal": "21000",
    "cct_code_commune": "Dijon",
    "cct_denomination": "AUTO BILAN FRANCE",
    "cct_adresse": "9 RUE DES ARDENNES Village Autos",
    "cct_tel": "380712020",
    "cct_url": "https://www.dekra-norisko.fr/centres-controle-technique/dijon,21000/norisko,s021d074",
    "cat_vehicule_id": "1",
    "cat_vehicule_libelle": "Voiture Particulière",
    "cat_energie_id": "2",
    "cat_energie_libelle": "Diesel",
    "prix_visite": 85,
    "date_application_visite": "2020-10-12",
    "prix_contre_visite_min": 20,
    "prix_contre_visite_max": 35,
    "date_application_contre_visite": "2020-10-12",
    "cct_siret": 43780779501853,
    "latitude": 47.352282,
    "longitude": 5.067414,
    "coordgeo": {
      "lon": 5.067414,
      "lat": 47.352282
    },
    "cct_statut": "actif"
  },
  {
    "cct_code_dept": "Côte-d'Or",
    "code_postal": null,
    "cct_code_commune": "Morey-Saint-Denis",
    "cct_denomination": "AUTO BILAN DU VIGNOBLE",
    "cct_adresse": "23 RUE DES JARDINS",
    "cct_tel": "380518442",
    "cct_url": "https://www.dekra-norisko.fr/centres-controle-technique/morey-saint-denis,21220/auto-bilan-du-vignoble-sarl,s021d079",
    "cat_vehicule_id": "2",
    "cat_vehicule_libelle": "4 x 4",
    "cat_energie_id": "5",
    "cat_energie_libelle": "Electrique",
    "prix_visite": 85,
    "date_application_visite": "2020-08-28",
    "prix_contre_visite_min": 16,
    "prix_contre_visite_max": 36,
    "date_application_contre_visite": "2020-08-28",
    "cct_siret": 49901820800011,
    "latitude": 47.194627,
    "longitude": 4.972304,
    "coordgeo": {
      "lon": 4.972304,
      "lat": 47.194627
    },
    "cct_statut": "actif"
  },
  {
    "cct_code_dept": "Côte-d'Or",
    "code_postal": null,
    "cct_code_commune": "Morey-Saint-Denis",
    "cct_denomination": "AUTO BILAN DU VIGNOBLE",
    "cct_adresse": "23 RUE DES JARDINS",
    "cct_tel": "380518442",
    "cct_url": "https://www.dekra-norisko.fr/centres-controle-technique/morey-saint-denis,21220/auto-bilan-du-vignoble-sarl,s021d079",
    "cat_vehicule_id": "4",
    "cat_vehicule_libelle": "Camionnette",
    "cat_energie_id": "5",
    "cat_energie_libelle": "Electrique",
    "prix_visite": 85,
    "date_application_visite": "2022-12-24",
    "prix_contre_visite_min": 16,
    "prix_contre_visite_max": 36,
    "date_application_contre_visite": "2022-12-24",
    "cct_siret": 49901820800011,
    "latitude": 47.194627,
    "longitude": 4.972304,
    "coordgeo": {
      "lon": 4.972304,
      "lat": 47.194627
    },
    "cct_statut": "actif"
  },
  {
    "cct_code_dept": "Côte-d'Or",
    "code_postal": null,
    "cct_code_commune": "Morey-Saint-Denis",
    "cct_denomination": "AUTO BILAN DU VIGNOBLE",
    "cct_adresse": "23 RUE DES JARDINS",
    "cct_tel": "380518442",
    "cct_url": "https://www.dekra-norisko.fr/centres-controle-technique/morey-saint-denis,21220/auto-bilan-du-vignoble-sarl,s021d079",
    "cat_vehicule_id": "5",
    "cat_vehicule_libelle": "Camping-car (moins de 3,5 tonnes)",
    "cat_energie_id": "5",
    "cat_energie_libelle": "Electrique",
    "prix_visite": 85,
    "date_application_visite": "2022-12-24",
    "prix_contre_visite_min": 16,
    "prix_contre_visite_max": 36,
    "date_application_contre_visite": "2022-12-24",
    "cct_siret": 49901820800011,
    "latitude": 47.194627,
    "longitude": 4.972304,
    "coordgeo": {
      "lon": 4.972304,
      "lat": 47.194627
    },
    "cct_statut": "actif"
  },
  {
    "cct_code_dept": "Côte-d'Or",
    "code_postal": null,
    "cct_code_commune": "Morey-Saint-Denis",
    "cct_denomination": "AUTO BILAN DU VIGNOBLE",
    "cct_adresse": "23 RUE DES JARDINS",
    "cct_tel": "380518442",
    "cct_url": "https://www.dekra-norisko.fr/centres-controle-technique/morey-saint-denis,21220/auto-bilan-du-vignoble-sarl,s021d079",
    "cat_vehicule_id": "5",
    "cat_vehicule_libelle": "Camping-car (moins de 3,5 tonnes)",
    "cat_energie_id": "4",
    "cat_energie_libelle": "Hybride",
    "prix_visite": 79,
    "date_application_visite": "2020-08-28",
    "prix_contre_visite_min": 15,
    "prix_contre_visite_max": 35,
    "date_application_contre_visite": "2020-08-28",
    "cct_siret": 49901820800011,
    "latitude": 47.194627,
    "longitude": 4.972304,
    "coordgeo": {
      "lon": 4.972304,
      "lat": 47.194627
    },
    "cct_statut": "actif"
  },
  {
    "cct_code_dept": "Côte-d'Or",
    "code_postal": null,
    "cct_code_commune": "Morey-Saint-Denis",
    "cct_denomination": "AUTO BILAN DU VIGNOBLE",
    "cct_adresse": "23 RUE DES JARDINS",
    "cct_tel": "380518442",
    "cct_url": "https://www.dekra-norisko.fr/centres-controle-technique/morey-saint-denis,21220/auto-bilan-du-vignoble-sarl,s021d079",
    "cat_vehicule_id": "1",
    "cat_vehicule_libelle": "Voiture Particulière",
    "cat_energie_id": "2",
    "cat_energie_libelle": "Diesel",
    "prix_visite": 80,
    "date_application_visite": "2022-12-24",
    "prix_contre_visite_min": 16,
    "prix_contre_visite_max": 36,
    "date_application_contre_visite": "2022-12-24",
    "cct_siret": 49901820800011,
    "latitude": 47.194627,
    "longitude": 4.972304,
    "coordgeo": {
      "lon": 4.972304,
      "lat": 47.194627
    },
    "cct_statut": "actif"
  },
  {
    "cct_code_dept": "Côte-d'Or",
    "code_postal": null,
    "cct_code_commune": "Morey-Saint-Denis",
    "cct_denomination": "AUTO BILAN DU VIGNOBLE",
    "cct_adresse": "23 RUE DES JARDINS",
    "cct_tel": "380518442",
    "cct_url": "https://www.dekra-norisko.fr/centres-controle-technique/morey-saint-denis,21220/auto-bilan-du-vignoble-sarl,s021d079",
    "cat_vehicule_id": "1",
    "cat_vehicule_libelle": "Voiture Particulière",
    "cat_energie_id": "4",
    "cat_energie_libelle": "Hybride",
    "prix_visite": 85,
    "date_application_visite": "2022-12-24",
    "prix_contre_visite_min": 16,
    "prix_contre_visite_max": 36,
    "date_application_contre_visite": "2022-12-24",
    "cct_siret": 49901820800011,
    "latitude": 47.194627,
    "longitude": 4.972304,
    "coordgeo": {
      "lon": 4.972304,
      "lat": 47.194627
    },
    "cct_statut": "actif"
  },
  {
    "cct_code_dept": "Côte-d'Or",
    "code_postal": "21000",
    "cct_code_commune": "Dijon",
    "cct_denomination": "AUTO BILAN FRANCE",
    "cct_adresse": "16 RUE RENE CHAR",
    "cct_tel": "380780993",
    "cct_url": "https://www.dekra-norisko.fr/centres-controle-technique/dijon,21000/dekra,s021d088",
    "cat_vehicule_id": "5",
    "cat_vehicule_libelle": "Camping-car (moins de 3,5 tonnes)",
    "cat_energie_id": "2",
    "cat_energie_libelle": "Diesel",
    "prix_visite": 92,
    "date_application_visite": "2020-10-12",
    "prix_contre_visite_min": 20,
    "prix_contre_visite_max": 35,
    "date_application_contre_visite": "2020-10-12",
    "cct_siret": 43780779502489,
    "latitude": 47.352622,
    "longitude": 5.055957,
    "coordgeo": {
      "lon": 5.055957,
      "lat": 47.352622
    },
    "cct_statut": "actif"
  },
  {
    "cct_code_dept": "Côte-d'Or",
    "code_postal": null,
    "cct_code_commune": "Marsannay-la-Côte",
    "cct_denomination": "AUTO BILAN FRANCE",
    "cct_adresse": "6 RUE AMPERE",
    "cct_tel": "380511317",
    "cct_url": "https://www.dekra-norisko.fr/centres-controle-technique/marsannay-la-cote,21160/dekra,s021d089",
    "cat_vehicule_id": "5",
    "cat_vehicule_libelle": "Camping-car (moins de 3,5 tonnes)",
    "cat_energie_id": "5",
    "cat_energie_libelle": "Electrique",
    "prix_visite": 92,
    "date_application_visite": "2020-10-12",
    "prix_contre_visite_min": 20,
    "prix_contre_visite_max": 35,
    "date_application_contre_visite": "2020-10-12",
    "cct_siret": 43780779502471,
    "latitude": 47.281544,
    "longitude": 5.010054,
    "coordgeo": {
      "lon": 5.010054,
      "lat": 47.281544
    },
    "cct_statut": "actif"
  },
  {
    "cct_code_dept": "Côte-d'Or",
    "code_postal": null,
    "cct_code_commune": "Marsannay-la-Côte",
    "cct_denomination": "AUTO BILAN FRANCE",
    "cct_adresse": "6 RUE AMPERE",
    "cct_tel": "380511317",
    "cct_url": "https://www.dekra-norisko.fr/centres-controle-technique/marsannay-la-cote,21160/dekra,s021d089",
    "cat_vehicule_id": "1",
    "cat_vehicule_libelle": "Voiture Particulière",
    "cat_energie_id": "4",
    "cat_energie_libelle": "Hybride",
    "prix_visite": 89,
    "date_application_visite": "2020-10-12",
    "prix_contre_visite_min": 20,
    "prix_contre_visite_max": 35,
    "date_application_contre_visite": "2020-10-12",
    "cct_siret": 43780779502471,
    "latitude": 47.281544,
    "longitude": 5.010054,
    "coordgeo": {
      "lon": 5.010054,
      "lat": 47.281544
    },
    "cct_statut": "actif"
  },
  {
    "cct_code_dept": "Côte-d'Or",
    "code_postal": null,
    "cct_code_commune": "Marsannay-la-Côte",
    "cct_denomination": "AUTO BILAN FRANCE",
    "cct_adresse": "6 RUE AMPERE",
    "cct_tel": "380511317",
    "cct_url": "https://www.dekra-norisko.fr/centres-controle-technique/marsannay-la-cote,21160/dekra,s021d089",
    "cat_vehicule_id": "3",
    "cat_vehicule_libelle": "Voiture de collection",
    "cat_energie_id": "2",
    "cat_energie_libelle": "Diesel",
    "prix_visite": 89,
    "date_application_visite": "2020-10-12",
    "prix_contre_visite_min": 20,
    "prix_contre_visite_max": 35,
    "date_application_contre_visite": "2020-10-12",
    "cct_siret": 43780779502471,
    "latitude": 47.281544,
    "longitude": 5.010054,
    "coordgeo": {
      "lon": 5.010054,
      "lat": 47.281544
    },
    "cct_statut": "actif"
  },
  {
    "cct_code_dept": "Côte-d'Or",
    "code_postal": "21000",
    "cct_code_commune": "Dijon",
    "cct_denomination": "CONTROLE AUTOMOBILE TECHNIQUE DIJONNAIS",
    "cct_adresse": "28 BD DE CHICAGO",
    "cct_tel": "380684545",
    "cct_url": "www.controletechniquedijon.com",
    "cat_vehicule_id": "2",
    "cat_vehicule_libelle": "4 x 4",
    "cat_energie_id": "1",
    "cat_energie_libelle": "Essence",
    "prix_visite": 84,
    "date_application_visite": "2020-09-14",
    "prix_contre_visite_min": 20,
    "prix_contre_visite_max": 50,
    "date_application_contre_visite": "2020-09-14",
    "cct_siret": 78927566600020,
    "latitude": 47.301333,
    "longitude": 5.06353,
    "coordgeo": {
      "lon": 5.06353,
      "lat": 47.301333
    },
    "cct_statut": "actif"
  },
  {
    "cct_code_dept": "Côte-d'Or",
    "code_postal": "21000",
    "cct_code_commune": "Dijon",
    "cct_denomination": "CONTROLE AUTOMOBILE TECHNIQUE DIJONNAIS",
    "cct_adresse": "28 BD DE CHICAGO",
    "cct_tel": "380684545",
    "cct_url": "www.controletechniquedijon.com",
    "cat_vehicule_id": "4",
    "cat_vehicule_libelle": "Camionnette",
    "cat_energie_id": "2",
    "cat_energie_libelle": "Diesel",
    "prix_visite": 90,
    "date_application_visite": "2020-09-14",
    "prix_contre_visite_min": 20,
    "prix_contre_visite_max": 50,
    "date_application_contre_visite": "2020-09-14",
    "cct_siret": 78927566600020,
    "latitude": 47.301333,
    "longitude": 5.06353,
    "coordgeo": {
      "lon": 5.06353,
      "lat": 47.301333
    },
    "cct_statut": "actif"
  },
  {
    "cct_code_dept": "Côte-d'Or",
    "code_postal": "21000",
    "cct_code_commune": "Dijon",
    "cct_denomination": "CONTROLE AUTOMOBILE TECHNIQUE DIJONNAIS",
    "cct_adresse": "28 BD DE CHICAGO",
    "cct_tel": "380684545",
    "cct_url": "www.controletechniquedijon.com",
    "cat_vehicule_id": "5",
    "cat_vehicule_libelle": "Camping-car (moins de 3,5 tonnes)",
    "cat_energie_id": "1",
    "cat_energie_libelle": "Essence",
    "prix_visite": 90,
    "date_application_visite": "2020-09-14",
    "prix_contre_visite_min": 20,
    "prix_contre_visite_max": 50,
    "date_application_contre_visite": "2022-06-01",
    "cct_siret": 78927566600020,
    "latitude": 47.301333,
    "longitude": 5.06353,
    "coordgeo": {
      "lon": 5.06353,
      "lat": 47.301333
    },
    "cct_statut": "actif"
  },
  {
    "cct_code_dept": "Côte-d'Or",
    "code_postal": "21000",
    "cct_code_commune": "Dijon",
    "cct_denomination": "CONTROLE AUTOMOBILE TECHNIQUE DIJONNAIS",
    "cct_adresse": "28 BD DE CHICAGO",
    "cct_tel": "380684545",
    "cct_url": "www.controletechniquedijon.com",
    "cat_vehicule_id": "5",
    "cat_vehicule_libelle": "Camping-car (moins de 3,5 tonnes)",
    "cat_energie_id": "3",
    "cat_energie_libelle": "Gaz",
    "prix_visite": 99,
    "date_application_visite": "2020-09-14",
    "prix_contre_visite_min": 20,
    "prix_contre_visite_max": 50,
    "date_application_contre_visite": "2022-06-01",
    "cct_siret": 78927566600020,
    "latitude": 47.301333,
    "longitude": 5.06353,
    "coordgeo": {
      "lon": 5.06353,
      "lat": 47.301333
    },
    "cct_statut": "actif"
  },
  {
    "cct_code_dept": "Côte-d'Or",
    "code_postal": "21000",
    "cct_code_commune": "Dijon",
    "cct_denomination": "CONTROLE AUTOMOBILE TECHNIQUE DIJONNAIS",
    "cct_adresse": "28 BD DE CHICAGO",
    "cct_tel": "380684545",
    "cct_url": "www.controletechniquedijon.com",
    "cat_vehicule_id": "1",
    "cat_vehicule_libelle": "Voiture Particulière",
    "cat_energie_id": "2",
    "cat_energie_libelle": "Diesel",
    "prix_visite": 82,
    "date_application_visite": "2020-09-14",
    "prix_contre_visite_min": 20,
    "prix_contre_visite_max": 50,
    "date_application_contre_visite": "2020-09-14",
    "cct_siret": 78927566600020,
    "latitude": 47.301333,
    "longitude": 5.06353,
    "coordgeo": {
      "lon": 5.06353,
      "lat": 47.301333
    },
    "cct_statut": "actif"
  },
  {
    "cct_code_dept": "Côte-d'Or",
    "code_postal": "21000",
    "cct_code_commune": "Dijon",
    "cct_denomination": "CONTROLE AUTOMOBILE TECHNIQUE DIJONNAIS",
    "cct_adresse": "28 BD DE CHICAGO",
    "cct_tel": "380684545",
    "cct_url": "www.controletechniquedijon.com",
    "cat_vehicule_id": "3",
    "cat_vehicule_libelle": "Voiture de collection",
    "cat_energie_id": "5",
    "cat_energie_libelle": "Electrique",
    "prix_visite": 88,
    "date_application_visite": "2020-09-14",
    "prix_contre_visite_min": 20,
    "prix_contre_visite_max": 50,
    "date_application_contre_visite": "2020-09-14",
    "cct_siret": 78927566600020,
    "latitude": 47.301333,
    "longitude": 5.06353,
    "coordgeo": {
      "lon": 5.06353,
      "lat": 47.301333
    },
    "cct_statut": "actif"
  },
  {
    "cct_code_dept": "Côte-d'Or",
    "code_postal": null,
    "cct_code_commune": "Chevigny-Saint-Sauveur",
    "cct_denomination": "ASSOCIATION BOURGUIGNONNE DE CONTROLE TECHNIQUE AUTOMOBILE",
    "cct_adresse": "30 AV DE TAVAUX",
    "cct_tel": "380468366",
    "cct_url": null,
    "cat_vehicule_id": "2",
    "cat_vehicule_libelle": "4 x 4",
    "cat_energie_id": "2",
    "cat_energie_libelle": "Diesel",
    "prix_visite": 82,
    "date_application_visite": "2020-09-02",
    "prix_contre_visite_min": 15,
    "prix_contre_visite_max": 26,
    "date_application_contre_visite": "2020-09-02",
    "cct_siret": 79481059800027,
    "latitude": 47.290684,
    "longitude": 5.134444,
    "coordgeo": {
      "lon": 5.134444,
      "lat": 47.290684
    },
    "cct_statut": "actif"
  },
  {
    "cct_code_dept": "Côte-d'Or",
    "code_postal": null,
    "cct_code_commune": "Sainte-Colombe-sur-Seine",
    "cct_denomination": "AUTO BILAN FRANCE",
    "cct_adresse": "RTE DE CHATILLON SUR SEINE",
    "cct_tel": "380913854",
    "cct_url": "https://www.dekra-norisko.fr/centres-controle-technique/sainte-colombe-sur-seine,21400/auto-controle,s021d127",
    "cat_vehicule_id": "2",
    "cat_vehicule_libelle": "4 x 4",
    "cat_energie_id": "5",
    "cat_energie_libelle": "Electrique",
    "prix_visite": 93,
    "date_application_visite": "2020-10-12",
    "prix_contre_visite_min": 20,
    "prix_contre_visite_max": 35,
    "date_application_contre_visite": "2020-10-12",
    "cct_siret": 43780779503677,
    "latitude": 47.865402,
    "longitude": 4.550893,
    "coordgeo": {
      "lon": 4.550893,
      "lat": 47.865402
    },
    "cct_statut": "actif"
  },
  {
    "cct_code_dept": "Côte-d'Or",
    "code_postal": null,
    "cct_code_commune": "Sainte-Colombe-sur-Seine",
    "cct_denomination": "AUTO BILAN FRANCE",
    "cct_adresse": "RTE DE CHATILLON SUR SEINE",
    "cct_tel": "380913854",
    "cct_url": "https://www.dekra-norisko.fr/centres-controle-technique/sainte-colombe-sur-seine,21400/auto-controle,s021d127",
    "cat_vehicule_id": "4",
    "cat_vehicule_libelle": "Camionnette",
    "cat_energie_id": "3",
    "cat_energie_libelle": "Gaz",
    "prix_visite": 125,
    "date_application_visite": "2020-10-12",
    "prix_contre_visite_min": 20,
    "prix_contre_visite_max": 30,
    "date_application_contre_visite": "2020-10-12",
    "cct_siret": 43780779503677,
    "latitude": 47.865402,
    "longitude": 4.550893,
    "coordgeo": {
      "lon": 4.550893,
      "lat": 47.865402
    },
    "cct_statut": "actif"
  },
  {
    "cct_code_dept": "Côte-d'Or",
    "code_postal": null,
    "cct_code_commune": "Sainte-Colombe-sur-Seine",
    "cct_denomination": "AUTO BILAN FRANCE",
    "cct_adresse": "RTE DE CHATILLON SUR SEINE",
    "cct_tel": "380913854",
    "cct_url": "https://www.dekra-norisko.fr/centres-controle-technique/sainte-colombe-sur-seine,21400/auto-controle,s021d127",
    "cat_vehicule_id": "4",
    "cat_vehicule_libelle": "Camionnette",
    "cat_energie_id": "3",
    "cat_energie_libelle": "Gaz",
    "prix_visite": 125,
    "date_application_visite": "2020-10-12",
    "prix_contre_visite_min": 15,
    "prix_contre_visite_max": 30,
    "date_application_contre_visite": "2020-10-12",
    "cct_siret": 43780779503677,
    "latitude": 47.865402,
    "longitude": 4.550893,
    "coordgeo": {
      "lon": 4.550893,
      "lat": 47.865402
    },
    "cct_statut": "actif"
  },
  {
    "cct_code_dept": "Côte-d'Or",
    "code_postal": null,
    "cct_code_commune": "Sainte-Colombe-sur-Seine",
    "cct_denomination": "AUTO BILAN FRANCE",
    "cct_adresse": "RTE DE CHATILLON SUR SEINE",
    "cct_tel": "380913854",
    "cct_url": "https://www.dekra-norisko.fr/centres-controle-technique/sainte-colombe-sur-seine,21400/auto-controle,s021d127",
    "cat_vehicule_id": "5",
    "cat_vehicule_libelle": "Camping-car (moins de 3,5 tonnes)",
    "cat_energie_id": "3",
    "cat_energie_libelle": "Gaz",
    "prix_visite": 125,
    "date_application_visite": "2020-10-12",
    "prix_contre_visite_min": 20,
    "prix_contre_visite_max": 35,
    "date_application_contre_visite": "2020-10-12",
    "cct_siret": 43780779503677,
    "latitude": 47.865402,
    "longitude": 4.550893,
    "coordgeo": {
      "lon": 4.550893,
      "lat": 47.865402
    },
    "cct_statut": "actif"
  },
  {
    "cct_code_dept": "Côte-d'Or",
    "code_postal": null,
    "cct_code_commune": "Sainte-Colombe-sur-Seine",
    "cct_denomination": "AUTO BILAN FRANCE",
    "cct_adresse": "RTE DE CHATILLON SUR SEINE",
    "cct_tel": "380913854",
    "cct_url": "https://www.dekra-norisko.fr/centres-controle-technique/sainte-colombe-sur-seine,21400/auto-controle,s021d127",
    "cat_vehicule_id": "3",
    "cat_vehicule_libelle": "Voiture de collection",
    "cat_energie_id": "2",
    "cat_energie_libelle": "Diesel",
    "prix_visite": 125,
    "date_application_visite": "2020-10-12",
    "prix_contre_visite_min": 15,
    "prix_contre_visite_max": 30,
    "date_application_contre_visite": "2020-10-12",
    "cct_siret": 43780779503677,
    "latitude": 47.865402,
    "longitude": 4.550893,
    "coordgeo": {
      "lon": 4.550893,
      "lat": 47.865402
    },
    "cct_statut": "actif"
  },
  {
    "cct_code_dept": "Côte-d'Or",
    "code_postal": null,
    "cct_code_commune": "Sainte-Colombe-sur-Seine",
    "cct_denomination": "AUTO BILAN FRANCE",
    "cct_adresse": "RTE DE CHATILLON SUR SEINE",
    "cct_tel": "380913854",
    "cct_url": "https://www.dekra-norisko.fr/centres-controle-technique/sainte-colombe-sur-seine,21400/auto-controle,s021d127",
    "cat_vehicule_id": "3",
    "cat_vehicule_libelle": "Voiture de collection",
    "cat_energie_id": "3",
    "cat_energie_libelle": "Gaz",
    "prix_visite": 125,
    "date_application_visite": "2020-10-12",
    "prix_contre_visite_min": 20,
    "prix_contre_visite_max": 35,
    "date_application_contre_visite": "2020-10-12",
    "cct_siret": 43780779503677,
    "latitude": 47.865402,
    "longitude": 4.550893,
    "coordgeo": {
      "lon": 4.550893,
      "lat": 47.865402
    },
    "cct_statut": "actif"
  },
  {
    "cct_code_dept": "Côte-d'Or",
    "code_postal": null,
    "cct_code_commune": "Bretenière",
    "cct_denomination": "AUTO BILAN FRANCE",
    "cct_adresse": "13 Rue de la Plucharde ZA La Plucharde",
    "cct_tel": "380552596",
    "cct_url": "https://www.dekra-norisko.fr/centres-controle-technique/breteniere,21110/autocontrol,s021d132",
    "cat_vehicule_id": "2",
    "cat_vehicule_libelle": "4 x 4",
    "cat_energie_id": "3",
    "cat_energie_libelle": "Gaz",
    "prix_visite": 95,
    "date_application_visite": "2020-10-12",
    "prix_contre_visite_min": 20,
    "prix_contre_visite_max": 35,
    "date_application_contre_visite": "2020-10-12",
    "cct_siret": 43780779503537,
    "latitude": 47.23798,
    "longitude": 5.108563,
    "coordgeo": {
      "lon": 5.108563,
      "lat": 47.23798
    },
    "cct_statut": "actif"
  },
  {
    "cct_code_dept": "Côte-d'Or",
    "code_postal": "21210",
    "cct_code_commune": "Saulieu",
    "cct_denomination": "CONTROLE TECHNIQUE DEKLISE SAULIEU",
    "cct_adresse": "FAUBOURG DE L'AUXOIS",
    "cct_tel": "380646704",
    "cct_url": "https://www.dekra-norisko.fr/",
    "cat_vehicule_id": "1",
    "cat_vehicule_libelle": "Voiture Particulière",
    "cat_energie_id": "1",
    "cat_energie_libelle": "Essence",
    "prix_visite": 79,
    "date_application_visite": "2023-03-01",
    "prix_contre_visite_min": 10,
    "prix_contre_visite_max": 25,
    "date_application_contre_visite": "2023-03-01",
    "cct_siret": 81977102300028,
    "latitude": 47.28467,
    "longitude": 4.224156,
    "coordgeo": {
      "lon": 4.224156,
      "lat": 47.28467
    },
    "cct_statut": "actif"
  },
  {
    "cct_code_dept": "Côte-d'Or",
    "code_postal": null,
    "cct_code_commune": "Châtillon-sur-Seine",
    "cct_denomination": "AUTO BILAN FRANCE",
    "cct_adresse": "4 RUE DE LA LIBERATION",
    "cct_tel": "380915914",
    "cct_url": "https://www.dekra-norisko.fr/centres-controle-technique/chatillon-sur-seine,21400/dekra,s021d136",
    "cat_vehicule_id": "2",
    "cat_vehicule_libelle": "4 x 4",
    "cat_energie_id": "5",
    "cat_energie_libelle": "Electrique",
    "prix_visite": 93,
    "date_application_visite": "2020-10-12",
    "prix_contre_visite_min": 20,
    "prix_contre_visite_max": 30,
    "date_application_contre_visite": "2020-10-12",
    "cct_siret": 43780779503594,
    "latitude": 47.86235,
    "longitude": 4.574798,
    "coordgeo": {
      "lon": 4.574798,
      "lat": 47.86235
    },
    "cct_statut": "actif"
  },
  {
    "cct_code_dept": "Côte-d'Or",
    "code_postal": null,
    "cct_code_commune": "Châtillon-sur-Seine",
    "cct_denomination": "AUTO BILAN FRANCE",
    "cct_adresse": "4 RUE DE LA LIBERATION",
    "cct_tel": "380915914",
    "cct_url": "https://www.dekra-norisko.fr/centres-controle-technique/chatillon-sur-seine,21400/dekra,s021d136",
    "cat_vehicule_id": "2",
    "cat_vehicule_libelle": "4 x 4",
    "cat_energie_id": "3",
    "cat_energie_libelle": "Gaz",
    "prix_visite": 125,
    "date_application_visite": "2020-10-12",
    "prix_contre_visite_min": 20,
    "prix_contre_visite_max": 35,
    "date_application_contre_visite": "2020-10-12",
    "cct_siret": 43780779503594,
    "latitude": 47.86235,
    "longitude": 4.574798,
    "coordgeo": {
      "lon": 4.574798,
      "lat": 47.86235
    },
    "cct_statut": "actif"
  },
  {
    "cct_code_dept": "Côte-d'Or",
    "code_postal": null,
    "cct_code_commune": "Châtillon-sur-Seine",
    "cct_denomination": "AUTO BILAN FRANCE",
    "cct_adresse": "4 RUE DE LA LIBERATION",
    "cct_tel": "380915914",
    "cct_url": "https://www.dekra-norisko.fr/centres-controle-technique/chatillon-sur-seine,21400/dekra,s021d136",
    "cat_vehicule_id": "1",
    "cat_vehicule_libelle": "Voiture Particulière",
    "cat_energie_id": "4",
    "cat_energie_libelle": "Hybride",
    "prix_visite": 93,
    "date_application_visite": "2020-10-12",
    "prix_contre_visite_min": 15,
    "prix_contre_visite_max": 35,
    "date_application_contre_visite": "2020-10-12",
    "cct_siret": 43780779503594,
    "latitude": 47.86235,
    "longitude": 4.574798,
    "coordgeo": {
      "lon": 4.574798,
      "lat": 47.86235
    },
    "cct_statut": "actif"
  },
  {
    "cct_code_dept": "Côte-d'Or",
    "code_postal": null,
    "cct_code_commune": "Châtillon-sur-Seine",
    "cct_denomination": "AUTO BILAN FRANCE",
    "cct_adresse": "4 RUE DE LA LIBERATION",
    "cct_tel": "380915914",
    "cct_url": "https://www.dekra-norisko.fr/centres-controle-technique/chatillon-sur-seine,21400/dekra,s021d136",
    "cat_vehicule_id": "3",
    "cat_vehicule_libelle": "Voiture de collection",
    "cat_energie_id": "1",
    "cat_energie_libelle": "Essence",
    "prix_visite": 125,
    "date_application_visite": "2020-10-12",
    "prix_contre_visite_min": 15,
    "prix_contre_visite_max": 30,
    "date_application_contre_visite": "2020-10-12",
    "cct_siret": 43780779503594,
    "latitude": 47.86235,
    "longitude": 4.574798,
    "coordgeo": {
      "lon": 4.574798,
      "lat": 47.86235
    },
    "cct_statut": "actif"
  },
  {
    "cct_code_dept": "Côte-d'Or",
    "code_postal": null,
    "cct_code_commune": "Châtillon-sur-Seine",
    "cct_denomination": "AUTO BILAN FRANCE",
    "cct_adresse": "4 RUE DE LA LIBERATION",
    "cct_tel": "380915914",
    "cct_url": "https://www.dekra-norisko.fr/centres-controle-technique/chatillon-sur-seine,21400/dekra,s021d136",
    "cat_vehicule_id": "3",
    "cat_vehicule_libelle": "Voiture de collection",
    "cat_energie_id": "4",
    "cat_energie_libelle": "Hybride",
    "prix_visite": 93,
    "date_application_visite": "2020-10-12",
    "prix_contre_visite_min": 15,
    "prix_contre_visite_max": 30,
    "date_application_contre_visite": "2020-10-12",
    "cct_siret": 43780779503594,
    "latitude": 47.86235,
    "longitude": 4.574798,
    "coordgeo": {
      "lon": 4.574798,
      "lat": 47.86235
    },
    "cct_statut": "actif"
  },
  {
    "cct_code_dept": "Côte-d'Or",
    "code_postal": null,
    "cct_code_commune": "Châtillon-sur-Seine",
    "cct_denomination": "AUTO BILAN FRANCE",
    "cct_adresse": "4 RUE DE LA LIBERATION",
    "cct_tel": "380915914",
    "cct_url": "https://www.dekra-norisko.fr/centres-controle-technique/chatillon-sur-seine,21400/dekra,s021d136",
    "cat_vehicule_id": "3",
    "cat_vehicule_libelle": "Voiture de collection",
    "cat_energie_id": "4",
    "cat_energie_libelle": "Hybride",
    "prix_visite": 93,
    "date_application_visite": "2020-10-12",
    "prix_contre_visite_min": 15,
    "prix_contre_visite_max": 35,
    "date_application_contre_visite": "2020-10-12",
    "cct_siret": 43780779503594,
    "latitude": 47.86235,
    "longitude": 4.574798,
    "coordgeo": {
      "lon": 4.574798,
      "lat": 47.86235
    },
    "cct_statut": "actif"
  },
  {
    "cct_code_dept": "Côte-d'Or",
    "code_postal": null,
    "cct_code_commune": "Fain-lès-Montbard",
    "cct_denomination": "CT CMAJ",
    "cct_adresse": "3 RUE DES MARTINETS",
    "cct_tel": "380960476",
    "cct_url": null,
    "cat_vehicule_id": "2",
    "cat_vehicule_libelle": "4 x 4",
    "cat_energie_id": "1",
    "cat_energie_libelle": "Essence",
    "prix_visite": 85,
    "date_application_visite": "2022-01-03",
    "prix_contre_visite_min": 20,
    "prix_contre_visite_max": 35,
    "date_application_contre_visite": "2022-01-03",
    "cct_siret": 84299521900016,
    "latitude": 47.611247,
    "longitude": 4.393942,
    "coordgeo": {
      "lon": 4.393942,
      "lat": 47.611247
    },
    "cct_statut": "actif"
  },
  {
    "cct_code_dept": "Côte-d'Or",
    "code_postal": null,
    "cct_code_commune": "Fain-lès-Montbard",
    "cct_denomination": "CT CMAJ",
    "cct_adresse": "3 RUE DES MARTINETS",
    "cct_tel": "380960476",
    "cct_url": null,
    "cat_vehicule_id": "4",
    "cat_vehicule_libelle": "Camionnette",
    "cat_energie_id": "5",
    "cat_energie_libelle": "Electrique",
    "prix_visite": 93,
    "date_application_visite": "2020-09-23",
    "prix_contre_visite_min": 16,
    "prix_contre_visite_max": 35,
    "date_application_contre_visite": "2020-09-23",
    "cct_siret": 84299521900016,
    "latitude": 47.611247,
    "longitude": 4.393942,
    "coordgeo": {
      "lon": 4.393942,
      "lat": 47.611247
    },
    "cct_statut": "actif"
  },
  {
    "cct_code_dept": "Côte-d'Or",
    "code_postal": null,
    "cct_code_commune": "Fain-lès-Montbard",
    "cct_denomination": "CT CMAJ",
    "cct_adresse": "3 RUE DES MARTINETS",
    "cct_tel": "380960476",
    "cct_url": null,
    "cat_vehicule_id": "5",
    "cat_vehicule_libelle": "Camping-car (moins de 3,5 tonnes)",
    "cat_energie_id": "5",
    "cat_energie_libelle": "Electrique",
    "prix_visite": 93,
    "date_application_visite": "2020-09-23",
    "prix_contre_visite_min": 16,
    "prix_contre_visite_max": 35,
    "date_application_contre_visite": "2020-09-23",
    "cct_siret": 84299521900016,
    "latitude": 47.611247,
    "longitude": 4.393942,
    "coordgeo": {
      "lon": 4.393942,
      "lat": 47.611247
    },
    "cct_statut": "actif"
  },
  {
    "cct_code_dept": "Côte-d'Or",
    "code_postal": null,
    "cct_code_commune": "Fain-lès-Montbard",
    "cct_denomination": "CT CMAJ",
    "cct_adresse": "3 RUE DES MARTINETS",
    "cct_tel": "380960476",
    "cct_url": null,
    "cat_vehicule_id": "1",
    "cat_vehicule_libelle": "Voiture Particulière",
    "cat_energie_id": "5",
    "cat_energie_libelle": "Electrique",
    "prix_visite": 95,
    "date_application_visite": "2022-01-03",
    "prix_contre_visite_min": 20,
    "prix_contre_visite_max": 35,
    "date_application_contre_visite": "2022-01-03",
    "cct_siret": 84299521900016,
    "latitude": 47.611247,
    "longitude": 4.393942,
    "coordgeo": {
      "lon": 4.393942,
      "lat": 47.611247
    },
    "cct_statut": "actif"
  },
  {
    "cct_code_dept": "Côte-d'Or",
    "code_postal": null,
    "cct_code_commune": "Fain-lès-Montbard",
    "cct_denomination": "CT CMAJ",
    "cct_adresse": "3 RUE DES MARTINETS",
    "cct_tel": "380960476",
    "cct_url": null,
    "cat_vehicule_id": "1",
    "cat_vehicule_libelle": "Voiture Particulière",
    "cat_energie_id": "1",
    "cat_energie_libelle": "Essence",
    "prix_visite": 83,
    "date_application_visite": "2020-09-23",
    "prix_contre_visite_min": 16,
    "prix_contre_visite_max": 35,
    "date_application_contre_visite": "2020-09-23",
    "cct_siret": 84299521900016,
    "latitude": 47.611247,
    "longitude": 4.393942,
    "coordgeo": {
      "lon": 4.393942,
      "lat": 47.611247
    },
    "cct_statut": "actif"
  },
  {
    "cct_code_dept": "Côte-d'Or",
    "code_postal": null,
    "cct_code_commune": "Fain-lès-Montbard",
    "cct_denomination": "CT CMAJ",
    "cct_adresse": "3 RUE DES MARTINETS",
    "cct_tel": "380960476",
    "cct_url": null,
    "cat_vehicule_id": "3",
    "cat_vehicule_libelle": "Voiture de collection",
    "cat_energie_id": "5",
    "cat_energie_libelle": "Electrique",
    "prix_visite": 95,
    "date_application_visite": "2022-01-03",
    "prix_contre_visite_min": 20,
    "prix_contre_visite_max": 35,
    "date_application_contre_visite": "2022-01-03",
    "cct_siret": 84299521900016,
    "latitude": 47.611247,
    "longitude": 4.393942,
    "coordgeo": {
      "lon": 4.393942,
      "lat": 47.611247
    },
    "cct_statut": "actif"
  },
  {
    "cct_code_dept": "Côte-d'Or",
    "code_postal": "21200",
    "cct_code_commune": "Beaune",
    "cct_denomination": "BEAUNE AUTO CONTROLE",
    "cct_adresse": "47 RTE DE SEURRE",
    "cct_tel": "380240455",
    "cct_url": null,
    "cat_vehicule_id": "3",
    "cat_vehicule_libelle": "Voiture de collection",
    "cat_energie_id": "3",
    "cat_energie_libelle": "Gaz",
    "prix_visite": 99,
    "date_application_visite": "2020-09-05",
    "prix_contre_visite_min": 20,
    "prix_contre_visite_max": 30,
    "date_application_contre_visite": "2020-09-05",
    "cct_siret": 38946905700019,
    "latitude": 47.02003,
    "longitude": 4.854429,
    "coordgeo": {
      "lon": 4.854429,
      "lat": 47.02003
    },
    "cct_statut": "actif"
  },
  {
    "cct_code_dept": "Côte-d'Or",
    "code_postal": "21000",
    "cct_code_commune": "Dijon",
    "cct_denomination": "CENTRE AUTO BILAN MONTREUIL",
    "cct_adresse": "6 RUE GUIBAUDET",
    "cct_tel": "380664605",
    "cct_url": "controle-technique-dijon.com",
    "cat_vehicule_id": "1",
    "cat_vehicule_libelle": "Voiture Particulière",
    "cat_energie_id": "2",
    "cat_energie_libelle": "Diesel",
    "prix_visite": 78,
    "date_application_visite": "2021-01-21",
    "prix_contre_visite_min": 10,
    "prix_contre_visite_max": 15,
    "date_application_contre_visite": "2021-01-21",
    "cct_siret": 32838567900241,
    "latitude": 47.310786,
    "longitude": 5.053929,
    "coordgeo": {
      "lon": 5.053929,
      "lat": 47.310786
    },
    "cct_statut": "actif"
  },
  {
    "cct_code_dept": "Côte-d'Or",
    "code_postal": null,
    "cct_code_commune": "Chenôve",
    "cct_denomination": "AUTO BILAN ADDOU CHENOVE",
    "cct_adresse": "58 AV ROLAND CARRAZ",
    "cct_tel": "380529762",
    "cct_url": null,
    "cat_vehicule_id": "2",
    "cat_vehicule_libelle": "4 x 4",
    "cat_energie_id": "1",
    "cat_energie_libelle": "Essence",
    "prix_visite": 79,
    "date_application_visite": "2020-12-09",
    "prix_contre_visite_min": 28,
    "prix_contre_visite_max": 28,
    "date_application_contre_visite": "2020-12-09",
    "cct_siret": 45319641200010,
    "latitude": 47.294046,
    "longitude": 5.016631,
    "coordgeo": {
      "lon": 5.016631,
      "lat": 47.294046
    },
    "cct_statut": "actif"
  },
  {
    "cct_code_dept": "Côte-d'Or",
    "code_postal": null,
    "cct_code_commune": "Chenôve",
    "cct_denomination": "AUTO BILAN ADDOU CHENOVE",
    "cct_adresse": "58 AV ROLAND CARRAZ",
    "cct_tel": "380529762",
    "cct_url": null,
    "cat_vehicule_id": "1",
    "cat_vehicule_libelle": "Voiture Particulière",
    "cat_energie_id": "1",
    "cat_energie_libelle": "Essence",
    "prix_visite": 79,
    "date_application_visite": "2020-12-09",
    "prix_contre_visite_min": 20,
    "prix_contre_visite_max": 60,
    "date_application_contre_visite": "2020-12-09",
    "cct_siret": 45319641200010,
    "latitude": 47.294046,
    "longitude": 5.016631,
    "coordgeo": {
      "lon": 5.016631,
      "lat": 47.294046
    },
    "cct_statut": "actif"
  },
  {
    "cct_code_dept": "Côte-d'Or",
    "code_postal": "21600",
    "cct_code_commune": "Longvic",
    "cct_denomination": "AM CONTROLE TECHNIQUE",
    "cct_adresse": "RUE PIERRE LAUTERBACH",
    "cct_tel": "380383667",
    "cct_url": null,
    "cat_vehicule_id": "4",
    "cat_vehicule_libelle": "Camionnette",
    "cat_energie_id": "5",
    "cat_energie_libelle": "Electrique",
    "prix_visite": 82,
    "date_application_visite": "2020-09-02",
    "prix_contre_visite_min": 16,
    "prix_contre_visite_max": 26,
    "date_application_contre_visite": "2020-09-02",
    "cct_siret": 52273181900010,
    "latitude": 47.284525,
    "longitude": 5.045583,
    "coordgeo": {
      "lon": 5.045583,
      "lat": 47.284525
    },
    "cct_statut": "actif"
  },
  {
    "cct_code_dept": "Côte-d'Or",
    "code_postal": "21600",
    "cct_code_commune": "Longvic",
    "cct_denomination": "AM CONTROLE TECHNIQUE",
    "cct_adresse": "RUE PIERRE LAUTERBACH",
    "cct_tel": "380383667",
    "cct_url": null,
    "cat_vehicule_id": "5",
    "cat_vehicule_libelle": "Camping-car (moins de 3,5 tonnes)",
    "cat_energie_id": "2",
    "cat_energie_libelle": "Diesel",
    "prix_visite": 86.21,
    "date_application_visite": "2020-09-02",
    "prix_contre_visite_min": 5,
    "prix_contre_visite_max": 27.21,
    "date_application_contre_visite": "2020-09-02",
    "cct_siret": 52273181900010,
    "latitude": 47.284525,
    "longitude": 5.045583,
    "coordgeo": {
      "lon": 5.045583,
      "lat": 47.284525
    },
    "cct_statut": "actif"
  },
  {
    "cct_code_dept": "Côte-d'Or",
    "code_postal": "21600",
    "cct_code_commune": "Longvic",
    "cct_denomination": "AM CONTROLE TECHNIQUE",
    "cct_adresse": "RUE PIERRE LAUTERBACH",
    "cct_tel": "380383667",
    "cct_url": null,
    "cat_vehicule_id": "1",
    "cat_vehicule_libelle": "Voiture Particulière",
    "cat_energie_id": "4",
    "cat_energie_libelle": "Hybride",
    "prix_visite": 83.21,
    "date_application_visite": "2020-09-02",
    "prix_contre_visite_min": 16,
    "prix_contre_visite_max": 27.21,
    "date_application_contre_visite": "2020-09-02",
    "cct_siret": 52273181900010,
    "latitude": 47.284525,
    "longitude": 5.045583,
    "coordgeo": {
      "lon": 5.045583,
      "lat": 47.284525
    },
    "cct_statut": "actif"
  },
  {
    "cct_code_dept": "Côte-d'Or",
    "code_postal": null,
    "cct_code_commune": "Semur-en-Auxois",
    "cct_denomination": "CONTROLE TECHNIQUE AUXOIS - MORVAN",
    "cct_adresse": "RUE DE L OEUVRE",
    "cct_tel": "380974977",
    "cct_url": "380974977",
    "cat_vehicule_id": "2",
    "cat_vehicule_libelle": "4 x 4",
    "cat_energie_id": "3",
    "cat_energie_libelle": "Gaz",
    "prix_visite": 115,
    "date_application_visite": "2020-09-07",
    "prix_contre_visite_min": 15,
    "prix_contre_visite_max": 25,
    "date_application_contre_visite": "2020-09-07",
    "cct_siret": 38470827700031,
    "latitude": 47.489163,
    "longitude": 4.352506,
    "coordgeo": {
      "lon": 4.352506,
      "lat": 47.489163
    },
    "cct_statut": "actif"
  },
  {
    "cct_code_dept": "Côte-d'Or",
    "code_postal": "58700",
    "cct_code_commune": "Nolay",
    "cct_denomination": "PRECIS AUTO CONTROLE",
    "cct_adresse": "27 rue marceau petit",
    "cct_tel": null,
    "cct_url": null,
    "cat_vehicule_id": "5",
    "cat_vehicule_libelle": "Camping-car (moins de 3,5 tonnes)",
    "cat_energie_id": "4",
    "cat_energie_libelle": "Hybride",
    "prix_visite": 89,
    "date_application_visite": "2020-09-11",
    "prix_contre_visite_min": 15,
    "prix_contre_visite_max": 25,
    "date_application_contre_visite": "2020-09-11",
    "cct_siret": 34098258600026,
    "latitude": 46.950209,
    "longitude": 4.62541,
    "coordgeo": {
      "lon": 4.62541,
      "lat": 46.950209
    },
    "cct_statut": "actif"
  },
  {
    "cct_code_dept": "Côte-d'Or",
    "code_postal": "21340",
    "cct_code_commune": "Nolay",
    "cct_denomination": "PRECIS AUTO CONTROLE",
    "cct_adresse": "27 rue marceau petit",
    "cct_tel": null,
    "cct_url": null,
    "cat_vehicule_id": "5",
    "cat_vehicule_libelle": "Camping-car (moins de 3,5 tonnes)",
    "cat_energie_id": "4",
    "cat_energie_libelle": "Hybride",
    "prix_visite": 91,
    "date_application_visite": "2020-09-11",
    "prix_contre_visite_min": 15,
    "prix_contre_visite_max": 25,
    "date_application_contre_visite": "2020-09-11",
    "cct_siret": 34098258600026,
    "latitude": 46.950209,
    "longitude": 4.62541,
    "coordgeo": {
      "lon": 4.62541,
      "lat": 46.950209
    },
    "cct_statut": "actif"
  },
  {
    "cct_code_dept": "Côte-d'Or",
    "code_postal": "21110",
    "cct_code_commune": "Aiserey",
    "cct_denomination": "GIBOULOT",
    "cct_adresse": "31 RUE MARIN LEJEAS",
    "cct_tel": "621332653",
    "cct_url": null,
    "cat_vehicule_id": "2",
    "cat_vehicule_libelle": "4 x 4",
    "cat_energie_id": "2",
    "cat_energie_libelle": "Diesel",
    "prix_visite": 90,
    "date_application_visite": "2022-07-08",
    "prix_contre_visite_min": 10,
    "prix_contre_visite_max": 35,
    "date_application_contre_visite": "2022-07-08",
    "cct_siret": 53771301800019,
    "latitude": 47.181004,
    "longitude": 5.158728,
    "coordgeo": {
      "lon": 5.158728,
      "lat": 47.181004
    },
    "cct_statut": "actif"
  },
  {
    "cct_code_dept": "Côte-d'Or",
    "code_postal": "21110",
    "cct_code_commune": "Aiserey",
    "cct_denomination": "GIBOULOT",
    "cct_adresse": "31 RUE MARIN LEJEAS",
    "cct_tel": "621332653",
    "cct_url": null,
    "cat_vehicule_id": "2",
    "cat_vehicule_libelle": "4 x 4",
    "cat_energie_id": "4",
    "cat_energie_libelle": "Hybride",
    "prix_visite": 90,
    "date_application_visite": "2022-07-08",
    "prix_contre_visite_min": 10,
    "prix_contre_visite_max": 35,
    "date_application_contre_visite": "2022-07-08",
    "cct_siret": 53771301800019,
    "latitude": 47.181004,
    "longitude": 5.158728,
    "coordgeo": {
      "lon": 5.158728,
      "lat": 47.181004
    },
    "cct_statut": "actif"
  },
  {
    "cct_code_dept": "Côte-d'Or",
    "code_postal": null,
    "cct_code_commune": "Chenôve",
    "cct_denomination": "CONTROLE TECHNIQUE DES GRANDS CRUS",
    "cct_adresse": "141 AV ROLAND CARRAZ",
    "cct_tel": "380510600",
    "cct_url": null,
    "cat_vehicule_id": "4",
    "cat_vehicule_libelle": "Camionnette",
    "cat_energie_id": "3",
    "cat_energie_libelle": "Gaz",
    "prix_visite": 99,
    "date_application_visite": "2020-09-08",
    "prix_contre_visite_min": 25,
    "prix_contre_visite_max": 25,
    "date_application_contre_visite": "2020-09-08",
    "cct_siret": 75117128100015,
    "latitude": 47.289443,
    "longitude": 5.013835,
    "coordgeo": {
      "lon": 5.013835,
      "lat": 47.289443
    },
    "cct_statut": "actif"
  },