[
  {
    "cct_code_dept": "Deux-Sèvres",
    "code_postal": "79100",
    "cct_code_commune": "Thouars",
    "cct_denomination": "VEILLON CONTROLE TECHNIQUE THOUARSAIS",
    "cct_adresse": "37 RTE DE PUYRAVEAU",
    "cct_tel": "549673274",
    "cct_url": "www.ct-thouars.fr",
    "cat_vehicule_id": "1",
    "cat_vehicule_libelle": "Voiture Particulière",
    "cat_energie_id": "1",
    "cat_energie_libelle": "Essence",
    "prix_visite": 78,
    "date_application_visite": "2020-09-16",
    "prix_contre_visite_min": 15,
    "prix_contre_visite_max": 45,
    "date_application_contre_visite": "2020-09-16",
    "cct_siret": 88260878900013,
    "latitude": 46.979349,
    "longitude": -0.198447,
    "coordgeo": {
      "lon": -0.198447,
      "lat": 46.979349
    },
    "cct_statut": "actif"
  },
  {
    "cct_code_dept": "Deux-Sèvres",
    "code_postal": "79100",
    "cct_code_commune": "Thouars",
    "cct_denomination": "VEILLON CONTROLE TECHNIQUE THOUARSAIS",
    "cct_adresse": "37 RTE DE PUYRAVEAU",
    "cct_tel": "549673274",
    "cct_url": "www.ct-thouars.fr",
    "cat_vehicule_id": "3",
    "cat_vehicule_libelle": "Voiture de collection",
    "cat_energie_id": "2",
    "cat_energie_libelle": "Diesel",
    "prix_visite": 78,
    "date_application_visite": "2020-09-16",
    "prix_contre_visite_min": 15,
    "prix_contre_visite_max": 45,
    "date_application_contre_visite": "2020-09-16",
    "cct_siret": 88260878900013,
    "latitude": 46.979349,
    "longitude": -0.198447,
    "coordgeo": {
      "lon": -0.198447,
      "lat": 46.979349
    },
    "cct_statut": "actif"
  },
  {
    "cct_code_dept": "Deux-Sèvres",
    "code_postal": "79000",
    "cct_code_commune": "Niort",
    "cct_denomination": "AUTOMOBILE CLUB DES DEUX SEVRES-CONTROLE TECHNIQUE",
    "cct_adresse": "49 AV DE LA ROCHELLE",
    "cct_tel": "549060707",
    "cct_url": null,
    "cat_vehicule_id": "5",
    "cat_vehicule_libelle": "Camping-car (moins de 3,5 tonnes)",
    "cat_energie_id": "4",
    "cat_energie_libelle": "Hybride",
    "prix_visite": 76,
    "date_application_visite": "2020-08-31",
    "prix_contre_visite_min": 5,
    "prix_contre_visite_max": 20,
    "date_application_contre_visite": "2020-08-31",
    "cct_siret": 80925710800013,
    "latitude": 46.319651,
    "longitude": -0.468002,
    "coordgeo": {
      "lon": -0.468002,
      "lat": 46.319651
    },
    "cct_statut": "actif"
  },
  {
    "cct_code_dept": "Deux-Sèvres",
    "code_postal": "79100",
    "cct_code_commune": "Thouars",
    "cct_denomination": "AUTOMOBILE CLUB DES DEUX SEVRES-CONTROLE TECHNIQUE",
    "cct_adresse": "16 RUE DU GRAND ROSE",
    "cct_tel": "549662389",
    "cct_url": null,
    "cat_vehicule_id": "4",
    "cat_vehicule_libelle": "Camionnette",
    "cat_energie_id": "1",
    "cat_energie_libelle": "Essence",
    "prix_visite": 78,
    "date_application_visite": "2020-09-01",
    "prix_contre_visite_min": 5,
    "prix_contre_visite_max": 20,
    "date_application_contre_visite": "2020-09-01",
    "cct_siret": 80925710800054,
    "latitude": 46.999168,
    "longitude": -0.197838,
    "coordgeo": {
      "lon": -0.197838,
      "lat": 46.999168
    },
    "cct_statut": "actif"
  },
  {
    "cct_code_dept": "Deux-Sèvres",
    "code_postal": null,
    "cct_code_commune": "Mauléon",
    "cct_denomination": "SARL C.T.A",
    "cct_adresse": "38 RUE DE POITIERS",
    "cct_tel": null,
    "cct_url": null,
    "cat_vehicule_id": "2",
    "cat_vehicule_libelle": "4 x 4",
    "cat_energie_id": "2",
    "cat_energie_libelle": "Diesel",
    "prix_visite": 82,
    "date_application_visite": "2023-01-01",
    "prix_contre_visite_min": 20,
    "prix_contre_visite_max": 20,
    "date_application_contre_visite": "2020-10-02",
    "cct_siret": 41409085200180,
    "latitude": 46.921298,
    "longitude": -0.737032,
    "coordgeo": {
      "lon": -0.737032,
      "lat": 46.921298
    },
    "cct_statut": "actif"
  },
  {
    "cct_code_dept": "Deux-Sèvres",
    "code_postal": null,
    "cct_code_commune": "Mauléon",
    "cct_denomination": "SARL C.T.A",
    "cct_adresse": "38 RUE DE POITIERS",
    "cct_tel": null,
    "cct_url": null,
    "cat_vehicule_id": "1",
    "cat_vehicule_libelle": "Voiture Particulière",
    "cat_energie_id": "1",
    "cat_energie_libelle": "Essence",
    "prix_visite": 82,
    "date_application_visite": "2023-01-13",
    "prix_contre_visite_min": 20,
    "prix_contre_visite_max": 20,
    "date_application_contre_visite": "2020-10-02",
    "cct_siret": 41409085200180,
    "latitude": 46.921298,
    "longitude": -0.737032,
    "coordgeo": {
      "lon": -0.737032,
      "lat": 46.921298
    },
    "cct_statut": "actif"
  },
  {
    "cct_code_dept": "Deux-Sèvres",
    "code_postal": "79000",
    "cct_code_commune": "Niort",
    "cct_denomination": "SARL AUTO CONTROLE NIORTAIS",
    "cct_adresse": "76 AV DE NANTES",
    "cct_tel": "549172434",
    "cct_url": null,
    "cat_vehicule_id": "2",
    "cat_vehicule_libelle": "4 x 4",
    "cat_energie_id": "4",
    "cat_energie_libelle": "Hybride",
    "prix_visite": 78,
    "date_application_visite": "2020-11-05",
    "prix_contre_visite_min": 0,
    "prix_contre_visite_max": 35,
    "date_application_contre_visite": "2020-11-05",
    "cct_siret": 38787032200063,
    "latitude": 46.338427,
    "longitude": -0.481737,
    "coordgeo": {
      "lon": -0.481737,
      "lat": 46.338427
    },
    "cct_statut": "actif"
  },
  {
    "cct_code_dept": "Deux-Sèvres",
    "code_postal": "79000",
    "cct_code_commune": "Niort",
    "cct_denomination": "SARL AUTO CONTROLE NIORTAIS",
    "cct_adresse": "76 AV DE NANTES",
    "cct_tel": "549172434",
    "cct_url": null,
    "cat_vehicule_id": "1",
    "cat_vehicule_libelle": "Voiture Particulière",
    "cat_energie_id": "4",
    "cat_energie_libelle": "Hybride",
    "prix_visite": 75,
    "date_application_visite": "2020-11-05",
    "prix_contre_visite_min": 0,
    "prix_contre_visite_max": 35,
    "date_application_contre_visite": "2020-11-05",
    "cct_siret": 38787032200063,
    "latitude": 46.338427,
    "longitude": -0.481737,
    "coordgeo": {
      "lon": -0.481737,
      "lat": 46.338427
    },
    "cct_statut": "actif"
  },
  {
    "cct_code_dept": "Deux-Sèvres",
    "code_postal": null,
    "cct_code_commune": "Beauvoir-sur-Niort",
    "cct_denomination": "SARL CT",
    "cct_adresse": "35 RUE DES CHENES VERTS",
    "cct_tel": "549096926",
    "cct_url": null,
    "cat_vehicule_id": "3",
    "cat_vehicule_libelle": "Voiture de collection",
    "cat_energie_id": "5",
    "cat_energie_libelle": "Electrique",
    "prix_visite": 72,
    "date_application_visite": "2020-09-10",
    "prix_contre_visite_min": 0,
    "prix_contre_visite_max": 25,
    "date_application_contre_visite": "2020-09-10",
    "cct_siret": 82293760300014,
    "latitude": 46.186746,
    "longitude": -0.472577,
    "coordgeo": {
      "lon": -0.472577,
      "lat": 46.186746
    },
    "cct_statut": "actif"
  },
  {
    "cct_code_dept": "Deux-Sèvres",
    "code_postal": null,
    "cct_code_commune": "Prin-Deyrançon",
    "cct_denomination": "SARL CT",
    "cct_adresse": "11 RUE DES ENTREPRISES",
    "cct_tel": "549797260",
    "cct_url": null,
    "cat_vehicule_id": "1",
    "cat_vehicule_libelle": "Voiture Particulière",
    "cat_energie_id": "4",
    "cat_energie_libelle": "Hybride",
    "prix_visite": 70,
    "date_application_visite": "2020-09-11",
    "prix_contre_visite_min": 0,
    "prix_contre_visite_max": 25,
    "date_application_contre_visite": "2020-09-11",
    "cct_siret": 82293760300022,
    "latitude": 46.222071,
    "longitude": -0.638833,
    "coordgeo": {
      "lon": -0.638833,
      "lat": 46.222071
    },
    "cct_statut": "actif"
  },
  {
    "cct_code_dept": "Deux-Sèvres",
    "code_postal": "79140",
    "cct_code_commune": "Cerizay",
    "cct_denomination": "SARL C.T.A",
    "cct_adresse": "RUE DE LA GOURRE D OR",
    "cct_tel": null,
    "cct_url": null,
    "cat_vehicule_id": "3",
    "cat_vehicule_libelle": "Voiture de collection",
    "cat_energie_id": "4",
    "cat_energie_libelle": "Hybride",
    "prix_visite": 79,
    "date_application_visite": "2020-10-02",
    "prix_contre_visite_min": 20,
    "prix_contre_visite_max": 20,
    "date_application_contre_visite": "2020-10-02",
    "cct_siret": 41409085200073,
    "latitude": 46.817124,
    "longitude": -0.66671,
    "coordgeo": {
      "lon": -0.66671,
      "lat": 46.817124
    },
    "cct_statut": "actif"
  },
  {
    "cct_code_dept": "Deux-Sèvres",
    "code_postal": "79230",
    "cct_code_commune": "Prahecq",
    "cct_denomination": "AUTO CONTROLE PRAHECQUOIS",
    "cct_adresse": "82 RUE MARIE CURIE",
    "cct_tel": "549798386",
    "cct_url": "https://ct.rdv-online.fr/497-Prahecq/rendez-vous",
    "cat_vehicule_id": "2",
    "cat_vehicule_libelle": "4 x 4",
    "cat_energie_id": "5",
    "cat_energie_libelle": "Electrique",
    "prix_visite": 78,
    "date_application_visite": "2022-01-04",
    "prix_contre_visite_min": 10,
    "prix_contre_visite_max": 15,
    "date_application_contre_visite": "2022-01-03",
    "cct_siret": 49354841600012,
    "latitude": 46.266691,
    "longitude": -0.368811,
    "coordgeo": {
      "lon": -0.368811,
      "lat": 46.266691
    },
    "cct_statut": "actif"
  },
  {
    "cct_code_dept": "Deux-Sèvres",
    "code_postal": "79230",
    "cct_code_commune": "Prahecq",
    "cct_denomination": "AUTO CONTROLE PRAHECQUOIS",
    "cct_adresse": "82 RUE MARIE CURIE",
    "cct_tel": "549798386",
    "cct_url": "https://ct.rdv-online.fr/497-Prahecq/rendez-vous",
    "cat_vehicule_id": "2",
    "cat_vehicule_libelle": "4 x 4",
    "cat_energie_id": "1",
    "cat_energie_libelle": "Essence",
    "prix_visite": 70,
    "date_application_visite": "2020-09-03",
    "prix_contre_visite_min": 10,
    "prix_contre_visite_max": 25,
    "date_application_contre_visite": "2020-09-03",
    "cct_siret": 49354841600012,
    "latitude": 46.266691,
    "longitude": -0.368811,
    "coordgeo": {
      "lon": -0.368811,
      "lat": 46.266691
    },
    "cct_statut": "actif"
  },
  {
    "cct_code_dept": "Deux-Sèvres",
    "code_postal": "79230",
    "cct_code_commune": "Prahecq",
    "cct_denomination": "AUTO CONTROLE PRAHECQUOIS",
    "cct_adresse": "82 RUE MARIE CURIE",
    "cct_tel": "549798386",
    "cct_url": "https://ct.rdv-online.fr/497-Prahecq/rendez-vous",
    "cat_vehicule_id": "4",
    "cat_vehicule_libelle": "Camionnette",
    "cat_energie_id": "1",
    "cat_energie_libelle": "Essence",
    "prix_visite": 71,
    "date_application_visite": "2022-01-03",
    "prix_contre_visite_min": 10,
    "prix_contre_visite_max": 15,
    "date_application_contre_visite": "2020-09-03",
    "cct_siret": 49354841600012,
    "latitude": 46.266691,
    "longitude": -0.368811,
    "coordgeo": {
      "lon": -0.368811,
      "lat": 46.266691
    },
    "cct_statut": "actif"
  },
  {
    "cct_code_dept": "Deux-Sèvres",
    "code_postal": "79230",
    "cct_code_commune": "Prahecq",
    "cct_denomination": "AUTO CONTROLE PRAHECQUOIS",
    "cct_adresse": "82 RUE MARIE CURIE",
    "cct_tel": "549798386",
    "cct_url": "https://ct.rdv-online.fr/497-Prahecq/rendez-vous",
    "cat_vehicule_id": "5",
    "cat_vehicule_libelle": "Camping-car (moins de 3,5 tonnes)",
    "cat_energie_id": "1",
    "cat_energie_libelle": "Essence",
    "prix_visite": 71,
    "date_application_visite": "2022-01-01",
    "prix_contre_visite_min": 10,
    "prix_contre_visite_max": 15,
    "date_application_contre_visite": "2020-09-03",
    "cct_siret": 49354841600012,
    "latitude": 46.266691,
    "longitude": -0.368811,
    "coordgeo": {
      "lon": -0.368811,
      "lat": 46.266691
    },
    "cct_statut": "actif"
  },
  {
    "cct_code_dept": "Deux-Sèvres",
    "code_postal": "79230",
    "cct_code_commune": "Prahecq",
    "cct_denomination": "AUTO CONTROLE PRAHECQUOIS",
    "cct_adresse": "82 RUE MARIE CURIE",
    "cct_tel": "549798386",
    "cct_url": "https://ct.rdv-online.fr/497-Prahecq/rendez-vous",
    "cat_vehicule_id": "5",
    "cat_vehicule_libelle": "Camping-car (moins de 3,5 tonnes)",
    "cat_energie_id": "3",
    "cat_energie_libelle": "Gaz",
    "prix_visite": 78,
    "date_application_visite": "2022-01-03",
    "prix_contre_visite_min": 10,
    "prix_contre_visite_max": 15,
    "date_application_contre_visite": "2020-09-03",
    "cct_siret": 49354841600012,
    "latitude": 46.266691,
    "longitude": -0.368811,
    "coordgeo": {
      "lon": -0.368811,
      "lat": 46.266691
    },
    "cct_statut": "actif"
  },
  {
    "cct_code_dept": "Deux-Sèvres",
    "code_postal": "79230",
    "cct_code_commune": "Prahecq",
    "cct_denomination": "AUTO CONTROLE PRAHECQUOIS",
    "cct_adresse": "82 RUE MARIE CURIE",
    "cct_tel": "549798386",
    "cct_url": "https://ct.rdv-online.fr/497-Prahecq/rendez-vous",
    "cat_vehicule_id": "5",
    "cat_vehicule_libelle": "Camping-car (moins de 3,5 tonnes)",
    "cat_energie_id": "3",
    "cat_energie_libelle": "Gaz",
    "prix_visite": 80,
    "date_application_visite": "2020-09-03",
    "prix_contre_visite_min": 10,
    "prix_contre_visite_max": 15,
    "date_application_contre_visite": "2020-09-03",
    "cct_siret": 49354841600012,
    "latitude": 46.266691,
    "longitude": -0.368811,
    "coordgeo": {
      "lon": -0.368811,
      "lat": 46.266691
    },
    "cct_statut": "actif"
  },
  {
    "cct_code_dept": "Deux-Sèvres",
    "code_postal": "79230",
    "cct_code_commune": "Prahecq",
    "cct_denomination": "AUTO CONTROLE PRAHECQUOIS",
    "cct_adresse": "82 RUE MARIE CURIE",
    "cct_tel": "549798386",
    "cct_url": "https://ct.rdv-online.fr/497-Prahecq/rendez-vous",
    "cat_vehicule_id": "3",
    "cat_vehicule_libelle": "Voiture de collection",
    "cat_energie_id": "4",
    "cat_energie_libelle": "Hybride",
    "prix_visite": 80,
    "date_application_visite": "2022-01-03",
    "prix_contre_visite_min": 10,
    "prix_contre_visite_max": 15,
    "date_application_contre_visite": "2020-09-03",
    "cct_siret": 49354841600012,
    "latitude": 46.266691,
    "longitude": -0.368811,
    "coordgeo": {
      "lon": -0.368811,
      "lat": 46.266691
    },
    "cct_statut": "actif"
  },
  {
    "cct_code_dept": "Deux-Sèvres",
    "code_postal": null,
    "cct_code_commune": "Saint-Varent",
    "cct_denomination": "CONTROLE TECHNIQUE ST-VARENTAIS",
    "cct_adresse": "2 RUE DU SEILLEREAU",
    "cct_tel": "549667893",
    "cct_url": null,
    "cat_vehicule_id": "4",
    "cat_vehicule_libelle": "Camionnette",
    "cat_energie_id": "3",
    "cat_energie_libelle": "Gaz",
    "prix_visite": 135,
    "date_application_visite": "2020-09-08",
    "prix_contre_visite_min": 0,
    "prix_contre_visite_max": 35,
    "date_application_contre_visite": "2020-09-08",
    "cct_siret": 50035373500011,
    "latitude": 46.899237,
    "longitude": -0.234521,
    "coordgeo": {
      "lon": -0.234521,
      "lat": 46.899237
    },
    "cct_statut": "actif"
  },
  {
    "cct_code_dept": "Deux-Sèvres",
    "code_postal": null,
    "cct_code_commune": "Saint-Varent",
    "cct_denomination": "CONTROLE TECHNIQUE ST-VARENTAIS",
    "cct_adresse": "2 RUE DU SEILLEREAU",
    "cct_tel": "549667893",
    "cct_url": null,
    "cat_vehicule_id": "4",
    "cat_vehicule_libelle": "Camionnette",
    "cat_energie_id": "4",
    "cat_energie_libelle": "Hybride",
    "prix_visite": 100,
    "date_application_visite": "2020-09-08",
    "prix_contre_visite_min": 0,
    "prix_contre_visite_max": 35,
    "date_application_contre_visite": "2020-09-08",
    "cct_siret": 50035373500011,
    "latitude": 46.899237,
    "longitude": -0.234521,
    "coordgeo": {
      "lon": -0.234521,
      "lat": 46.899237
    },
    "cct_statut": "actif"
  },
  {
    "cct_code_dept": "Deux-Sèvres",
    "code_postal": null,
    "cct_code_commune": "Saint-Varent",
    "cct_denomination": "CONTROLE TECHNIQUE ST-VARENTAIS",
    "cct_adresse": "2 RUE DU SEILLEREAU",
    "cct_tel": "549667893",
    "cct_url": null,
    "cat_vehicule_id": "5",
    "cat_vehicule_libelle": "Camping-car (moins de 3,5 tonnes)",
    "cat_energie_id": "5",
    "cat_energie_libelle": "Electrique",
    "prix_visite": 100,
    "date_application_visite": "2020-09-08",
    "prix_contre_visite_min": 0,
    "prix_contre_visite_max": 35,
    "date_application_contre_visite": "2020-09-08",
    "cct_siret": 50035373500011,
    "latitude": 46.899237,
    "longitude": -0.234521,
    "coordgeo": {
      "lon": -0.234521,
      "lat": 46.899237
    },
    "cct_statut": "actif"
  },
  {
    "cct_code_dept": "Deux-Sèvres",
    "code_postal": "79000",
    "cct_code_commune": "Niort",
    "cct_denomination": "CENTRE CONTROLE TECHNIQUE GIENNOIS",
    "cct_adresse": "RUE PAUL SABATIER",
    "cct_tel": null,
    "cct_url": null,
    "cat_vehicule_id": "4",
    "cat_vehicule_libelle": "Camionnette",
    "cat_energie_id": "1",
    "cat_energie_libelle": "Essence",
    "prix_visite": 79,
    "date_application_visite": "2020-09-11",
    "prix_contre_visite_min": 10,
    "prix_contre_visite_max": 75,
    "date_application_contre_visite": "2020-09-11",
    "cct_siret": 38504867300037,
    "latitude": 46.313024,
    "longitude": -0.493414,
    "coordgeo": {
      "lon": -0.493414,
      "lat": 46.313024
    },
    "cct_statut": "actif"
  },
  {
    "cct_code_dept": "Deux-Sèvres",
    "code_postal": "79000",
    "cct_code_commune": "Niort",
    "cct_denomination": "CENTRE CONTROLE TECHNIQUE GIENNOIS",
    "cct_adresse": "RUE PAUL SABATIER",
    "cct_tel": null,
    "cct_url": null,
    "cat_vehicule_id": "4",
    "cat_vehicule_libelle": "Camionnette",
    "cat_energie_id": "3",
    "cat_energie_libelle": "Gaz",
    "prix_visite": 100,
    "date_application_visite": "2020-09-11",
    "prix_contre_visite_min": 10,
    "prix_contre_visite_max": 75,
    "date_application_contre_visite": "2020-09-11",
    "cct_siret": 38504867300037,
    "latitude": 46.313024,
    "longitude": -0.493414,
    "coordgeo": {
      "lon": -0.493414,
      "lat": 46.313024
    },
    "cct_statut": "actif"
  },
  {
    "cct_code_dept": "Deux-Sèvres",
    "code_postal": null,
    "cct_code_commune": "Moncoutant",
    "cct_denomination": "CONTROLE TECHNIQUE MONCOUTANTAIS",
    "cct_adresse": "6 IMP DES METIERS",
    "cct_tel": null,
    "cct_url": null,
    "cat_vehicule_id": "3",
    "cat_vehicule_libelle": "Voiture de collection",
    "cat_energie_id": "5",
    "cat_energie_libelle": "Electrique",
    "prix_visite": 85,
    "date_application_visite": "2020-09-08",
    "prix_contre_visite_min": 10,
    "prix_contre_visite_max": 20,
    "date_application_contre_visite": "2020-09-08",
    "cct_siret": 41966923900016,
    "latitude": 46.732258,
    "longitude": -0.581582,
    "coordgeo": {
      "lon": -0.581582,
      "lat": 46.732258
    },
    "cct_statut": "actif"
  },
  {
    "cct_code_dept": "Deux-Sèvres",
    "code_postal": "79600",
    "cct_code_commune": "Airvault",
    "cct_denomination": "AIRVAULT AUTO BILAN",
    "cct_adresse": "4 RUE DE DISSE",
    "cct_tel": null,
    "cct_url": null,
    "cat_vehicule_id": "5",
    "cat_vehicule_libelle": "Camping-car (moins de 3,5 tonnes)",
    "cat_energie_id": "4",
    "cat_energie_libelle": "Hybride",
    "prix_visite": 82,
    "date_application_visite": "2020-09-08",
    "prix_contre_visite_min": 15,
    "prix_contre_visite_max": 20,
    "date_application_contre_visite": "2020-09-08",
    "cct_siret": 48380787100015,
    "latitude": 46.818508,
    "longitude": -0.134774,
    "coordgeo": {
      "lon": -0.134774,
      "lat": 46.818508
    },
    "cct_statut": "actif"
  },
  {
    "cct_code_dept": "Deux-Sèvres",
    "code_postal": "79200",
    "cct_code_commune": "Parthenay",
    "cct_denomination": "PARTHENAY AUTO BILAN",
    "cct_adresse": "7 BD BERNARD PALISSY",
    "cct_tel": "549952015",
    "cct_url": null,
    "cat_vehicule_id": "1",
    "cat_vehicule_libelle": "Voiture Particulière",
    "cat_energie_id": "3",
    "cat_energie_libelle": "Gaz",
    "prix_visite": 100,
    "date_application_visite": "2018-05-21",
    "prix_contre_visite_min": 15,
    "prix_contre_visite_max": 35,
    "date_application_contre_visite": "2018-05-21",
    "cct_siret": 38838346500035,
    "latitude": 46.644402,
    "longitude": -0.226522,
    "coordgeo": {
      "lon": -0.226522,
      "lat": 46.644402
    },
    "cct_statut": "actif"
  },
  {
    "cct_code_dept": "Deux-Sèvres",
    "code_postal": "79000",
    "cct_code_commune": "Niort",
    "cct_denomination": "AUTO CONTROLE ST LIGUAIRE",
    "cct_adresse": "28 RUE DE PIED DE FOND",
    "cct_tel": "549282298",
    "cct_url": null,
    "cat_vehicule_id": "1",
    "cat_vehicule_libelle": "Voiture Particulière",
    "cat_energie_id": "5",
    "cat_energie_libelle": "Electrique",
    "prix_visite": 80,
    "date_application_visite": "2020-09-14",
    "prix_contre_visite_min": 10,
    "prix_contre_visite_max": 30,
    "date_application_contre_visite": "2020-09-14",
    "cct_siret": 82180126300012,
    "latitude": 46.311134,
    "longitude": -0.493254,
    "coordgeo": {
      "lon": -0.493254,
      "lat": 46.311134
    },
    "cct_statut": "actif"
  },
  {
    "cct_code_dept": "Deux-Sèvres",
    "code_postal": "79000",
    "cct_code_commune": "Niort",
    "cct_denomination": "ACO SECURITE",
    "cct_adresse": "77 RUE DES ORS",
    "cct_tel": "243786224",
    "cct_url": "https://www.controlissimo.fr",
    "cat_vehicule_id": "2",
    "cat_vehicule_libelle": "4 x 4",
    "cat_energie_id": "1",
    "cat_energie_libelle": "Essence",
    "prix_visite": 83,
    "date_application_visite": "2020-09-13",
    "prix_contre_visite_min": 15,
    "prix_contre_visite_max": 45,
    "date_application_contre_visite": "2020-09-13",
    "cct_siret": 34423727600698,
    "latitude": 46.333322,
    "longitude": -0.415245,
    "coordgeo": {
      "lon": -0.415245,
      "lat": 46.333322
    },
    "cct_statut": "actif"
  },
  {
    "cct_code_dept": "Deux-Sèvres",
    "code_postal": null,
    "cct_code_commune": "Saint-Maixent-l'École",
    "cct_denomination": "ST MAIXENT CONTROLE",
    "cct_adresse": "50 AV DU PRESIDENT WILSON",
    "cct_tel": "549060729",
    "cct_url": null,
    "cat_vehicule_id": "4",
    "cat_vehicule_libelle": "Camionnette",
    "cat_energie_id": "4",
    "cat_energie_libelle": "Hybride",
    "prix_visite": 70,
    "date_application_visite": "2020-09-02",
    "prix_contre_visite_min": 0,
    "prix_contre_visite_max": 25,
    "date_application_contre_visite": "2020-09-02",
    "cct_siret": 38767169600012,
    "latitude": 46.408452,
    "longitude": -0.220261,
    "coordgeo": {
      "lon": -0.220261,
      "lat": 46.408452
    },
    "cct_statut": "actif"
  },
  {
    "cct_code_dept": "Deux-Sèvres",
    "code_postal": null,
    "cct_code_commune": "Saint-Maixent-l'École",
    "cct_denomination": "ST MAIXENT CONTROLE",
    "cct_adresse": "50 AV DU PRESIDENT WILSON",
    "cct_tel": "549060729",
    "cct_url": null,
    "cat_vehicule_id": "5",
    "cat_vehicule_libelle": "Camping-car (moins de 3,5 tonnes)",
    "cat_energie_id": "2",
    "cat_energie_libelle": "Diesel",
    "prix_visite": 71,
    "date_application_visite": "2020-09-02",
    "prix_contre_visite_min": 0,
    "prix_contre_visite_max": 25,
    "date_application_contre_visite": "2020-09-02",
    "cct_siret": 38767169600012,
    "latitude": 46.408452,
    "longitude": -0.220261,
    "coordgeo": {
      "lon": -0.220261,
      "lat": 46.408452
    },
    "cct_statut": "actif"
  },
  {
    "cct_code_dept": "Deux-Sèvres",
    "code_postal": null,
    "cct_code_commune": "Saint-Maixent-l'École",
    "cct_denomination": "ST MAIXENT CONTROLE",
    "cct_adresse": "50 AV DU PRESIDENT WILSON",
    "cct_tel": "549060729",
    "cct_url": null,
    "cat_vehicule_id": "5",
    "cat_vehicule_libelle": "Camping-car (moins de 3,5 tonnes)",
    "cat_energie_id": "1",
    "cat_energie_libelle": "Essence",
    "prix_visite": 70,
    "date_application_visite": "2020-09-02",
    "prix_contre_visite_min": 0,
    "prix_contre_visite_max": 25,
    "date_application_contre_visite": "2020-09-02",
    "cct_siret": 38767169600012,
    "latitude": 46.408452,
    "longitude": -0.220261,
    "coordgeo": {
      "lon": -0.220261,
      "lat": 46.408452
    },
    "cct_statut": "actif"
  },
  {
    "cct_code_dept": "Deux-Sèvres",
    "code_postal": null,
    "cct_code_commune": "Saint-Maixent-l'École",
    "cct_denomination": "ST MAIXENT CONTROLE",
    "cct_adresse": "50 AV DU PRESIDENT WILSON",
    "cct_tel": "549060729",
    "cct_url": null,
    "cat_vehicule_id": "1",
    "cat_vehicule_libelle": "Voiture Particulière",
    "cat_energie_id": "4",
    "cat_energie_libelle": "Hybride",
    "prix_visite": 70,
    "date_application_visite": "2020-09-02",
    "prix_contre_visite_min": 0,
    "prix_contre_visite_max": 25,
    "date_application_contre_visite": "2020-09-02",
    "cct_siret": 38767169600012,
    "latitude": 46.408452,
    "longitude": -0.220261,
    "coordgeo": {
      "lon": -0.220261,
      "lat": 46.408452
    },
    "cct_statut": "actif"
  },
  {
    "cct_code_dept": "Deux-Sèvres",
    "code_postal": null,
    "cct_code_commune": "Saint-Maixent-l'École",
    "cct_denomination": "ST MAIXENT CONTROLE",
    "cct_adresse": "50 AV DU PRESIDENT WILSON",
    "cct_tel": "549060729",
    "cct_url": null,
    "cat_vehicule_id": "3",
    "cat_vehicule_libelle": "Voiture de collection",
    "cat_energie_id": "4",
    "cat_energie_libelle": "Hybride",
    "prix_visite": 70,
    "date_application_visite": "2020-09-02",
    "prix_contre_visite_min": 0,
    "prix_contre_visite_max": 25,
    "date_application_contre_visite": "2020-09-02",
    "cct_siret": 38767169600012,
    "latitude": 46.408452,
    "longitude": -0.220261,
    "coordgeo": {
      "lon": -0.220261,
      "lat": 46.408452
    },
    "cct_statut": "actif"
  },
  {
    "cct_code_dept": "Deux-Sèvres",
    "code_postal": null,
    "cct_code_commune": "Chef-Boutonne",
    "cct_denomination": "CONTROLE TECHN. AUTOMOBILE SUD MELLOIS",
    "cct_adresse": "3 RTE DE MELLE",
    "cct_tel": "549296155",
    "cct_url": null,
    "cat_vehicule_id": "4",
    "cat_vehicule_libelle": "Camionnette",
    "cat_energie_id": "1",
    "cat_energie_libelle": "Essence",
    "prix_visite": 68,
    "date_application_visite": "2020-09-02",
    "prix_contre_visite_min": 10,
    "prix_contre_visite_max": 25,
    "date_application_contre_visite": "2020-09-02",
    "cct_siret": 38508002300018,
    "latitude": 46.111681,
    "longitude": -0.086624,
    "coordgeo": {
      "lon": -0.086624,
      "lat": 46.111681
    },
    "cct_statut": "actif"
  },
  {
    "cct_code_dept": "Deux-Sèvres",
    "code_postal": null,
    "cct_code_commune": "Chef-Boutonne",
    "cct_denomination": "CONTROLE TECHN. AUTOMOBILE SUD MELLOIS",
    "cct_adresse": "3 RTE DE MELLE",
    "cct_tel": "549296155",
    "cct_url": null,
    "cat_vehicule_id": "4",
    "cat_vehicule_libelle": "Camionnette",
    "cat_energie_id": "4",
    "cat_energie_libelle": "Hybride",
    "prix_visite": 80,
    "date_application_visite": "2023-01-01",
    "prix_contre_visite_min": 10,
    "prix_contre_visite_max": 25,
    "date_application_contre_visite": "2023-01-01",
    "cct_siret": 38508002300018,
    "latitude": 46.111681,
    "longitude": -0.086624,
    "coordgeo": {
      "lon": -0.086624,
      "lat": 46.111681
    },
    "cct_statut": "actif"
  },
  {
    "cct_code_dept": "Deux-Sèvres",
    "code_postal": null,
    "cct_code_commune": "Sauzé-Vaussais",
    "cct_denomination": "CONTROLE TECHN. AUTOMOBILE SUD MELLOIS",
    "cct_adresse": "43 RTE DE CIVRAY",
    "cct_tel": "549292167",
    "cct_url": null,
    "cat_vehicule_id": "2",
    "cat_vehicule_libelle": "4 x 4",
    "cat_energie_id": "4",
    "cat_energie_libelle": "Hybride",
    "prix_visite": 75,
    "date_application_visite": "2020-09-02",
    "prix_contre_visite_min": 10,
    "prix_contre_visite_max": 25,
    "date_application_contre_visite": "2020-09-02",
    "cct_siret": 38508002300026,
    "latitude": 46.134782,
    "longitude": 0.122888,
    "coordgeo": {
      "lon": 0.122888,
      "lat": 46.134782
    },
    "cct_statut": "actif"
  },
  {
    "cct_code_dept": "Deux-Sèvres",
    "code_postal": "79500",
    "cct_code_commune": "Melle",
    "cct_denomination": "CONTROLE TECHN. AUTOMOBILE SUD MELLOIS",
    "cct_adresse": "6 RUE DE LA MAIRIE",
    "cct_tel": "549079034",
    "cct_url": null,
    "cat_vehicule_id": "4",
    "cat_vehicule_libelle": "Camionnette",
    "cat_energie_id": "5",
    "cat_energie_libelle": "Electrique",
    "prix_visite": 78,
    "date_application_visite": "2023-01-01",
    "prix_contre_visite_min": 10,
    "prix_contre_visite_max": 25,
    "date_application_contre_visite": "2020-09-02",
    "cct_siret": 38508002300034,
    "latitude": 46.180012,
    "longitude": -0.164406,
    "coordgeo": {
      "lon": -0.164406,
      "lat": 46.180012
    },
    "cct_statut": "actif"
  },
  {
    "cct_code_dept": "Deux-Sèvres",
    "code_postal": "35420",
    "cct_code_commune": "Melle",
    "cct_denomination": "CONTROLE TECHN. AUTOMOBILE SUD MELLOIS",
    "cct_adresse": "6 RUE DE LA MAIRIE",
    "cct_tel": "549079034",
    "cct_url": null,
    "cat_vehicule_id": "4",
    "cat_vehicule_libelle": "Camionnette",
    "cat_energie_id": "1",
    "cat_energie_libelle": "Essence",
    "prix_visite": 68,
    "date_application_visite": "2020-09-02",
    "prix_contre_visite_min": 10,
    "prix_contre_visite_max": 25,
    "date_application_contre_visite": "2020-09-02",
    "cct_siret": 38508002300034,
    "latitude": 46.180012,
    "longitude": -0.164406,
    "coordgeo": {
      "lon": -0.164406,
      "lat": 46.180012
    },
    "cct_statut": "actif"
  },
  {
    "cct_code_dept": "Deux-Sèvres",
    "code_postal": "79500",
    "cct_code_commune": "Melle",
    "cct_denomination": "CONTROLE TECHN. AUTOMOBILE SUD MELLOIS",
    "cct_adresse": "6 RUE DE LA MAIRIE",
    "cct_tel": "549079034",
    "cct_url": null,
    "cat_vehicule_id": "5",
    "cat_vehicule_libelle": "Camping-car (moins de 3,5 tonnes)",
    "cat_energie_id": "5",
    "cat_energie_libelle": "Electrique",
    "prix_visite": 76,
    "date_application_visite": "2020-09-02",
    "prix_contre_visite_min": 10,
    "prix_contre_visite_max": 25,
    "date_application_contre_visite": "2020-09-02",
    "cct_siret": 38508002300034,
    "latitude": 46.180012,
    "longitude": -0.164406,
    "coordgeo": {
      "lon": -0.164406,
      "lat": 46.180012
    },
    "cct_statut": "actif"
  },
  {
    "cct_code_dept": "Deux-Sèvres",
    "code_postal": "35420",
    "cct_code_commune": "Melle",
    "cct_denomination": "CONTROLE TECHN. AUTOMOBILE SUD MELLOIS",
    "cct_adresse": "6 RUE DE LA MAIRIE",
    "cct_tel": "549079034",
    "cct_url": null,
    "cat_vehicule_id": "1",
    "cat_vehicule_libelle": "Voiture Particulière",
    "cat_energie_id": "4",
    "cat_energie_libelle": "Hybride",
    "prix_visite": 78,
    "date_application_visite": "2023-01-01",
    "prix_contre_visite_min": 10,
    "prix_contre_visite_max": 25,
    "date_application_contre_visite": "2020-09-02",
    "cct_siret": 38508002300034,
    "latitude": 46.180012,
    "longitude": -0.164406,
    "coordgeo": {
      "lon": -0.164406,
      "lat": 46.180012
    },
    "cct_statut": "actif"
  },
  {
    "cct_code_dept": "Deux-Sèvres",
    "code_postal": "79500",
    "cct_code_commune": "Melle",
    "cct_denomination": "CONTROLE TECHN. AUTOMOBILE SUD MELLOIS",
    "cct_adresse": "6 RUE DE LA MAIRIE",
    "cct_tel": "549079034",
    "cct_url": null,
    "cat_vehicule_id": "3",
    "cat_vehicule_libelle": "Voiture de collection",
    "cat_energie_id": "2",
    "cat_energie_libelle": "Diesel",
    "prix_visite": 68,
    "date_application_visite": "2020-09-02",
    "prix_contre_visite_min": 10,
    "prix_contre_visite_max": 25,
    "date_application_contre_visite": "2020-09-02",
    "cct_siret": 38508002300034,
    "latitude": 46.180012,
    "longitude": -0.164406,
    "coordgeo": {
      "lon": -0.164406,
      "lat": 46.180012
    },
    "cct_statut": "actif"
  },
  {
    "cct_code_dept": "Deux-Sèvres",
    "code_postal": null,
    "cct_code_commune": "Magné",
    "cct_denomination": "CONTROLE TECHNIQUE DU MARAIS POITEVIN",
    "cct_adresse": "2 ALL DE L'ARTISANAT",
    "cct_tel": "549244093",
    "cct_url": "https://www.autosecuritas-ct-du-marais-poitevin-magne.fr/",
    "cat_vehicule_id": "2",
    "cat_vehicule_libelle": "4 x 4",
    "cat_energie_id": "3",
    "cat_energie_libelle": "Gaz",
    "prix_visite": 74,
    "date_application_visite": "2022-01-02",
    "prix_contre_visite_min": 0,
    "prix_contre_visite_max": 30,
    "date_application_contre_visite": "2022-01-02",
    "cct_siret": 82012043400015,
    "latitude": 46.31909,
    "longitude": -0.561731,
    "coordgeo": {
      "lon": -0.561731,
      "lat": 46.31909
    },
    "cct_statut": "actif"
  },
  {
    "cct_code_dept": "Deux-Sèvres",
    "code_postal": null,
    "cct_code_commune": "La Mothe-Saint-Héray",
    "cct_denomination": "CONTROLE TECHNIQUE MOTHAIS",
    "cct_adresse": "LD LES COULEES",
    "cct_tel": "516185454",
    "cct_url": null,
    "cat_vehicule_id": "5",
    "cat_vehicule_libelle": "Camping-car (moins de 3,5 tonnes)",
    "cat_energie_id": "3",
    "cat_energie_libelle": "Gaz",
    "prix_visite": 0,
    "date_application_visite": "2020-09-15",
    "prix_contre_visite_min": 0,
    "prix_contre_visite_max": 0,
    "date_application_contre_visite": "2020-09-15",
    "cct_siret": 82514769700023,
    "latitude": 46.338913,
    "longitude": -0.127742,
    "coordgeo": {
      "lon": -0.127742,
      "lat": 46.338913
    },
    "cct_statut": "actif"
  },
  {
    "cct_code_dept": "Deux-Sèvres",
    "code_postal": "79100",
    "cct_code_commune": "Thouars",
    "cct_denomination": "AUBOUR CONTROLE THOUARSAIS",
    "cct_adresse": "ZI DE LA CROIX D INGAND",
    "cct_tel": "970191275",
    "cct_url": null,
    "cat_vehicule_id": "5",
    "cat_vehicule_libelle": "Camping-car (moins de 3,5 tonnes)",
    "cat_energie_id": "1",
    "cat_energie_libelle": "Essence",
    "prix_visite": 76,
    "date_application_visite": "2020-09-05",
    "prix_contre_visite_min": 15,
    "prix_contre_visite_max": 30,
    "date_application_contre_visite": "2020-09-05",
    "cct_siret": 87753546800020,
    "latitude": null,
    "longitude": null,
    "coordgeo": null,
    "cct_statut": "actif"
  },
  {
    "cct_code_dept": "Deux-Sèvres",
    "code_postal": null,
    "cct_code_commune": "Sainte-Verge",
    "cct_denomination": "THOUARS AUTO BILAN",
    "cct_adresse": "AV EMILE ZOLA",
    "cct_tel": "549672727",
    "cct_url": "thouarsautobilan.fr",
    "cat_vehicule_id": "2",
    "cat_vehicule_libelle": "4 x 4",
    "cat_energie_id": "4",
    "cat_energie_libelle": "Hybride",
    "prix_visite": 89,
    "date_application_visite": "2022-01-15",
    "prix_contre_visite_min": 18,
    "prix_contre_visite_max": 25,
    "date_application_contre_visite": "2022-01-15",
    "cct_siret": 88308802300022,
    "latitude": 46.993932,
    "longitude": -0.208229,
    "coordgeo": {
      "lon": -0.208229,
      "lat": 46.993932
    },
    "cct_statut": "actif"
  },
  {
    "cct_code_dept": "Deux-Sèvres",
    "code_postal": null,
    "cct_code_commune": "Sainte-Verge",
    "cct_denomination": "THOUARS AUTO BILAN",
    "cct_adresse": "AV EMILE ZOLA",
    "cct_tel": "549672727",
    "cct_url": "thouarsautobilan.fr",
    "cat_vehicule_id": "1",
    "cat_vehicule_libelle": "Voiture Particulière",
    "cat_energie_id": "5",
    "cat_energie_libelle": "Electrique",
    "prix_visite": 126,
    "date_application_visite": "2020-10-11",
    "prix_contre_visite_min": 25,
    "prix_contre_visite_max": 40,
    "date_application_contre_visite": "2020-10-11",
    "cct_siret": 88308802300022,
    "latitude": 46.993932,
    "longitude": -0.208229,
    "coordgeo": {
      "lon": -0.208229,
      "lat": 46.993932
    },
    "cct_statut": "actif"
  },
  {
    "cct_code_dept": "Deux-Sèvres",
    "code_postal": null,
    "cct_code_commune": "Brioux-sur-Boutonne",
    "cct_denomination": "DUHAMEL STEPHANE",
    "cct_adresse": "ZA LA MINE D OR",
    "cct_tel": "549074848",
    "cct_url": "dekra",
    "cat_vehicule_id": "1",
    "cat_vehicule_libelle": "Voiture Particulière",
    "cat_energie_id": "5",
    "cat_energie_libelle": "Electrique",
    "prix_visite": 69,
    "date_application_visite": "2020-08-28",
    "prix_contre_visite_min": 0,
    "prix_contre_visite_max": 15,
    "date_application_contre_visite": "2020-08-28",
    "cct_siret": 48446784000019,
    "latitude": 46.155324,
    "longitude": -0.211509,
    "coordgeo": {
      "lon": -0.211509,
      "lat": 46.155324
    },
    "cct_statut": "actif"
  },
  {
    "cct_code_dept": "Deux-Sèvres",
    "code_postal": null,
    "cct_code_commune": "Brioux-sur-Boutonne",
    "cct_denomination": "DUHAMEL STEPHANE",
    "cct_adresse": "ZA LA MINE D OR",
    "cct_tel": "549074848",
    "cct_url": "dekra",
    "cat_vehicule_id": "1",
    "cat_vehicule_libelle": "Voiture Particulière",
    "cat_energie_id": "1",
    "cat_energie_libelle": "Essence",
    "prix_visite": 69,
    "date_application_visite": "2020-08-28",
    "prix_contre_visite_min": 0,
    "prix_contre_visite_max": 15,
    "date_application_contre_visite": "2020-08-28",
    "cct_siret": 48446784000019,
    "latitude": 46.155324,
    "longitude": -0.211509,
    "coordgeo": {
      "lon": -0.211509,
      "lat": 46.155324
    },
    "cct_statut": "actif"
  },
  {
    "cct_code_dept": "Deux-Sèvres",
    "code_postal": "79180",
    "cct_code_commune": "Chauray",
    "cct_denomination": "null",
    "cct_adresse": "78 RUE DU PUITS DE LA VILLE",
    "cct_tel": "549242525",
    "cct_url": "autovision  chauray",
    "cat_vehicule_id": "2",
    "cat_vehicule_libelle": "4 x 4",
    "cat_energie_id": "5",
    "cat_energie_libelle": "Electrique",
    "prix_visite": 95,
    "date_application_visite": "2020-10-12",
    "prix_contre_visite_min": 30,
    "prix_contre_visite_max": 30,
    "date_application_contre_visite": "2020-10-12",
    "cct_siret": 42338260500016,
    "latitude": 46.342192,
    "longitude": -0.381009,
    "coordgeo": {
      "lon": -0.381009,
      "lat": 46.342192
    },
    "cct_statut": "actif"
  },
  {
    "cct_code_dept": "Deux-Sèvres",
    "code_postal": "79120",
    "cct_code_commune": "Lezay",
    "cct_denomination": "MELLE CONTROLE TECHNIQUE",
    "cct_adresse": "Route de melle",
    "cct_tel": null,
    "cct_url": null,
    "cat_vehicule_id": "2",
    "cat_vehicule_libelle": "4 x 4",
    "cat_energie_id": "4",
    "cat_energie_libelle": "Hybride",
    "prix_visite": 70,
    "date_application_visite": "2020-09-05",
    "prix_contre_visite_min": 15,
    "prix_contre_visite_max": 15,
    "date_application_contre_visite": "2020-09-05",
    "cct_siret": 38386685200015,
    "latitude": 46.262249,
    "longitude": -0.01304,
    "coordgeo": {
      "lon": -0.01304,
      "lat": 46.262249
    },
    "cct_statut": "actif"
  },
  {
    "cct_code_dept": "Deux-Sèvres",
    "code_postal": "79120",
    "cct_code_commune": "Lezay",
    "cct_denomination": "MELLE CONTROLE TECHNIQUE",
    "cct_adresse": "Route de melle",
    "cct_tel": null,
    "cct_url": null,
    "cat_vehicule_id": "5",
    "cat_vehicule_libelle": "Camping-car (moins de 3,5 tonnes)",
    "cat_energie_id": "1",
    "cat_energie_libelle": "Essence",
    "prix_visite": 70,
    "date_application_visite": "2020-09-05",
    "prix_contre_visite_min": 15,
    "prix_contre_visite_max": 15,
    "date_application_contre_visite": "2020-09-05",
    "cct_siret": 38386685200015,
    "latitude": 46.262249,
    "longitude": -0.01304,
    "coordgeo": {
      "lon": -0.01304,
      "lat": 46.262249
    },
    "cct_statut": "actif"
  },
  {
    "cct_code_dept": "Deux-Sèvres",
    "code_postal": "79120",
    "cct_code_commune": "Lezay",
    "cct_denomination": "MELLE CONTROLE TECHNIQUE",
    "cct_adresse": "Route de melle",
    "cct_tel": null,
    "cct_url": null,
    "cat_vehicule_id": "5",
    "cat_vehicule_libelle": "Camping-car (moins de 3,5 tonnes)",
    "cat_energie_id": "3",
    "cat_energie_libelle": "Gaz",
    "prix_visite": 80,
    "date_application_visite": "2021-06-14",
    "prix_contre_visite_min": 10,
    "prix_contre_visite_max": 10,
    "date_application_contre_visite": "2021-06-14",
    "cct_siret": 38386685200015,
    "latitude": 46.262249,
    "longitude": -0.01304,
    "coordgeo": {
      "lon": -0.01304,
      "lat": 46.262249
    },
    "cct_statut": "actif"
  },
  {
    "cct_code_dept": "Deux-Sèvres",
    "code_postal": "79120",
    "cct_code_commune": "Lezay",
    "cct_denomination": "MELLE CONTROLE TECHNIQUE",
    "cct_adresse": "Route de melle",
    "cct_tel": null,
    "cct_url": null,
    "cat_vehicule_id": "5",
    "cat_vehicule_libelle": "Camping-car (moins de 3,5 tonnes)",
    "cat_energie_id": "4",
    "cat_energie_libelle": "Hybride",
    "prix_visite": 65,
    "date_application_visite": "2020-09-05",
    "prix_contre_visite_min": 10,
    "prix_contre_visite_max": 10,
    "date_application_contre_visite": "2020-09-05",
    "cct_siret": 38386685200015,
    "latitude": 46.262249,
    "longitude": -0.01304,
    "coordgeo": {
      "lon": -0.01304,
      "lat": 46.262249
    },
    "cct_statut": "actif"
  },
  {
    "cct_code_dept": "Deux-Sèvres",
    "code_postal": null,
    "cct_code_commune": "Celles-sur-Belle",
    "cct_denomination": "AUTO CONTROLE CELLOIS",
    "cct_adresse": "4 CHE DE LA TONNELLE LA CIGOGNE",
    "cct_tel": "549262666",
    "cct_url": null,
    "cat_vehicule_id": "2",
    "cat_vehicule_libelle": "4 x 4",
    "cat_energie_id": "2",
    "cat_energie_libelle": "Diesel",
    "prix_visite": 75,
    "date_application_visite": "2021-07-29",
    "prix_contre_visite_min": 15,
    "prix_contre_visite_max": 35,
    "date_application_contre_visite": "2021-07-29",
    "cct_siret": 89948552800017,
    "latitude": 46.269143,
    "longitude": -0.224422,
    "coordgeo": {
      "lon": -0.224422,
      "lat": 46.269143
    },
    "cct_statut": "actif"
  },
  {
    "cct_code_dept": "Deux-Sèvres",
    "code_postal": null,
    "cct_code_commune": "Celles-sur-Belle",
    "cct_denomination": "AUTO CONTROLE CELLOIS",
    "cct_adresse": "4 CHE DE LA TONNELLE LA CIGOGNE",
    "cct_tel": "549262666",
    "cct_url": null,
    "cat_vehicule_id": "4",
    "cat_vehicule_libelle": "Camionnette",
    "cat_energie_id": "1",
    "cat_energie_libelle": "Essence",
    "prix_visite": 75,
    "date_application_visite": "2021-07-29",
    "prix_contre_visite_min": 15,
    "prix_contre_visite_max": 35,
    "date_application_contre_visite": "2021-07-29",
    "cct_siret": 89948552800017,
    "latitude": 46.269143,
    "longitude": -0.224422,
    "coordgeo": {
      "lon": -0.224422,
      "lat": 46.269143
    },
    "cct_statut": "actif"
  },
  {
    "cct_code_dept": "Deux-Sèvres",
    "code_postal": null,
    "cct_code_commune": "Coulonges-sur-l'Autize",
    "cct_denomination": "AUTO CONTROLE DE L'AUTIZE",
    "cct_adresse": "22 RUE JOHANNES GUTENBERG",
    "cct_tel": "549062520",
    "cct_url": null,
    "cat_vehicule_id": "3",
    "cat_vehicule_libelle": "Voiture de collection",
    "cat_energie_id": "1",
    "cat_energie_libelle": "Essence",
    "prix_visite": 71,
    "date_application_visite": "2020-09-03",
    "prix_contre_visite_min": 10,
    "prix_contre_visite_max": 15,
    "date_application_contre_visite": "2020-09-03",
    "cct_siret": 41048568400014,
    "latitude": 46.474442,
    "longitude": -0.592784,
    "coordgeo": {
      "lon": -0.592784,
      "lat": 46.474442
    },
    "cct_statut": "actif"
  },
  {
    "cct_code_dept": "Deux-Sèvres",
    "code_postal": "79180",
    "cct_code_commune": "Chauray",
    "cct_denomination": "null",
    "cct_adresse": "78 RUE DU PUITS DE LA VILLE",
    "cct_tel": "549242525",
    "cct_url": "autovision  chauray",
    "cat_vehicule_id": "1",
    "cat_vehicule_libelle": "Voiture Particulière",
    "cat_energie_id": "2",
    "cat_energie_libelle": "Diesel",
    "prix_visite": 78,
    "date_application_visite": "2020-10-12",
    "prix_contre_visite_min": 30,
    "prix_contre_visite_max": 30,
    "date_application_contre_visite": "2020-10-12",
    "cct_siret": 42338260500016,
    "latitude": 46.342192,
    "longitude": -0.381009,
    "coordgeo": {
      "lon": -0.381009,
      "lat": 46.342192
    },
    "cct_statut": "actif"
  },
  {
    "cct_code_dept": "Deux-Sèvres",
    "code_postal": "79180",
    "cct_code_commune": "Chauray",
    "cct_denomination": "null",
    "cct_adresse": "78 RUE DU PUITS DE LA VILLE",
    "cct_tel": "549242525",
    "cct_url": "autovision  chauray",
    "cat_vehicule_id": "1",
    "cat_vehicule_libelle": "Voiture Particulière",
    "cat_energie_id": "3",
    "cat_energie_libelle": "Gaz",
    "prix_visite": 95,
    "date_application_visite": "2020-10-12",
    "prix_contre_visite_min": 30,
    "prix_contre_visite_max": 30,
    "date_application_contre_visite": "2020-10-12",
    "cct_siret": 42338260500016,
    "latitude": 46.342192,
    "longitude": -0.381009,
    "coordgeo": {
      "lon": -0.381009,
      "lat": 46.342192
    },
    "cct_statut": "actif"
  },
  {
    "cct_code_dept": "Deux-Sèvres",
    "code_postal": "79300",
    "cct_code_commune": "Bressuire",
    "cct_denomination": "AUTO BILAN BOCAGE",
    "cct_adresse": "RUE DE BEL AIR",
    "cct_tel": "549653736",
    "cct_url": null,
    "cat_vehicule_id": "4",
    "cat_vehicule_libelle": "Camionnette",
    "cat_energie_id": "4",
    "cat_energie_libelle": "Hybride",
    "prix_visite": 80,
    "date_application_visite": "2020-09-15",
    "prix_contre_visite_min": 15,
    "prix_contre_visite_max": 30,
    "date_application_contre_visite": "2020-09-15",
    "cct_siret": 38521223800013,
    "latitude": 46.83922,
    "longitude": -0.505225,
    "coordgeo": {
      "lon": -0.505225,
      "lat": 46.83922
    },
    "cct_statut": "actif"
  },
  {
    "cct_code_dept": "Deux-Sèvres",
    "code_postal": "79000",
    "cct_code_commune": "Niort",
    "cct_denomination": "SARL AUTO CONTROLE NIORTAIS",
    "cct_adresse": "78 RUE DES ORS",
    "cct_tel": "684647437",
    "cct_url": null,
    "cat_vehicule_id": "2",
    "cat_vehicule_libelle": "4 x 4",
    "cat_energie_id": "1",
    "cat_energie_libelle": "Essence",
    "prix_visite": 75,
    "date_application_visite": "2020-09-23",
    "prix_contre_visite_min": 15,
    "prix_contre_visite_max": 35,
    "date_application_contre_visite": "2020-09-23",
    "cct_siret": 38787032200022,
    "latitude": 46.332197,
    "longitude": -0.417998,
    "coordgeo": {
      "lon": -0.417998,
      "lat": 46.332197
    },
    "cct_statut": "actif"
  },
  {
    "cct_code_dept": "Deux-Sèvres",
    "code_postal": "79120",
    "cct_code_commune": "Lezay",
    "cct_denomination": "MELLE CONTROLE TECHNIQUE",
    "cct_adresse": "Route de melle",
    "cct_tel": null,
    "cct_url": null,
    "cat_vehicule_id": "2",
    "cat_vehicule_libelle": "4 x 4",
    "cat_energie_id": "2",
    "cat_energie_libelle": "Diesel",
    "prix_visite": 70,
    "date_application_visite": "2020-09-05",
    "prix_contre_visite_min": 15,
    "prix_contre_visite_max": 15,
    "date_application_contre_visite": "2020-09-05",
    "cct_siret": 38386685200015,
    "latitude": 46.262249,
    "longitude": -0.01304,
    "coordgeo": {
      "lon": -0.01304,
      "lat": 46.262249
    },
    "cct_statut": "actif"
  },
  {
    "cct_code_dept": "Deux-Sèvres",
    "code_postal": "79120",
    "cct_code_commune": "Lezay",
    "cct_denomination": "MELLE CONTROLE TECHNIQUE",
    "cct_adresse": "Route de melle",
    "cct_tel": null,
    "cct_url": null,
    "cat_vehicule_id": "2",
    "cat_vehicule_libelle": "4 x 4",
    "cat_energie_id": "3",
    "cat_energie_libelle": "Gaz",
    "prix_visite": 80,
    "date_application_visite": "2021-06-14",
    "prix_contre_visite_min": 10,
    "prix_contre_visite_max": 10,
    "date_application_contre_visite": "2021-06-14",
    "cct_siret": 38386685200015,
    "latitude": 46.262249,
    "longitude": -0.01304,
    "coordgeo": {
      "lon": -0.01304,
      "lat": 46.262249
    },
    "cct_statut": "actif"
  },
  {
    "cct_code_dept": "Deux-Sèvres",
    "code_postal": "79120",
    "cct_code_commune": "Lezay",
    "cct_denomination": "MELLE CONTROLE TECHNIQUE",
    "cct_adresse": "Route de melle",
    "cct_tel": null,
    "cct_url": null,
    "cat_vehicule_id": "5",
    "cat_vehicule_libelle": "Camping-car (moins de 3,5 tonnes)",
    "cat_energie_id": "5",
    "cat_energie_libelle": "Electrique",
    "prix_visite": 80,
    "date_application_visite": "2020-09-05",
    "prix_contre_visite_min": 10,
    "prix_contre_visite_max": 10,
    "date_application_contre_visite": "2020-09-05",
    "cct_siret": 38386685200015,
    "latitude": 46.262249,
    "longitude": -0.01304,
    "coordgeo": {
      "lon": -0.01304,
      "lat": 46.262249
    },
    "cct_statut": "actif"
  },
  {
    "cct_code_dept": "Deux-Sèvres",
    "code_postal": "79120",
    "cct_code_commune": "Lezay",
    "cct_denomination": "MELLE CONTROLE TECHNIQUE",
    "cct_adresse": "Route de melle",
    "cct_tel": null,
    "cct_url": null,
    "cat_vehicule_id": "3",
    "cat_vehicule_libelle": "Voiture de collection",
    "cat_energie_id": "2",
    "cat_energie_libelle": "Diesel",
    "prix_visite": 70,
    "date_application_visite": "2020-09-05",
    "prix_contre_visite_min": 10,
    "prix_contre_visite_max": 10,
    "date_application_contre_visite": "2020-09-05",
    "cct_siret": 38386685200015,
    "latitude": 46.262249,
    "longitude": -0.01304,
    "coordgeo": {
      "lon": -0.01304,
      "lat": 46.262249
    },
    "cct_statut": "actif"
  },
  {
    "cct_code_dept": "Deux-Sèvres",
    "code_postal": "79300",
    "cct_code_commune": "Bressuire",
    "cct_denomination": "GREG CONTROLE",
    "cct_adresse": "179 BD DE POITIERS",
    "cct_tel": "609419331",
    "cct_url": "www.moncontroletechnique.fr",
    "cat_vehicule_id": "5",
    "cat_vehicule_libelle": "Camping-car (moins de 3,5 tonnes)",
    "cat_energie_id": "5",
    "cat_energie_libelle": "Electrique",
    "prix_visite": 84,
    "date_application_visite": "2022-10-06",
    "prix_contre_visite_min": 15,
    "prix_contre_visite_max": 20,
    "date_application_contre_visite": "2022-10-06",
    "cct_siret": 91417025300019,
    "latitude": 46.823526,
    "longitude": -0.415358,
    "coordgeo": {
      "lon": -0.415358,
      "lat": 46.823526
    },
    "cct_statut": "actif"
  },
  {
    "cct_code_dept": "Deux-Sèvres",
    "code_postal": null,
    "cct_code_commune": "Celles-sur-Belle",
    "cct_denomination": "SARL AUTO CONTROLE NIORTAIS",
    "cct_adresse": "CHEMIN DE LA TONNELLE",
    "cct_tel": "684647437",
    "cct_url": null,
    "cat_vehicule_id": "2",
    "cat_vehicule_libelle": "4 x 4",
    "cat_energie_id": "5",
    "cat_energie_libelle": "Electrique",
    "prix_visite": 78,
    "date_application_visite": "2020-11-03",
    "prix_contre_visite_min": 0,
    "prix_contre_visite_max": 35,
    "date_application_contre_visite": "2020-11-03",
    "cct_siret": 38787032200055,
    "latitude": 46.269225,
    "longitude": -0.223594,
    "coordgeo": {
      "lon": -0.223594,
      "lat": 46.269225
    },
    "cct_statut": "actif"
  },
  {
    "cct_code_dept": "Deux-Sèvres",
    "code_postal": "79180",
    "cct_code_commune": "Chauray",
    "cct_denomination": "AUTOMOBILE CLUB DES DEUX SEVRES-CONTROLE TECHNIQUE",
    "cct_adresse": "5 BD AMPERE",
    "cct_tel": "549242678",
    "cct_url": null,
    "cat_vehicule_id": "4",
    "cat_vehicule_libelle": "Camionnette",
    "cat_energie_id": "1",
    "cat_energie_libelle": "Essence",
    "prix_visite": 76,
    "date_application_visite": "2020-09-02",
    "prix_contre_visite_min": 5,
    "prix_contre_visite_max": 20,
    "date_application_contre_visite": "2020-09-02",
    "cct_siret": 80925710800039,
    "latitude": 46.339625,
    "longitude": -0.382122,
    "coordgeo": {
      "lon": -0.382122,
      "lat": 46.339625
    },
    "cct_statut": "actif"
  },
  {
    "cct_code_dept": "Deux-Sèvres",
    "code_postal": "79200",
    "cct_code_commune": "Parthenay",
    "cct_denomination": "AUTOMOBILE CLUB DES DEUX SEVRES-CONTROLE TECHNIQUE",
    "cct_adresse": "RUE LEONARD DE VINCI",
    "cct_tel": "549946130",
    "cct_url": null,
    "cat_vehicule_id": "2",
    "cat_vehicule_libelle": "4 x 4",
    "cat_energie_id": "2",
    "cat_energie_libelle": "Diesel",
    "prix_visite": 82,
    "date_application_visite": "2020-09-02",
    "prix_contre_visite_min": 5,
    "prix_contre_visite_max": 20,
    "date_application_contre_visite": "2020-09-02",
    "cct_siret": 80925710800021,
    "latitude": 46.650998,
    "longitude": -0.227775,
    "coordgeo": {
      "lon": -0.227775,
      "lat": 46.650998
    },
    "cct_statut": "actif"
  },
  {
    "cct_code_dept": "Deux-Sèvres",
    "code_postal": null,
    "cct_code_commune": "Mauléon",
    "cct_denomination": "SARL C.T.A",
    "cct_adresse": "38 RUE DE POITIERS",
    "cct_tel": null,
    "cct_url": null,
    "cat_vehicule_id": "2",
    "cat_vehicule_libelle": "4 x 4",
    "cat_energie_id": "5",
    "cat_energie_libelle": "Electrique",
    "prix_visite": 79,
    "date_application_visite": "2020-10-02",
    "prix_contre_visite_min": 20,
    "prix_contre_visite_max": 20,
    "date_application_contre_visite": "2020-10-02",
    "cct_siret": 41409085200180,
    "latitude": 46.921298,
    "longitude": -0.737032,
    "coordgeo": {
      "lon": -0.737032,
      "lat": 46.921298
    },
    "cct_statut": "actif"
  },
  {
    "cct_code_dept": "Deux-Sèvres",
    "code_postal": null,
    "cct_code_commune": "Mauléon",
    "cct_denomination": "SARL C.T.A",
    "cct_adresse": "38 RUE DE POITIERS",
    "cct_tel": null,
    "cct_url": null,
    "cat_vehicule_id": "5",
    "cat_vehicule_libelle": "Camping-car (moins de 3,5 tonnes)",
    "cat_energie_id": "5",
    "cat_energie_libelle": "Electrique",
    "prix_visite": 82,
    "date_application_visite": "2023-01-13",
    "prix_contre_visite_min": 20,
    "prix_contre_visite_max": 20,
    "date_application_contre_visite": "2020-10-02",
    "cct_siret": 41409085200180,
    "latitude": 46.921298,
    "longitude": -0.737032,
    "coordgeo": {
      "lon": -0.737032,
      "lat": 46.921298
    },
    "cct_statut": "actif"
  },
  {
    "cct_code_dept": "Deux-Sèvres",
    "code_postal": null,
    "cct_code_commune": "Mauléon",
    "cct_denomination": "SARL C.T.A",
    "cct_adresse": "38 RUE DE POITIERS",
    "cct_tel": null,
    "cct_url": null,
    "cat_vehicule_id": "5",
    "cat_vehicule_libelle": "Camping-car (moins de 3,5 tonnes)",
    "cat_energie_id": "4",
    "cat_energie_libelle": "Hybride",
    "prix_visite": 82,
    "date_application_visite": "2023-01-13",
    "prix_contre_visite_min": 20,
    "prix_contre_visite_max": 20,
    "date_application_contre_visite": "2020-10-02",
    "cct_siret": 41409085200180,
    "latitude": 46.921298,
    "longitude": -0.737032,
    "coordgeo": {
      "lon": -0.737032,
      "lat": 46.921298
    },
    "cct_statut": "actif"
  },
  {
    "cct_code_dept": "Deux-Sèvres",
    "code_postal": null,
    "cct_code_commune": "Mauléon",
    "cct_denomination": "SARL C.T.A",
    "cct_adresse": "38 RUE DE POITIERS",
    "cct_tel": null,
    "cct_url": null,
    "cat_vehicule_id": "3",
    "cat_vehicule_libelle": "Voiture de collection",
    "cat_energie_id": "5",
    "cat_energie_libelle": "Electrique",
    "prix_visite": 82,
    "date_application_visite": "2023-01-13",
    "prix_contre_visite_min": 20,
    "prix_contre_visite_max": 20,
    "date_application_contre_visite": "2020-10-02",
    "cct_siret": 41409085200180,
    "latitude": 46.921298,
    "longitude": -0.737032,
    "coordgeo": {
      "lon": -0.737032,
      "lat": 46.921298
    },
    "cct_statut": "actif"
  },
  {
    "cct_code_dept": "Deux-Sèvres",
    "code_postal": "79200",
    "cct_code_commune": "Parthenay",
    "cct_denomination": "CENTRE DE CONTROLE AUTOMOBILE GATINAIS",
    "cct_adresse": "3 RUE DE LA MARNE",
    "cct_tel": "549952067",
    "cct_url": "https://www.controle-technique-dekra-parthenay79.fr/centre-controle-technique-parthenay.html",
    "cat_vehicule_id": "1",
    "cat_vehicule_libelle": "Voiture Particulière",
    "cat_energie_id": "1",
    "cat_energie_libelle": "Essence",
    "prix_visite": 80,
    "date_application_visite": "2020-10-21",
    "prix_contre_visite_min": 15,
    "prix_contre_visite_max": 35,
    "date_application_contre_visite": "2020-10-21",
    "cct_siret": 34227080800021,
    "latitude": 46.642447,
    "longitude": -0.231014,
    "coordgeo": {
      "lon": -0.231014,
      "lat": 46.642447
    },
    "cct_statut": "actif"
  },
  {
    "cct_code_dept": "Deux-Sèvres",
    "code_postal": null,
    "cct_code_commune": "Saint-Maixent-l'École",
    "cct_denomination": "S M AUTO BILAN",
    "cct_adresse": "9 RUE D HORSHAM",
    "cct_tel": "549065005",
    "cct_url": "https://www.dekra-norisko.fr",
    "cat_vehicule_id": "2",
    "cat_vehicule_libelle": "4 x 4",
    "cat_energie_id": "2",
    "cat_energie_libelle": "Diesel",
    "prix_visite": 77,
    "date_application_visite": "2022-04-01",
    "prix_contre_visite_min": 8,
    "prix_contre_visite_max": 25,
    "date_application_contre_visite": "2020-09-08",
    "cct_siret": 38938996600018,
    "latitude": 46.420149,
    "longitude": -0.205251,
    "coordgeo": {
      "lon": -0.205251,
      "lat": 46.420149
    },
    "cct_statut": "actif"
  },
  {
    "cct_code_dept": "Deux-Sèvres",
    "code_postal": null,
    "cct_code_commune": "Saint-Maixent-l'École",
    "cct_denomination": "S M AUTO BILAN",
    "cct_adresse": "9 RUE D HORSHAM",
    "cct_tel": "549065005",
    "cct_url": "https://www.dekra-norisko.fr",
    "cat_vehicule_id": "1",
    "cat_vehicule_libelle": "Voiture Particulière",
    "cat_energie_id": "5",
    "cat_energie_libelle": "Electrique",
    "prix_visite": 76,
    "date_application_visite": "2021-01-04",
    "prix_contre_visite_min": 8,
    "prix_contre_visite_max": 25,
    "date_application_contre_visite": "2020-09-08",
    "cct_siret": 38938996600018,
    "latitude": 46.420149,
    "longitude": -0.205251,
    "coordgeo": {
      "lon": -0.205251,
      "lat": 46.420149
    },
    "cct_statut": "actif"
  },
  {
    "cct_code_dept": "Deux-Sèvres",
    "code_postal": null,
    "cct_code_commune": "Saint-Maixent-l'École",
    "cct_denomination": "S M AUTO BILAN",
    "cct_adresse": "9 RUE D HORSHAM",
    "cct_tel": "549065005",
    "cct_url": "https://www.dekra-norisko.fr",
    "cat_vehicule_id": "1",
    "cat_vehicule_libelle": "Voiture Particulière",
    "cat_energie_id": "4",
    "cat_energie_libelle": "Hybride",
    "prix_visite": 75,
    "date_application_visite": "2020-09-08",
    "prix_contre_visite_min": 8,
    "prix_contre_visite_max": 25,
    "date_application_contre_visite": "2020-09-08",
    "cct_siret": 38938996600018,
    "latitude": 46.420149,
    "longitude": -0.205251,
    "coordgeo": {
      "lon": -0.205251,
      "lat": 46.420149
    },
    "cct_statut": "actif"
  },
  {
    "cct_code_dept": "Deux-Sèvres",
    "code_postal": null,
    "cct_code_commune": "Saint-Maixent-l'École",
    "cct_denomination": "S M AUTO BILAN",
    "cct_adresse": "9 RUE D HORSHAM",
    "cct_tel": "549065005",
    "cct_url": "https://www.dekra-norisko.fr",
    "cat_vehicule_id": "3",
    "cat_vehicule_libelle": "Voiture de collection",
    "cat_energie_id": "4",
    "cat_energie_libelle": "Hybride",
    "prix_visite": 77,
    "date_application_visite": "2022-04-01",
    "prix_contre_visite_min": 8,
    "prix_contre_visite_max": 25,
    "date_application_contre_visite": "2020-09-08",
    "cct_siret": 38938996600018,
    "latitude": 46.420149,
    "longitude": -0.205251,
    "coordgeo": {
      "lon": -0.205251,
      "lat": 46.420149
    },
    "cct_statut": "actif"
  },
  {
    "cct_code_dept": "Deux-Sèvres",
    "code_postal": "79000",
    "cct_code_commune": "Niort",
    "cct_denomination": "SARL AUTO CONTROLE NIORTAIS",
    "cct_adresse": "76 AV DE NANTES",
    "cct_tel": "549172434",
    "cct_url": null,
    "cat_vehicule_id": "2",
    "cat_vehicule_libelle": "4 x 4",
    "cat_energie_id": "1",
    "cat_energie_libelle": "Essence",
    "prix_visite": 75,
    "date_application_visite": "2020-11-05",
    "prix_contre_visite_min": 0,
    "prix_contre_visite_max": 35,
    "date_application_contre_visite": "2020-11-05",
    "cct_siret": 38787032200063,
    "latitude": 46.338427,
    "longitude": -0.481737,
    "coordgeo": {
      "lon": -0.481737,
      "lat": 46.338427
    },
    "cct_statut": "actif"
  },
  {
    "cct_code_dept": "Deux-Sèvres",
    "code_postal": "79000",
    "cct_code_commune": "Niort",
    "cct_denomination": "SARL AUTO CONTROLE NIORTAIS",
    "cct_adresse": "76 AV DE NANTES",
    "cct_tel": "549172434",
    "cct_url": null,
    "cat_vehicule_id": "4",
    "cat_vehicule_libelle": "Camionnette",
    "cat_energie_id": "1",
    "cat_energie_libelle": "Essence",
    "prix_visite": 75,
    "date_application_visite": "2020-11-05",
    "prix_contre_visite_min": 60,
    "prix_contre_visite_max": 75,
    "date_application_contre_visite": "2020-11-05",
    "cct_siret": 38787032200063,
    "latitude": 46.338427,
    "longitude": -0.481737,
    "coordgeo": {
      "lon": -0.481737,
      "lat": 46.338427
    },
    "cct_statut": "actif"
  },
  {
    "cct_code_dept": "Deux-Sèvres",
    "code_postal": "79000",
    "cct_code_commune": "Niort",
    "cct_denomination": "SARL AUTO CONTROLE NIORTAIS",
    "cct_adresse": "76 AV DE NANTES",
    "cct_tel": "549172434",
    "cct_url": null,
    "cat_vehicule_id": "1",
    "cat_vehicule_libelle": "Voiture Particulière",
    "cat_energie_id": "5",
    "cat_energie_libelle": "Electrique",
    "prix_visite": 78,
    "date_application_visite": "2020-11-05",
    "prix_contre_visite_min": 0,
    "prix_contre_visite_max": 35,
    "date_application_contre_visite": "2020-11-05",
    "cct_siret": 38787032200063,
    "latitude": 46.338427,
    "longitude": -0.481737,
    "coordgeo": {
      "lon": -0.481737,
      "lat": 46.338427
    },
    "cct_statut": "actif"
  },
  {
    "cct_code_dept": "Deux-Sèvres",
    "code_postal": null,
    "cct_code_commune": "Sainte-Verge",
    "cct_denomination": "SARL C.T.A",
    "cct_adresse": "RUE DU CHAMP DE PLAISANCE",
    "cct_tel": null,
    "cct_url": null,
    "cat_vehicule_id": "4",
    "cat_vehicule_libelle": "Camionnette",
    "cat_energie_id": "5",
    "cat_energie_libelle": "Electrique",
    "prix_visite": 59,
    "date_application_visite": "2020-10-02",
    "prix_contre_visite_min": 20,
    "prix_contre_visite_max": 20,
    "date_application_contre_visite": "2020-10-02",
    "cct_siret": 41409085200040,
    "latitude": 46.994438,
    "longitude": -0.210626,
    "coordgeo": {
      "lon": -0.210626,
      "lat": 46.994438
    },
    "cct_statut": "actif"
  },
  {
    "cct_code_dept": "Deux-Sèvres",
    "code_postal": "79300",
    "cct_code_commune": "Bressuire",
    "cct_denomination": "SARL C.T.A",
    "cct_adresse": "28 BD DE L EUROPE",
    "cct_tel": null,
    "cct_url": null,
    "cat_vehicule_id": "2",
    "cat_vehicule_libelle": "4 x 4",
    "cat_energie_id": "1",
    "cat_energie_libelle": "Essence",
    "prix_visite": 79,
    "date_application_visite": "2020-10-02",
    "prix_contre_visite_min": 20,
    "prix_contre_visite_max": 20,
    "date_application_contre_visite": "2020-10-02",
    "cct_siret": 41409085200156,
    "latitude": 46.919644,
    "longitude": -0.573762,
    "coordgeo": {
      "lon": -0.573762,
      "lat": 46.919644
    },
    "cct_statut": "actif"
  },
  {
    "cct_code_dept": "Deux-Sèvres",
    "code_postal": null,
    "cct_code_commune": "Argenton-l'Église",
    "cct_denomination": "SARL C.T.A",
    "cct_adresse": "LD LES LANDES",
    "cct_tel": null,
    "cct_url": null,
    "cat_vehicule_id": "2",
    "cat_vehicule_libelle": "4 x 4",
    "cat_energie_id": "2",
    "cat_energie_libelle": "Diesel",
    "prix_visite": 59,
    "date_application_visite": "2020-10-02",
    "prix_contre_visite_min": 20,
    "prix_contre_visite_max": 20,
    "date_application_contre_visite": "2020-10-02",
    "cct_siret": 41409085200164,
    "latitude": 47.078851,
    "longitude": -0.294498,
    "coordgeo": {
      "lon": -0.294498,
      "lat": 47.078851
    },
    "cct_statut": "actif"
  },
  {
    "cct_code_dept": "Deux-Sèvres",
    "code_postal": null,
    "cct_code_commune": "Argenton-l'Église",
    "cct_denomination": "SARL C.T.A",
    "cct_adresse": "LD LES LANDES",
    "cct_tel": null,
    "cct_url": null,
    "cat_vehicule_id": "5",
    "cat_vehicule_libelle": "Camping-car (moins de 3,5 tonnes)",
    "cat_energie_id": "5",
    "cat_energie_libelle": "Electrique",
    "prix_visite": 76,
    "date_application_visite": "2020-10-02",
    "prix_contre_visite_min": 20,
    "prix_contre_visite_max": 20,
    "date_application_contre_visite": "2020-10-02",
    "cct_siret": 41409085200164,
    "latitude": 47.078851,
    "longitude": -0.294498,
    "coordgeo": {
      "lon": -0.294498,
      "lat": 47.078851
    },
    "cct_statut": "actif"
  },
  {
    "cct_code_dept": "Deux-Sèvres",
    "code_postal": null,
    "cct_code_commune": "Argenton-l'Église",
    "cct_denomination": "SARL C.T.A",
    "cct_adresse": "LD LES LANDES",
    "cct_tel": null,
    "cct_url": null,
    "cat_vehicule_id": "5",
    "cat_vehicule_libelle": "Camping-car (moins de 3,5 tonnes)",
    "cat_energie_id": "1",
    "cat_energie_libelle": "Essence",
    "prix_visite": 59,
    "date_application_visite": "2020-10-02",
    "prix_contre_visite_min": 20,
    "prix_contre_visite_max": 20,
    "date_application_contre_visite": "2020-10-02",
    "cct_siret": 41409085200164,
    "latitude": 47.078851,
    "longitude": -0.294498,
    "coordgeo": {
      "lon": -0.294498,
      "lat": 47.078851
    },
    "cct_statut": "actif"
  },
  {
    "cct_code_dept": "Deux-Sèvres",
    "code_postal": null,
    "cct_code_commune": "Argenton-l'Église",
    "cct_denomination": "SARL C.T.A",
    "cct_adresse": "LD LES LANDES",
    "cct_tel": null,
    "cct_url": null,
    "cat_vehicule_id": "5",
    "cat_vehicule_libelle": "Camping-car (moins de 3,5 tonnes)",
    "cat_energie_id": "3",
    "cat_energie_libelle": "Gaz",
    "prix_visite": 99,
    "date_application_visite": "2020-10-02",
    "prix_contre_visite_min": 20,
    "prix_contre_visite_max": 20,
    "date_application_contre_visite": "2020-10-02",
    "cct_siret": 41409085200164,
    "latitude": 47.078851,
    "longitude": -0.294498,
    "coordgeo": {
      "lon": -0.294498,
      "lat": 47.078851
    },
    "cct_statut": "actif"
  },
  {
    "cct_code_dept": "Deux-Sèvres",
    "code_postal": null,
    "cct_code_commune": "Beauvoir-sur-Niort",
    "cct_denomination": "SARL CT",
    "cct_adresse": "35 RUE DES CHENES VERTS",
    "cct_tel": "549096926",
    "cct_url": null,
    "cat_vehicule_id": "4",
    "cat_vehicule_libelle": "Camionnette",
    "cat_energie_id": "2",
    "cat_energie_libelle": "Diesel",
    "prix_visite": 70,
    "date_application_visite": "2020-09-10",
    "prix_contre_visite_min": 0,
    "prix_contre_visite_max": 25,
    "date_application_contre_visite": "2020-09-10",
    "cct_siret": 82293760300014,
    "latitude": 46.186746,
    "longitude": -0.472577,
    "coordgeo": {
      "lon": -0.472577,
      "lat": 46.186746
    },
    "cct_statut": "actif"
  },
  {
    "cct_code_dept": "Deux-Sèvres",
    "code_postal": null,
    "cct_code_commune": "Beauvoir-sur-Niort",
    "cct_denomination": "SARL CT",
    "cct_adresse": "35 RUE DES CHENES VERTS",
    "cct_tel": "549096926",
    "cct_url": null,
    "cat_vehicule_id": "1",
    "cat_vehicule_libelle": "Voiture Particulière",
    "cat_energie_id": "3",
    "cat_energie_libelle": "Gaz",
    "prix_visite": 80,
    "date_application_visite": "2020-09-10",
    "prix_contre_visite_min": 0,
    "prix_contre_visite_max": 25,
    "date_application_contre_visite": "2020-09-10",
    "cct_siret": 82293760300014,
    "latitude": 46.186746,
    "longitude": -0.472577,
    "coordgeo": {
      "lon": -0.472577,
      "lat": 46.186746
    },
    "cct_statut": "actif"
  },
  {
    "cct_code_dept": "Deux-Sèvres",
    "code_postal": null,
    "cct_code_commune": "Beauvoir-sur-Niort",
    "cct_denomination": "SARL CT",
    "cct_adresse": "35 RUE DES CHENES VERTS",
    "cct_tel": "549096926",
    "cct_url": null,
    "cat_vehicule_id": "3",
    "cat_vehicule_libelle": "Voiture de collection",
    "cat_energie_id": "3",
    "cat_energie_libelle": "Gaz",
    "prix_visite": 80,
    "date_application_visite": "2020-09-10",
    "prix_contre_visite_min": 0,
    "prix_contre_visite_max": 25,
    "date_application_contre_visite": "2020-09-10",
    "cct_siret": 82293760300014,
    "latitude": 46.186746,
    "longitude": -0.472577,
    "coordgeo": {
      "lon": -0.472577,
      "lat": 46.186746
    },
    "cct_statut": "actif"
  },
  {
    "cct_code_dept": "Deux-Sèvres",
    "code_postal": null,
    "cct_code_commune": "Prin-Deyrançon",
    "cct_denomination": "SARL CT",
    "cct_adresse": "11 RUE DES ENTREPRISES",
    "cct_tel": "549797260",
    "cct_url": null,
    "cat_vehicule_id": "1",
    "cat_vehicule_libelle": "Voiture Particulière",
    "cat_energie_id": "5",
    "cat_energie_libelle": "Electrique",
    "prix_visite": 72,
    "date_application_visite": "2020-09-11",
    "prix_contre_visite_min": 0,
    "prix_contre_visite_max": 25,
    "date_application_contre_visite": "2020-09-11",
    "cct_siret": 82293760300022,
    "latitude": 46.222071,
    "longitude": -0.638833,
    "coordgeo": {
      "lon": -0.638833,
      "lat": 46.222071
    },
    "cct_statut": "actif"
  },
  {
    "cct_code_dept": "Deux-Sèvres",
    "code_postal": null,
    "cct_code_commune": "Prin-Deyrançon",
    "cct_denomination": "SARL CT",
    "cct_adresse": "11 RUE DES ENTREPRISES",
    "cct_tel": "549797260",
    "cct_url": null,
    "cat_vehicule_id": "1",
    "cat_vehicule_libelle": "Voiture Particulière",
    "cat_energie_id": "1",
    "cat_energie_libelle": "Essence",
    "prix_visite": 72,
    "date_application_visite": "2020-09-11",
    "prix_contre_visite_min": 0,
    "prix_contre_visite_max": 25,
    "date_application_contre_visite": "2020-09-11",
    "cct_siret": 82293760300022,
    "latitude": 46.222071,
    "longitude": -0.638833,
    "coordgeo": {
      "lon": -0.638833,
      "lat": 46.222071
    },
    "cct_statut": "actif"
  },
  {
    "cct_code_dept": "Deux-Sèvres",
    "code_postal": null,
    "cct_code_commune": "Prin-Deyrançon",
    "cct_denomination": "SARL CT",
    "cct_adresse": "11 RUE DES ENTREPRISES",
    "cct_tel": "549797260",
    "cct_url": null,
    "cat_vehicule_id": "3",
    "cat_vehicule_libelle": "Voiture de collection",
    "cat_energie_id": "2",
    "cat_energie_libelle": "Diesel",
    "prix_visite": 72,
    "date_application_visite": "2020-09-11",
    "prix_contre_visite_min": 0,
    "prix_contre_visite_max": 25,
    "date_application_contre_visite": "2020-09-11",
    "cct_siret": 82293760300022,
    "latitude": 46.222071,
    "longitude": -0.638833,
    "coordgeo": {
      "lon": -0.638833,
      "lat": 46.222071
    },
    "cct_statut": "actif"
  },
  {
    "cct_code_dept": "Deux-Sèvres",
    "code_postal": null,
    "cct_code_commune": "Nueil-les-Aubiers",
    "cct_denomination": "SARL C.T.A",
    "cct_adresse": "LD LE LINEAU",
    "cct_tel": null,
    "cct_url": null,
    "cat_vehicule_id": "1",
    "cat_vehicule_libelle": "Voiture Particulière",
    "cat_energie_id": "2",
    "cat_energie_libelle": "Diesel",
    "prix_visite": 79,
    "date_application_visite": "2020-10-02",
    "prix_contre_visite_min": 20,
    "prix_contre_visite_max": 20,
    "date_application_contre_visite": "2020-10-02",
    "cct_siret": 41409085200016,
    "latitude": 46.933251,
    "longitude": -0.61847,
    "coordgeo": {
      "lon": -0.61847,
      "lat": 46.933251
    },
    "cct_statut": "actif"
  },
  {
    "cct_code_dept": "Deux-Sèvres",
    "code_postal": null,
    "cct_code_commune": "Nueil-les-Aubiers",
    "cct_denomination": "SARL C.T.A",
    "cct_adresse": "LD LE LINEAU",
    "cct_tel": null,
    "cct_url": null,
    "cat_vehicule_id": "1",
    "cat_vehicule_libelle": "Voiture Particulière",
    "cat_energie_id": "1",
    "cat_energie_libelle": "Essence",
    "prix_visite": 79,
    "date_application_visite": "2020-10-02",
    "prix_contre_visite_min": 20,
    "prix_contre_visite_max": 20,
    "date_application_contre_visite": "2020-10-02",
    "cct_siret": 41409085200016,
    "latitude": 46.933251,
    "longitude": -0.61847,
    "coordgeo": {
      "lon": -0.61847,
      "lat": 46.933251
    },
    "cct_statut": "actif"
  },
  {
    "cct_code_dept": "Deux-Sèvres",
    "code_postal": "79140",
    "cct_code_commune": "Cerizay",
    "cct_denomination": "SARL C.T.A",
    "cct_adresse": "RUE DE LA GOURRE D OR",
    "cct_tel": null,
    "cct_url": null,
    "cat_vehicule_id": "2",
    "cat_vehicule_libelle": "4 x 4",
    "cat_energie_id": "5",
    "cat_energie_libelle": "Electrique",
    "prix_visite": 79,
    "date_application_visite": "2020-10-02",
    "prix_contre_visite_min": 20,
    "prix_contre_visite_max": 20,
    "date_application_contre_visite": "2020-10-02",
    "cct_siret": 41409085200073,
    "latitude": 46.817124,
    "longitude": -0.66671,
    "coordgeo": {
      "lon": -0.66671,
      "lat": 46.817124
    },
    "cct_statut": "actif"
  },
  {
    "cct_code_dept": "Deux-Sèvres",
    "code_postal": "79230",
    "cct_code_commune": "Prahecq",
    "cct_denomination": "AUTO CONTROLE PRAHECQUOIS",
    "cct_adresse": "82 RUE MARIE CURIE",
    "cct_tel": "549798386",
    "cct_url": "https://ct.rdv-online.fr/497-Prahecq/rendez-vous",
    "cat_vehicule_id": "4",
    "cat_vehicule_libelle": "Camionnette",
    "cat_energie_id": "2",
    "cat_energie_libelle": "Diesel",
    "prix_visite": 71,
    "date_application_visite": "2022-01-03",
    "prix_contre_visite_min": 10,
    "prix_contre_visite_max": 15,
    "date_application_contre_visite": "2022-01-03",
    "cct_siret": 49354841600012,
    "latitude": 46.266691,
    "longitude": -0.368811,
    "coordgeo": {
      "lon": -0.368811,
      "lat": 46.266691
    },
    "cct_statut": "actif"
  },
  {
    "cct_code_dept": "Deux-Sèvres",
    "code_postal": "79230",
    "cct_code_commune": "Prahecq",
    "cct_denomination": "AUTO CONTROLE PRAHECQUOIS",
    "cct_adresse": "82 RUE MARIE CURIE",
    "cct_tel": "549798386",
    "cct_url": "https://ct.rdv-online.fr/497-Prahecq/rendez-vous",
    "cat_vehicule_id": "1",
    "cat_vehicule_libelle": "Voiture Particulière",
    "cat_energie_id": "2",
    "cat_energie_libelle": "Diesel",
    "prix_visite": 71,
    "date_application_visite": "2022-01-03",
    "prix_contre_visite_min": 10,
    "prix_contre_visite_max": 15,
    "date_application_contre_visite": "2020-09-03",
    "cct_siret": 49354841600012,
    "latitude": 46.266691,
    "longitude": -0.368811,
    "coordgeo": {
      "lon": -0.368811,
      "lat": 46.266691
    },
    "cct_statut": "actif"
  },
  {
    "cct_code_dept": "Deux-Sèvres",
    "code_postal": "79230",
    "cct_code_commune": "Prahecq",
    "cct_denomination": "AUTO CONTROLE PRAHECQUOIS",
    "cct_adresse": "82 RUE MARIE CURIE",
    "cct_tel": "549798386",
    "cct_url": "https://ct.rdv-online.fr/497-Prahecq/rendez-vous",
    "cat_vehicule_id": "1",
    "cat_vehicule_libelle": "Voiture Particulière",
    "cat_energie_id": "3",
    "cat_energie_libelle": "Gaz",
    "prix_visite": 78,
    "date_application_visite": "2022-01-03",
    "prix_contre_visite_min": 10,
    "prix_contre_visite_max": 15,
    "date_application_contre_visite": "2020-09-03",
    "cct_siret": 49354841600012,
    "latitude": 46.266691,
    "longitude": -0.368811,
    "coordgeo": {
      "lon": -0.368811,
      "lat": 46.266691
    },
    "cct_statut": "actif"
  },
  {
    "cct_code_dept": "Deux-Sèvres",
    "code_postal": "79230",
    "cct_code_commune": "Prahecq",
    "cct_denomination": "AUTO CONTROLE PRAHECQUOIS",
    "cct_adresse": "82 RUE MARIE CURIE",
    "cct_tel": "549798386",
    "cct_url": "https://ct.rdv-online.fr/497-Prahecq/rendez-vous",
    "cat_vehicule_id": "1",
    "cat_vehicule_libelle": "Voiture Particulière",
    "cat_energie_id": "4",
    "cat_energie_libelle": "Hybride",
    "prix_visite": 78,
    "date_application_visite": "2022-01-04",
    "prix_contre_visite_min": 10,
    "prix_contre_visite_max": 15,
    "date_application_contre_visite": "2020-09-03",
    "cct_siret": 49354841600012,
    "latitude": 46.266691,
    "longitude": -0.368811,
    "coordgeo": {
      "lon": -0.368811,
      "lat": 46.266691
    },
    "cct_statut": "actif"
  },
  {
    "cct_code_dept": "Deux-Sèvres",
    "code_postal": "79000",
    "cct_code_commune": "Niort",
    "cct_denomination": "CENTRE CONTROLE TECHNIQUE GIENNOIS",
    "cct_adresse": "RUE PAUL SABATIER",
    "cct_tel": null,
    "cct_url": null,
    "cat_vehicule_id": "2",
    "cat_vehicule_libelle": "4 x 4",
    "cat_energie_id": "5",
    "cat_energie_libelle": "Electrique",
    "prix_visite": 79,
    "date_application_visite": "2020-09-11",
    "prix_contre_visite_min": 10,
    "prix_contre_visite_max": 75,
    "date_application_contre_visite": "2020-09-11",
    "cct_siret": 38504867300037,
    "latitude": 46.313024,
    "longitude": -0.493414,
    "coordgeo": {
      "lon": -0.493414,
      "lat": 46.313024
    },
    "cct_statut": "actif"
  },
  {
    "cct_code_dept": "Deux-Sèvres",
    "code_postal": "79300",
    "cct_code_commune": "Bressuire",
    "cct_denomination": "SARL C.T.A",
    "cct_adresse": "81 BD DE THOUARS",
    "cct_tel": null,
    "cct_url": null,
    "cat_vehicule_id": "2",
    "cat_vehicule_libelle": "4 x 4",
    "cat_energie_id": "5",
    "cat_energie_libelle": "Electrique",
    "prix_visite": 79,
    "date_application_visite": "2020-10-02",
    "prix_contre_visite_min": 20,
    "prix_contre_visite_max": 20,
    "date_application_contre_visite": "2020-10-02",
    "cct_siret": 41409085200172,
    "latitude": 46.850476,
    "longitude": -0.466082,
    "coordgeo": {
      "lon": -0.466082,
      "lat": 46.850476
    },
    "cct_statut": "actif"
  },
  {
    "cct_code_dept": "Deux-Sèvres",
    "code_postal": "79300",
    "cct_code_commune": "Bressuire",
    "cct_denomination": "SARL C.T.A",
    "cct_adresse": "81 BD DE THOUARS",
    "cct_tel": null,
    "cct_url": null,
    "cat_vehicule_id": "5",
    "cat_vehicule_libelle": "Camping-car (moins de 3,5 tonnes)",
    "cat_energie_id": "3",
    "cat_energie_libelle": "Gaz",
    "prix_visite": 138,
    "date_application_visite": "2020-10-02",
    "prix_contre_visite_min": 20,
    "prix_contre_visite_max": 20,
    "date_application_contre_visite": "2020-10-02",
    "cct_siret": 41409085200172,
    "latitude": 46.850476,
    "longitude": -0.466082,
    "coordgeo": {
      "lon": -0.466082,
      "lat": 46.850476
    },
    "cct_statut": "actif"
  },
  {
    "cct_code_dept": "Deux-Sèvres",
    "code_postal": null,
    "cct_code_commune": "Moncoutant",
    "cct_denomination": "CONTROLE TECHNIQUE MONCOUTANTAIS",
    "cct_adresse": "6 IMP DES METIERS",
    "cct_tel": null,
    "cct_url": null,
    "cat_vehicule_id": "3",
    "cat_vehicule_libelle": "Voiture de collection",
    "cat_energie_id": "2",
    "cat_energie_libelle": "Diesel",
    "prix_visite": 65,
    "date_application_visite": "2020-09-08",
    "prix_contre_visite_min": 10,
    "prix_contre_visite_max": 20,
    "date_application_contre_visite": "2020-09-08",
    "cct_siret": 41966923900016,
    "latitude": 46.732258,
    "longitude": -0.581582,
    "coordgeo": {
      "lon": -0.581582,
      "lat": 46.732258
    },
    "cct_statut": "actif"
  },
  {
    "cct_code_dept": "Deux-Sèvres",
    "code_postal": "79200",
    "cct_code_commune": "Parthenay",
    "cct_denomination": "PARTHENAY AUTO BILAN",
    "cct_adresse": "7 BD BERNARD PALISSY",
    "cct_tel": "549952015",
    "cct_url": null,
    "cat_vehicule_id": "5",
    "cat_vehicule_libelle": "Camping-car (moins de 3,5 tonnes)",
    "cat_energie_id": "4",
    "cat_energie_libelle": "Hybride",
    "prix_visite": 80,
    "date_application_visite": "2018-05-21",
    "prix_contre_visite_min": 15,
    "prix_contre_visite_max": 35,
    "date_application_contre_visite": "2018-05-21",
    "cct_siret": 38838346500035,
    "latitude": 46.644402,
    "longitude": -0.226522,
    "coordgeo": {
      "lon": -0.226522,
      "lat": 46.644402
    },
    "cct_statut": "actif"
  },
  {
    "cct_code_dept": "Deux-Sèvres",
    "code_postal": "79000",
    "cct_code_commune": "Niort",
    "cct_denomination": "AUTO CONTROLE ST LIGUAIRE",
    "cct_adresse": "28 RUE DE PIED DE FOND",
    "cct_tel": "549282298",
    "cct_url": null,
    "cat_vehicule_id": "1",
    "cat_vehicule_libelle": "Voiture Particulière",
    "cat_energie_id": "4",
    "cat_energie_libelle": "Hybride",
    "prix_visite": 80,
    "date_application_visite": "2020-09-14",
    "prix_contre_visite_min": 10,
    "prix_contre_visite_max": 30,
    "date_application_contre_visite": "2020-09-14",
    "cct_siret": 82180126300012,
    "latitude": 46.311134,
    "longitude": -0.493254,
    "coordgeo": {
      "lon": -0.493254,
      "lat": 46.311134
    },
    "cct_statut": "actif"
  },
  {
    "cct_code_dept": "Deux-Sèvres",
    "code_postal": null,
    "cct_code_commune": "Saint-Maixent-l'École",
    "cct_denomination": "ST MAIXENT CONTROLE",
    "cct_adresse": "50 AV DU PRESIDENT WILSON",
    "cct_tel": "549060729",
    "cct_url": null,
    "cat_vehicule_id": "2",
    "cat_vehicule_libelle": "4 x 4",
    "cat_energie_id": "4",
    "cat_energie_libelle": "Hybride",
    "prix_visite": 71,
    "date_application_visite": "2020-09-02",
    "prix_contre_visite_min": 0,
    "prix_contre_visite_max": 25,
    "date_application_contre_visite": "2020-09-02",
    "cct_siret": 38767169600012,
    "latitude": 46.408452,
    "longitude": -0.220261,
    "coordgeo": {
      "lon": -0.220261,
      "lat": 46.408452
    },
    "cct_statut": "actif"
  },
  {
    "cct_code_dept": "Deux-Sèvres",
    "code_postal": null,
    "cct_code_commune": "Saint-Maixent-l'École",
    "cct_denomination": "ST MAIXENT CONTROLE",
    "cct_adresse": "50 AV DU PRESIDENT WILSON",
    "cct_tel": "549060729",
    "cct_url": null,
    "cat_vehicule_id": "4",
    "cat_vehicule_libelle": "Camionnette",
    "cat_energie_id": "3",
    "cat_energie_libelle": "Gaz",
    "prix_visite": 90,
    "date_application_visite": "2020-09-02",
    "prix_contre_visite_min": 0,
    "prix_contre_visite_max": 25,
    "date_application_contre_visite": "2020-09-02",
    "cct_siret": 38767169600012,
    "latitude": 46.408452,
    "longitude": -0.220261,
    "coordgeo": {
      "lon": -0.220261,
      "lat": 46.408452
    },
    "cct_statut": "actif"
  },
  {
    "cct_code_dept": "Deux-Sèvres",
    "code_postal": null,
    "cct_code_commune": "Chef-Boutonne",
    "cct_denomination": "CONTROLE TECHN. AUTOMOBILE SUD MELLOIS",
    "cct_adresse": "3 RTE DE MELLE",
    "cct_tel": "549296155",
    "cct_url": null,
    "cat_vehicule_id": "2",
    "cat_vehicule_libelle": "4 x 4",
    "cat_energie_id": "4",
    "cat_energie_libelle": "Hybride",
    "prix_visite": 80,
    "date_application_visite": "2023-01-01",
    "prix_contre_visite_min": 10,
    "prix_contre_visite_max": 25,
    "date_application_contre_visite": "2023-01-01",
    "cct_siret": 38508002300018,
    "latitude": 46.111681,
    "longitude": -0.086624,
    "coordgeo": {
      "lon": -0.086624,
      "lat": 46.111681
    },
    "cct_statut": "actif"
  },
  {
    "cct_code_dept": "Deux-Sèvres",
    "code_postal": null,
    "cct_code_commune": "Chef-Boutonne",
    "cct_denomination": "CONTROLE TECHN. AUTOMOBILE SUD MELLOIS",
    "cct_adresse": "3 RTE DE MELLE",
    "cct_tel": "549296155",
    "cct_url": null,
    "cat_vehicule_id": "4",
    "cat_vehicule_libelle": "Camionnette",
    "cat_energie_id": "2",
    "cat_energie_libelle": "Diesel",
    "prix_visite": 73,
    "date_application_visite": "2022-09-01",
    "prix_contre_visite_min": 10,
    "prix_contre_visite_max": 25,
    "date_application_contre_visite": "2022-09-01",
    "cct_siret": 38508002300018,
    "latitude": 46.111681,
    "longitude": -0.086624,
    "coordgeo": {
      "lon": -0.086624,
      "lat": 46.111681
    },
    "cct_statut": "actif"
  },
  {
    "cct_code_dept": "Deux-Sèvres",
    "code_postal": null,
    "cct_code_commune": "Chef-Boutonne",
    "cct_denomination": "CONTROLE TECHN. AUTOMOBILE SUD MELLOIS",
    "cct_adresse": "3 RTE DE MELLE",
    "cct_tel": "549296155",
    "cct_url": null,
    "cat_vehicule_id": "1",
    "cat_vehicule_libelle": "Voiture Particulière",
    "cat_energie_id": "5",
    "cat_energie_libelle": "Electrique",
    "prix_visite": 75,
    "date_application_visite": "2020-09-02",
    "prix_contre_visite_min": 10,
    "prix_contre_visite_max": 25,
    "date_application_contre_visite": "2020-09-02",
    "cct_siret": 38508002300018,
    "latitude": 46.111681,
    "longitude": -0.086624,
    "coordgeo": {
      "lon": -0.086624,
      "lat": 46.111681
    },
    "cct_statut": "actif"
  },
  {
    "cct_code_dept": "Deux-Sèvres",
    "code_postal": null,
    "cct_code_commune": "Chef-Boutonne",
    "cct_denomination": "CONTROLE TECHN. AUTOMOBILE SUD MELLOIS",
    "cct_adresse": "3 RTE DE MELLE",
    "cct_tel": "549296155",
    "cct_url": null,
    "cat_vehicule_id": "1",
    "cat_vehicule_libelle": "Voiture Particulière",
    "cat_energie_id": "4",
    "cat_energie_libelle": "Hybride",
    "prix_visite": 71,
    "date_application_visite": "2020-09-02",
    "prix_contre_visite_min": 10,
    "prix_contre_visite_max": 25,
    "date_application_contre_visite": "2020-09-02",
    "cct_siret": 38508002300018,
    "latitude": 46.111681,
    "longitude": -0.086624,
    "coordgeo": {
      "lon": -0.086624,
      "lat": 46.111681
    },
    "cct_statut": "actif"
  },
  {
    "cct_code_dept": "Deux-Sèvres",
    "code_postal": "79130",
    "cct_code_commune": "Secondigny",
    "cct_denomination": "CARLOVISION",
    "cct_adresse": "ZA DE BELLEVUE",
    "cct_tel": "549647429",
    "cct_url": null,
    "cat_vehicule_id": "5",
    "cat_vehicule_libelle": "Camping-car (moins de 3,5 tonnes)",
    "cat_energie_id": "2",
    "cat_energie_libelle": "Diesel",
    "prix_visite": 80,
    "date_application_visite": "2020-08-31",
    "prix_contre_visite_min": 0,
    "prix_contre_visite_max": 60,
    "date_application_contre_visite": "2020-08-31",
    "cct_siret": 50894325500010,
    "latitude": 46.609682,
    "longitude": -0.405387,
    "coordgeo": {
      "lon": -0.405387,
      "lat": 46.609682
    },
    "cct_statut": "actif"
  },
  {
    "cct_code_dept": "Deux-Sèvres",
    "code_postal": "79130",
    "cct_code_commune": "Secondigny",
    "cct_denomination": "CARLOVISION",
    "cct_adresse": "ZA DE BELLEVUE",
    "cct_tel": "549647429",
    "cct_url": null,
    "cat_vehicule_id": "5",
    "cat_vehicule_libelle": "Camping-car (moins de 3,5 tonnes)",
    "cat_energie_id": "1",
    "cat_energie_libelle": "Essence",
    "prix_visite": 80,
    "date_application_visite": "2020-08-31",
    "prix_contre_visite_min": 0,
    "prix_contre_visite_max": 60,
    "date_application_contre_visite": "2020-08-31",
    "cct_siret": 50894325500010,
    "latitude": 46.609682,
    "longitude": -0.405387,
    "coordgeo": {
      "lon": -0.405387,
      "lat": 46.609682
    },
    "cct_statut": "actif"
  },
  {
    "cct_code_dept": "Deux-Sèvres",
    "code_postal": "35420",
    "cct_code_commune": "Melle",
    "cct_denomination": "CONTROLE TECHN. AUTOMOBILE SUD MELLOIS",
    "cct_adresse": "6 RUE DE LA MAIRIE",
    "cct_tel": "549079034",
    "cct_url": null,
    "cat_vehicule_id": "2",
    "cat_vehicule_libelle": "4 x 4",
    "cat_energie_id": "4",
    "cat_energie_libelle": "Hybride",
    "prix_visite": 78,
    "date_application_visite": "2023-01-01",
    "prix_contre_visite_min": 10,
    "prix_contre_visite_max": 25,
    "date_application_contre_visite": "2020-09-02",
    "cct_siret": 38508002300034,
    "latitude": 46.180012,
    "longitude": -0.164406,
    "coordgeo": {
      "lon": -0.164406,
      "lat": 46.180012
    },
    "cct_statut": "actif"
  },
  {
    "cct_code_dept": "Deux-Sèvres",
    "code_postal": "79500",
    "cct_code_commune": "Melle",
    "cct_denomination": "CONTROLE TECHN. AUTOMOBILE SUD MELLOIS",
    "cct_adresse": "6 RUE DE LA MAIRIE",
    "cct_tel": "549079034",
    "cct_url": null,
    "cat_vehicule_id": "5",
    "cat_vehicule_libelle": "Camping-car (moins de 3,5 tonnes)",
    "cat_energie_id": "4",
    "cat_energie_libelle": "Hybride",
    "prix_visite": 75,
    "date_application_visite": "2020-09-02",
    "prix_contre_visite_min": 10,
    "prix_contre_visite_max": 25,
    "date_application_contre_visite": "2020-09-02",
    "cct_siret": 38508002300034,
    "latitude": 46.180012,
    "longitude": -0.164406,
    "coordgeo": {
      "lon": -0.164406,
      "lat": 46.180012
    },
    "cct_statut": "actif"
  },
  {
    "cct_code_dept": "Deux-Sèvres",
    "code_postal": "79000",
    "cct_code_commune": "Niort",
    "cct_denomination": "SARL AUTO CONTROLE GORITA (A.C.G.)",
    "cct_adresse": "358 RTE D AIFFRES",
    "cct_tel": "549096497",
    "cct_url": null,
    "cat_vehicule_id": "3",
    "cat_vehicule_libelle": "Voiture de collection",
    "cat_energie_id": "4",
    "cat_energie_libelle": "Hybride",
    "prix_visite": 80,
    "date_application_visite": "2020-09-10",
    "prix_contre_visite_min": 10,
    "prix_contre_visite_max": 30,
    "date_application_contre_visite": "2020-09-10",
    "cct_siret": 49899130600016,
    "latitude": 46.304651,
    "longitude": -0.438981,
    "coordgeo": {
      "lon": -0.438981,
      "lat": 46.304651
    },
    "cct_statut": "actif"
  },
  {
    "cct_code_dept": "Deux-Sèvres",
    "code_postal": null,
    "cct_code_commune": "Magné",
    "cct_denomination": "CONTROLE TECHNIQUE DU MARAIS POITEVIN",
    "cct_adresse": "2 ALL DE L'ARTISANAT",
    "cct_tel": "549244093",
    "cct_url": "https://www.autosecuritas-ct-du-marais-poitevin-magne.fr/",
    "cat_vehicule_id": "3",
    "cat_vehicule_libelle": "Voiture de collection",
    "cat_energie_id": "2",
    "cat_energie_libelle": "Diesel",
    "prix_visite": 72,
    "date_application_visite": "2020-09-04",
    "prix_contre_visite_min": 0,
    "prix_contre_visite_max": 30,
    "date_application_contre_visite": "2020-09-04",
    "cct_siret": 82012043400015,
    "latitude": 46.31909,
    "longitude": -0.561731,
    "coordgeo": {
      "lon": -0.561731,
      "lat": 46.31909
    },
    "cct_statut": "actif"
  },
  {
    "cct_code_dept": "Deux-Sèvres",
    "code_postal": "79100",
    "cct_code_commune": "Thouars",
    "cct_denomination": "AUBOUR CONTROLE THOUARSAIS",
    "cct_adresse": "ZI DE LA CROIX D INGAND",
    "cct_tel": "970191275",
    "cct_url": null,
    "cat_vehicule_id": "3",
    "cat_vehicule_libelle": "Voiture de collection",
    "cat_energie_id": "1",
    "cat_energie_libelle": "Essence",
    "prix_visite": 76,
    "date_application_visite": "2020-09-05",
    "prix_contre_visite_min": 15,
    "prix_contre_visite_max": 30,
    "date_application_contre_visite": "2020-09-05",
    "cct_siret": 87753546800020,
    "latitude": null,
    "longitude": null,
    "coordgeo": null,
    "cct_statut": "actif"
  },
  {
    "cct_code_dept": "Deux-Sèvres",
    "code_postal": null,
    "cct_code_commune": "Celles-sur-Belle",
    "cct_denomination": "SARL AUTO CONTROLE NIORTAIS",
    "cct_adresse": "CHEMIN DE LA TONNELLE",
    "cct_tel": "684647437",
    "cct_url": null,
    "cat_vehicule_id": "5",
    "cat_vehicule_libelle": "Camping-car (moins de 3,5 tonnes)",
    "cat_energie_id": "2",
    "cat_energie_libelle": "Diesel",
    "prix_visite": 75,
    "date_application_visite": "2020-11-03",
    "prix_contre_visite_min": 0,
    "prix_contre_visite_max": 35,
    "date_application_contre_visite": "2020-11-03",
    "cct_siret": 38787032200055,
    "latitude": 46.269225,
    "longitude": -0.223594,
    "coordgeo": {
      "lon": -0.223594,
      "lat": 46.269225
    },
    "cct_statut": "actif"
  },
  {
    "cct_code_dept": "Deux-Sèvres",
    "code_postal": null,
    "cct_code_commune": "Celles-sur-Belle",
    "cct_denomination": "SARL AUTO CONTROLE NIORTAIS",
    "cct_adresse": "CHEMIN DE LA TONNELLE",
    "cct_tel": "684647437",
    "cct_url": null,
    "cat_vehicule_id": "1",
    "cat_vehicule_libelle": "Voiture Particulière",
    "cat_energie_id": "1",
    "cat_energie_libelle": "Essence",
    "prix_visite": 75,
    "date_application_visite": "2020-11-03",
    "prix_contre_visite_min": 0,
    "prix_contre_visite_max": 35,
    "date_application_contre_visite": "2020-11-03",
    "cct_siret": 38787032200055,
    "latitude": 46.269225,
    "longitude": -0.223594,
    "coordgeo": {
      "lon": -0.223594,
      "lat": 46.269225
    },
    "cct_statut": "actif"
  },
  {
    "cct_code_dept": "Deux-Sèvres",
    "code_postal": "79180",
    "cct_code_commune": "Chauray",
    "cct_denomination": "AUTOMOBILE CLUB DES DEUX SEVRES-CONTROLE TECHNIQUE",
    "cct_adresse": "5 BD AMPERE",
    "cct_tel": "549242678",
    "cct_url": null,
    "cat_vehicule_id": "1",
    "cat_vehicule_libelle": "Voiture Particulière",
    "cat_energie_id": "2",
    "cat_energie_libelle": "Diesel",
    "prix_visite": 76,
    "date_application_visite": "2020-09-02",
    "prix_contre_visite_min": 5,
    "prix_contre_visite_max": 20,
    "date_application_contre_visite": "2020-09-02",
    "cct_siret": 80925710800039,
    "latitude": 46.339625,
    "longitude": -0.382122,
    "coordgeo": {
      "lon": -0.382122,
      "lat": 46.339625
    },
    "cct_statut": "actif"
  },
  {
    "cct_code_dept": "Deux-Sèvres",
    "code_postal": "79200",
    "cct_code_commune": "Parthenay",
    "cct_denomination": "AUTOMOBILE CLUB DES DEUX SEVRES-CONTROLE TECHNIQUE",
    "cct_adresse": "RUE LEONARD DE VINCI",
    "cct_tel": "549946130",
    "cct_url": null,
    "cat_vehicule_id": "2",
    "cat_vehicule_libelle": "4 x 4",
    "cat_energie_id": "5",
    "cat_energie_libelle": "Electrique",
    "prix_visite": 82,
    "date_application_visite": "2020-09-02",
    "prix_contre_visite_min": 5,
    "prix_contre_visite_max": 20,
    "date_application_contre_visite": "2020-09-02",
    "cct_siret": 80925710800021,
    "latitude": 46.650998,
    "longitude": -0.227775,
    "coordgeo": {
      "lon": -0.227775,
      "lat": 46.650998
    },
    "cct_statut": "actif"
  },
  {
    "cct_code_dept": "Deux-Sèvres",
    "code_postal": "79200",
    "cct_code_commune": "Parthenay",
    "cct_denomination": "AUTOMOBILE CLUB DES DEUX SEVRES-CONTROLE TECHNIQUE",
    "cct_adresse": "RUE LEONARD DE VINCI",
    "cct_tel": "549946130",
    "cct_url": null,
    "cat_vehicule_id": "4",
    "cat_vehicule_libelle": "Camionnette",
    "cat_energie_id": "2",
    "cat_energie_libelle": "Diesel",
    "prix_visite": 80,
    "date_application_visite": "2020-09-02",
    "prix_contre_visite_min": 5,
    "prix_contre_visite_max": 20,
    "date_application_contre_visite": "2020-09-02",
    "cct_siret": 80925710800021,
    "latitude": 46.650998,
    "longitude": -0.227775,
    "coordgeo": {
      "lon": -0.227775,
      "lat": 46.650998
    },
    "cct_statut": "actif"
  },
  {
    "cct_code_dept": "Deux-Sèvres",
    "code_postal": "79200",
    "cct_code_commune": "Parthenay",
    "cct_denomination": "AUTOMOBILE CLUB DES DEUX SEVRES-CONTROLE TECHNIQUE",
    "cct_adresse": "RUE LEONARD DE VINCI",
    "cct_tel": "549946130",
    "cct_url": null,
    "cat_vehicule_id": "4",
    "cat_vehicule_libelle": "Camionnette",
    "cat_energie_id": "3",
    "cat_energie_libelle": "Gaz",
    "prix_visite": 110,
    "date_application_visite": "2020-09-02",
    "prix_contre_visite_min": 5,
    "prix_contre_visite_max": 20,
    "date_application_contre_visite": "2020-09-02",
    "cct_siret": 80925710800021,
    "latitude": 46.650998,
    "longitude": -0.227775,
    "coordgeo": {
      "lon": -0.227775,
      "lat": 46.650998
    },
    "cct_statut": "actif"
  },
  {
    "cct_code_dept": "Deux-Sèvres",
    "code_postal": "79200",
    "cct_code_commune": "Parthenay",
    "cct_denomination": "AUTOMOBILE CLUB DES DEUX SEVRES-CONTROLE TECHNIQUE",
    "cct_adresse": "RUE LEONARD DE VINCI",
    "cct_tel": "549946130",
    "cct_url": null,
    "cat_vehicule_id": "4",
    "cat_vehicule_libelle": "Camionnette",
    "cat_energie_id": "4",
    "cat_energie_libelle": "Hybride",
    "prix_visite": 80,
    "date_application_visite": "2020-09-02",
    "prix_contre_visite_min": 5,
    "prix_contre_visite_max": 20,
    "date_application_contre_visite": "2020-09-02",
    "cct_siret": 80925710800021,
    "latitude": 46.650998,
    "longitude": -0.227775,
    "coordgeo": {
      "lon": -0.227775,
      "lat": 46.650998
    },
    "cct_statut": "actif"
  },
  {
    "cct_code_dept": "Deux-Sèvres",
    "code_postal": "79200",
    "cct_code_commune": "Parthenay",
    "cct_denomination": "AUTOMOBILE CLUB DES DEUX SEVRES-CONTROLE TECHNIQUE",
    "cct_adresse": "RUE LEONARD DE VINCI",
    "cct_tel": "549946130",
    "cct_url": null,
    "cat_vehicule_id": "5",
    "cat_vehicule_libelle": "Camping-car (moins de 3,5 tonnes)",
    "cat_energie_id": "2",
    "cat_energie_libelle": "Diesel",
    "prix_visite": 80,
    "date_application_visite": "2020-09-02",
    "prix_contre_visite_min": 5,
    "prix_contre_visite_max": 20,
    "date_application_contre_visite": "2020-09-02",
    "cct_siret": 80925710800021,
    "latitude": 46.650998,
    "longitude": -0.227775,
    "coordgeo": {
      "lon": -0.227775,
      "lat": 46.650998
    },
    "cct_statut": "actif"
  },
  {
    "cct_code_dept": "Deux-Sèvres",
    "code_postal": "79000",
    "cct_code_commune": "Niort",
    "cct_denomination": "AUTOMOBILE CLUB DES DEUX SEVRES-CONTROLE TECHNIQUE",
    "cct_adresse": "49 AV DE LA ROCHELLE",
    "cct_tel": "549060707",
    "cct_url": null,
    "cat_vehicule_id": "4",
    "cat_vehicule_libelle": "Camionnette",
    "cat_energie_id": "5",
    "cat_energie_libelle": "Electrique",
    "prix_visite": 76,
    "date_application_visite": "2020-08-31",
    "prix_contre_visite_min": 5,
    "prix_contre_visite_max": 20,
    "date_application_contre_visite": "2020-08-31",
    "cct_siret": 80925710800013,
    "latitude": 46.319651,
    "longitude": -0.468002,
    "coordgeo": {
      "lon": -0.468002,
      "lat": 46.319651
    },
    "cct_statut": "actif"
  },
  {
    "cct_code_dept": "Deux-Sèvres",
    "code_postal": null,
    "cct_code_commune": "Mauléon",
    "cct_denomination": "SARL C.T.A",
    "cct_adresse": "38 RUE DE POITIERS",
    "cct_tel": null,
    "cct_url": null,
    "cat_vehicule_id": "2",
    "cat_vehicule_libelle": "4 x 4",
    "cat_energie_id": "1",
    "cat_energie_libelle": "Essence",
    "prix_visite": 79,
    "date_application_visite": "2020-10-02",
    "prix_contre_visite_min": 20,
    "prix_contre_visite_max": 20,
    "date_application_contre_visite": "2020-10-02",
    "cct_siret": 41409085200180,
    "latitude": 46.921298,
    "longitude": -0.737032,
    "coordgeo": {
      "lon": -0.737032,
      "lat": 46.921298
    },
    "cct_statut": "actif"
  },
  {
    "cct_code_dept": "Deux-Sèvres",
    "code_postal": "79200",
    "cct_code_commune": "Parthenay",
    "cct_denomination": "CENTRE DE CONTROLE AUTOMOBILE GATINAIS",
    "cct_adresse": "3 RUE DE LA MARNE",
    "cct_tel": "549952067",
    "cct_url": "https://www.controle-technique-dekra-parthenay79.fr/centre-controle-technique-parthenay.html",
    "cat_vehicule_id": "1",
    "cat_vehicule_libelle": "Voiture Particulière",
    "cat_energie_id": "2",
    "cat_energie_libelle": "Diesel",
    "prix_visite": 80,
    "date_application_visite": "2020-10-21",
    "prix_contre_visite_min": 15,
    "prix_contre_visite_max": 35,
    "date_application_contre_visite": "2020-10-21",
    "cct_siret": 34227080800021,
    "latitude": 46.642447,
    "longitude": -0.231014,
    "coordgeo": {
      "lon": -0.231014,
      "lat": 46.642447
    },
    "cct_statut": "actif"
  },