[
  {
    "cct_code_dept": "Eure-et-Loir",
    "code_postal": "78540",
    "cct_code_commune": "Vernouillet",
    "cct_denomination": "CENTRE TECHNIQUE AUTOMOBILE BOUMERAH",
    "cct_adresse": "AV MARC CHAPPEY",
    "cct_tel": "237625695",
    "cct_url": "https://controle-technique-vernouillet.autosecurite.com/",
    "cat_vehicule_id": "1",
    "cat_vehicule_libelle": "Voiture Particulière",
    "cat_energie_id": "4",
    "cat_energie_libelle": "Hybride",
    "prix_visite": 85,
    "date_application_visite": "2020-09-15",
    "prix_contre_visite_min": 10,
    "prix_contre_visite_max": 35,
    "date_application_contre_visite": "2020-09-15",
    "cct_siret": 41945892200020,
    "latitude": 48.730709,
    "longitude": 1.339645,
    "coordgeo": {
      "lon": 1.339645,
      "lat": 48.730709
    },
    "cct_statut": "actif"
  },
  {
    "cct_code_dept": "Eure-et-Loir",
    "code_postal": "28320",
    "cct_code_commune": "Gallardon",
    "cct_denomination": "EURL AUTO SECURITE GALLARDON",
    "cct_adresse": "23  ZA SAINT  MATHIEU",
    "cct_tel": "237907037",
    "cct_url": null,
    "cat_vehicule_id": "2",
    "cat_vehicule_libelle": "4 x 4",
    "cat_energie_id": "2",
    "cat_energie_libelle": "Diesel",
    "prix_visite": 82,
    "date_application_visite": "2020-09-08",
    "prix_contre_visite_min": 10,
    "prix_contre_visite_max": 26,
    "date_application_contre_visite": "2020-09-08",
    "cct_siret": 51254001400010,
    "latitude": 48.531083,
    "longitude": 1.676842,
    "coordgeo": {
      "lon": 1.676842,
      "lat": 48.531083
    },
    "cct_statut": "actif"
  },
  {
    "cct_code_dept": "Eure-et-Loir",
    "code_postal": "28130",
    "cct_code_commune": "Pierres",
    "cct_denomination": "CONTROLE TECHNIQUE VANESSA FROUDIERE",
    "cct_adresse": "RTE DE BOUGLAINVAL",
    "cct_tel": "237185305",
    "cct_url": null,
    "cat_vehicule_id": "1",
    "cat_vehicule_libelle": "Voiture Particulière",
    "cat_energie_id": "3",
    "cat_energie_libelle": "Gaz",
    "prix_visite": 105,
    "date_application_visite": "2020-09-15",
    "prix_contre_visite_min": 12,
    "prix_contre_visite_max": 38,
    "date_application_contre_visite": "2020-09-15",
    "cct_siret": 87748533400016,
    "latitude": 48.583551,
    "longitude": 1.574718,
    "coordgeo": {
      "lon": 1.574718,
      "lat": 48.583551
    },
    "cct_statut": "actif"
  },
  {
    "cct_code_dept": "Eure-et-Loir",
    "code_postal": "28600",
    "cct_code_commune": "Luisant",
    "cct_denomination": "AUTO CONTROLE TECHNIQUE BGF-ACTBGF",
    "cct_adresse": "8 RUE JEAN PERRIN",
    "cct_tel": "237907474",
    "cct_url": null,
    "cat_vehicule_id": "5",
    "cat_vehicule_libelle": "Camping-car (moins de 3,5 tonnes)",
    "cat_energie_id": "3",
    "cat_energie_libelle": "Gaz",
    "prix_visite": 90,
    "date_application_visite": "2020-09-08",
    "prix_contre_visite_min": 10,
    "prix_contre_visite_max": 30,
    "date_application_contre_visite": "2020-09-08",
    "cct_siret": 41232511000010,
    "latitude": 48.418391,
    "longitude": 1.448942,
    "coordgeo": {
      "lon": 1.448942,
      "lat": 48.418391
    },
    "cct_statut": "actif"
  },
  {
    "cct_code_dept": "Eure-et-Loir",
    "code_postal": "28600",
    "cct_code_commune": "Luisant",
    "cct_denomination": "AUTO CONTROLE TECHNIQUE BGF-ACTBGF",
    "cct_adresse": "8 RUE JEAN PERRIN",
    "cct_tel": "237907474",
    "cct_url": null,
    "cat_vehicule_id": "3",
    "cat_vehicule_libelle": "Voiture de collection",
    "cat_energie_id": "2",
    "cat_energie_libelle": "Diesel",
    "prix_visite": 85,
    "date_application_visite": "2023-01-01",
    "prix_contre_visite_min": 20,
    "prix_contre_visite_max": 35,
    "date_application_contre_visite": "2023-01-01",
    "cct_siret": 41232511000010,
    "latitude": 48.418391,
    "longitude": 1.448942,
    "coordgeo": {
      "lon": 1.448942,
      "lat": 48.418391
    },
    "cct_statut": "actif"
  },
  {
    "cct_code_dept": "Eure-et-Loir",
    "code_postal": null,
    "cct_code_commune": "Lucé",
    "cct_denomination": "CONTROLE TECHNIQUE FL",
    "cct_adresse": "Route Du Mans",
    "cct_tel": "237284703",
    "cct_url": null,
    "cat_vehicule_id": "5",
    "cat_vehicule_libelle": "Camping-car (moins de 3,5 tonnes)",
    "cat_energie_id": "4",
    "cat_energie_libelle": "Hybride",
    "prix_visite": 95,
    "date_application_visite": "2023-01-01",
    "prix_contre_visite_min": 20,
    "prix_contre_visite_max": 30,
    "date_application_contre_visite": "2023-01-01",
    "cct_siret": 82933737700016,
    "latitude": 48.437057,
    "longitude": 1.452004,
    "coordgeo": {
      "lon": 1.452004,
      "lat": 48.437057
    },
    "cct_statut": "actif"
  },
  {
    "cct_code_dept": "Eure-et-Loir",
    "code_postal": null,
    "cct_code_commune": "Lucé",
    "cct_denomination": "CONTROLE TECHNIQUE FL",
    "cct_adresse": "Route Du Mans",
    "cct_tel": "237284703",
    "cct_url": null,
    "cat_vehicule_id": "1",
    "cat_vehicule_libelle": "Voiture Particulière",
    "cat_energie_id": "4",
    "cat_energie_libelle": "Hybride",
    "prix_visite": 95,
    "date_application_visite": "2023-01-01",
    "prix_contre_visite_min": 20,
    "prix_contre_visite_max": 30,
    "date_application_contre_visite": "2023-01-01",
    "cct_siret": 82933737700016,
    "latitude": 48.437057,
    "longitude": 1.452004,
    "coordgeo": {
      "lon": 1.452004,
      "lat": 48.437057
    },
    "cct_statut": "actif"
  },
  {
    "cct_code_dept": "Eure-et-Loir",
    "code_postal": null,
    "cct_code_commune": "Lucé",
    "cct_denomination": "CONTROLE TECHNIQUE FL",
    "cct_adresse": "Route Du Mans",
    "cct_tel": "237284703",
    "cct_url": null,
    "cat_vehicule_id": "3",
    "cat_vehicule_libelle": "Voiture de collection",
    "cat_energie_id": "5",
    "cat_energie_libelle": "Electrique",
    "prix_visite": 90,
    "date_application_visite": "2020-09-15",
    "prix_contre_visite_min": 5,
    "prix_contre_visite_max": 30,
    "date_application_contre_visite": "2020-09-15",
    "cct_siret": 82933737700016,
    "latitude": 48.437057,
    "longitude": 1.452004,
    "coordgeo": {
      "lon": 1.452004,
      "lat": 48.437057
    },
    "cct_statut": "actif"
  },
  {
    "cct_code_dept": "Eure-et-Loir",
    "code_postal": null,
    "cct_code_commune": "Lucé",
    "cct_denomination": "CONTROLE TECHNIQUE FL",
    "cct_adresse": "Route Du Mans",
    "cct_tel": "237284703",
    "cct_url": null,
    "cat_vehicule_id": "3",
    "cat_vehicule_libelle": "Voiture de collection",
    "cat_energie_id": "3",
    "cat_energie_libelle": "Gaz",
    "prix_visite": 90,
    "date_application_visite": "2020-09-15",
    "prix_contre_visite_min": 5,
    "prix_contre_visite_max": 30,
    "date_application_contre_visite": "2020-09-15",
    "cct_siret": 82933737700016,
    "latitude": 48.437057,
    "longitude": 1.452004,
    "coordgeo": {
      "lon": 1.452004,
      "lat": 48.437057
    },
    "cct_statut": "actif"
  },
  {
    "cct_code_dept": "Eure-et-Loir",
    "code_postal": "28630",
    "cct_code_commune": "Gellainville",
    "cct_denomination": "ACTBJ",
    "cct_adresse": "7 RUE HELENE BOUCHER",
    "cct_tel": "237333228",
    "cct_url": null,
    "cat_vehicule_id": "4",
    "cat_vehicule_libelle": "Camionnette",
    "cat_energie_id": "1",
    "cat_energie_libelle": "Essence",
    "prix_visite": 90,
    "date_application_visite": "2020-09-14",
    "prix_contre_visite_min": 15,
    "prix_contre_visite_max": 30,
    "date_application_contre_visite": "2020-09-14",
    "cct_siret": 88234940000011,
    "latitude": 48.43377,
    "longitude": 1.53262,
    "coordgeo": {
      "lon": 1.53262,
      "lat": 48.43377
    },
    "cct_statut": "actif"
  },
  {
    "cct_code_dept": "Eure-et-Loir",
    "code_postal": "28630",
    "cct_code_commune": "Gellainville",
    "cct_denomination": "ACTBJ",
    "cct_adresse": "7 RUE HELENE BOUCHER",
    "cct_tel": "237333228",
    "cct_url": null,
    "cat_vehicule_id": "1",
    "cat_vehicule_libelle": "Voiture Particulière",
    "cat_energie_id": "4",
    "cat_energie_libelle": "Hybride",
    "prix_visite": 90,
    "date_application_visite": "2020-09-14",
    "prix_contre_visite_min": 15,
    "prix_contre_visite_max": 30,
    "date_application_contre_visite": "2020-09-14",
    "cct_siret": 88234940000011,
    "latitude": 48.43377,
    "longitude": 1.53262,
    "coordgeo": {
      "lon": 1.53262,
      "lat": 48.43377
    },
    "cct_statut": "actif"
  },
  {
    "cct_code_dept": "Eure-et-Loir",
    "code_postal": "28630",
    "cct_code_commune": "Gellainville",
    "cct_denomination": "ACTBJ",
    "cct_adresse": "7 RUE HELENE BOUCHER",
    "cct_tel": "237333228",
    "cct_url": null,
    "cat_vehicule_id": "3",
    "cat_vehicule_libelle": "Voiture de collection",
    "cat_energie_id": "4",
    "cat_energie_libelle": "Hybride",
    "prix_visite": 90,
    "date_application_visite": "2020-09-14",
    "prix_contre_visite_min": 15,
    "prix_contre_visite_max": 30,
    "date_application_contre_visite": "2020-09-14",
    "cct_siret": 88234940000011,
    "latitude": 48.43377,
    "longitude": 1.53262,
    "coordgeo": {
      "lon": 1.53262,
      "lat": 48.43377
    },
    "cct_statut": "actif"
  },
  {
    "cct_code_dept": "Eure-et-Loir",
    "code_postal": "28260",
    "cct_code_commune": "Saussay",
    "cct_denomination": "CONTROLE TECHNIQUE AUTOMOBILE DES AULNES",
    "cct_adresse": "50 RUE D'ANET",
    "cct_tel": "237622200",
    "cct_url": "https://controletechniqueaulnes.autosecurite.com",
    "cat_vehicule_id": "4",
    "cat_vehicule_libelle": "Camionnette",
    "cat_energie_id": "5",
    "cat_energie_libelle": "Electrique",
    "prix_visite": 83,
    "date_application_visite": "2020-09-17",
    "prix_contre_visite_min": 20,
    "prix_contre_visite_max": 35,
    "date_application_contre_visite": "2020-09-17",
    "cct_siret": 41437630100019,
    "latitude": 48.858949,
    "longitude": 1.424588,
    "coordgeo": {
      "lon": 1.424588,
      "lat": 48.858949
    },
    "cct_statut": "actif"
  },
  {
    "cct_code_dept": "Eure-et-Loir",
    "code_postal": "28260",
    "cct_code_commune": "Saussay",
    "cct_denomination": "CONTROLE TECHNIQUE AUTOMOBILE DES AULNES",
    "cct_adresse": "50 RUE D'ANET",
    "cct_tel": "237622200",
    "cct_url": "https://controletechniqueaulnes.autosecurite.com",
    "cat_vehicule_id": "1",
    "cat_vehicule_libelle": "Voiture Particulière",
    "cat_energie_id": "4",
    "cat_energie_libelle": "Hybride",
    "prix_visite": 83,
    "date_application_visite": "2020-09-17",
    "prix_contre_visite_min": 20,
    "prix_contre_visite_max": 35,
    "date_application_contre_visite": "2020-09-17",
    "cct_siret": 41437630100019,
    "latitude": 48.858949,
    "longitude": 1.424588,
    "coordgeo": {
      "lon": 1.424588,
      "lat": 48.858949
    },
    "cct_statut": "actif"
  },
  {
    "cct_code_dept": "Eure-et-Loir",
    "code_postal": null,
    "cct_code_commune": "Nogent-le-Phaye",
    "cct_denomination": "ABC ARCHEVILLIERS",
    "cct_adresse": "14 RUE GILLES DE ROBERVAL",
    "cct_tel": "237300318",
    "cct_url": null,
    "cat_vehicule_id": "5",
    "cat_vehicule_libelle": "Camping-car (moins de 3,5 tonnes)",
    "cat_energie_id": "4",
    "cat_energie_libelle": "Hybride",
    "prix_visite": 98,
    "date_application_visite": "2020-09-01",
    "prix_contre_visite_min": 90,
    "prix_contre_visite_max": 98,
    "date_application_contre_visite": "2020-09-01",
    "cct_siret": 81409878600019,
    "latitude": 48.454124,
    "longitude": 1.545617,
    "coordgeo": {
      "lon": 1.545617,
      "lat": 48.454124
    },
    "cct_statut": "actif"
  },
  {
    "cct_code_dept": "Eure-et-Loir",
    "code_postal": null,
    "cct_code_commune": "Nogent-le-Phaye",
    "cct_denomination": "ABC ARCHEVILLIERS",
    "cct_adresse": "14 RUE GILLES DE ROBERVAL",
    "cct_tel": "237300318",
    "cct_url": null,
    "cat_vehicule_id": "1",
    "cat_vehicule_libelle": "Voiture Particulière",
    "cat_energie_id": "2",
    "cat_energie_libelle": "Diesel",
    "prix_visite": 82,
    "date_application_visite": "2023-03-01",
    "prix_contre_visite_min": 10,
    "prix_contre_visite_max": 15,
    "date_application_contre_visite": "2023-03-01",
    "cct_siret": 81409878600019,
    "latitude": 48.454124,
    "longitude": 1.545617,
    "coordgeo": {
      "lon": 1.545617,
      "lat": 48.454124
    },
    "cct_statut": "actif"
  },
  {
    "cct_code_dept": "Eure-et-Loir",
    "code_postal": null,
    "cct_code_commune": "Nogent-le-Phaye",
    "cct_denomination": "ABC ARCHEVILLIERS",
    "cct_adresse": "14 RUE GILLES DE ROBERVAL",
    "cct_tel": "237300318",
    "cct_url": null,
    "cat_vehicule_id": "1",
    "cat_vehicule_libelle": "Voiture Particulière",
    "cat_energie_id": "4",
    "cat_energie_libelle": "Hybride",
    "prix_visite": 93,
    "date_application_visite": "2020-09-01",
    "prix_contre_visite_min": 85,
    "prix_contre_visite_max": 93,
    "date_application_contre_visite": "2020-09-01",
    "cct_siret": 81409878600019,
    "latitude": 48.454124,
    "longitude": 1.545617,
    "coordgeo": {
      "lon": 1.545617,
      "lat": 48.454124
    },
    "cct_statut": "actif"
  },
  {
    "cct_code_dept": "Eure-et-Loir",
    "code_postal": null,
    "cct_code_commune": "Nogent-le-Phaye",
    "cct_denomination": "ABC ARCHEVILLIERS",
    "cct_adresse": "14 RUE GILLES DE ROBERVAL",
    "cct_tel": "237300318",
    "cct_url": null,
    "cat_vehicule_id": "3",
    "cat_vehicule_libelle": "Voiture de collection",
    "cat_energie_id": "1",
    "cat_energie_libelle": "Essence",
    "prix_visite": 78,
    "date_application_visite": "2020-09-01",
    "prix_contre_visite_min": 70,
    "prix_contre_visite_max": 78,
    "date_application_contre_visite": "2020-09-01",
    "cct_siret": 81409878600019,
    "latitude": 48.454124,
    "longitude": 1.545617,
    "coordgeo": {
      "lon": 1.545617,
      "lat": 48.454124
    },
    "cct_statut": "actif"
  },
  {
    "cct_code_dept": "Eure-et-Loir",
    "code_postal": null,
    "cct_code_commune": "Nogent-le-Roi",
    "cct_denomination": "NOGENTAISE AUTOMOBILE CONTROLE",
    "cct_adresse": "65 RUE DU FAUBOURG VALMORIN",
    "cct_tel": "237514841",
    "cct_url": null,
    "cat_vehicule_id": "4",
    "cat_vehicule_libelle": "Camionnette",
    "cat_energie_id": "3",
    "cat_energie_libelle": "Gaz",
    "prix_visite": 80,
    "date_application_visite": "2021-04-22",
    "prix_contre_visite_min": 25,
    "prix_contre_visite_max": 25,
    "date_application_contre_visite": "2021-04-22",
    "cct_siret": 81500034400011,
    "latitude": 48.652712,
    "longitude": 1.521725,
    "coordgeo": {
      "lon": 1.521725,
      "lat": 48.652712
    },
    "cct_statut": "actif"
  },
  {
    "cct_code_dept": "Eure-et-Loir",
    "code_postal": null,
    "cct_code_commune": "Nogent-le-Roi",
    "cct_denomination": "NOGENTAISE AUTOMOBILE CONTROLE",
    "cct_adresse": "65 RUE DU FAUBOURG VALMORIN",
    "cct_tel": "237514841",
    "cct_url": null,
    "cat_vehicule_id": "3",
    "cat_vehicule_libelle": "Voiture de collection",
    "cat_energie_id": "2",
    "cat_energie_libelle": "Diesel",
    "prix_visite": 60,
    "date_application_visite": "2021-04-22",
    "prix_contre_visite_min": 25,
    "prix_contre_visite_max": 25,
    "date_application_contre_visite": "2021-04-22",
    "cct_siret": 81500034400011,
    "latitude": 48.652712,
    "longitude": 1.521725,
    "coordgeo": {
      "lon": 1.521725,
      "lat": 48.652712
    },
    "cct_statut": "actif"
  },
  {
    "cct_code_dept": "Eure-et-Loir",
    "code_postal": "34320",
    "cct_code_commune": "Margon",
    "cct_denomination": "CENTRE DE CONTROLE TECHNIQUE AUTOMOBILE MARGONNAIS",
    "cct_adresse": "11 AV DE PARIS",
    "cct_tel": "237370505",
    "cct_url": "https://controle-technique-margon.autosecurite.com/",
    "cat_vehicule_id": "4",
    "cat_vehicule_libelle": "Camionnette",
    "cat_energie_id": "5",
    "cat_energie_libelle": "Electrique",
    "prix_visite": 95,
    "date_application_visite": "2020-08-31",
    "prix_contre_visite_min": 95,
    "prix_contre_visite_max": 95,
    "date_application_contre_visite": "2020-08-31",
    "cct_siret": 52072240600029,
    "latitude": 48.330203,
    "longitude": 0.830264,
    "coordgeo": {
      "lon": 0.830264,
      "lat": 48.330203
    },
    "cct_statut": "actif"
  },
  {
    "cct_code_dept": "Eure-et-Loir",
    "code_postal": "34320",
    "cct_code_commune": "Margon",
    "cct_denomination": "CENTRE DE CONTROLE TECHNIQUE AUTOMOBILE MARGONNAIS",
    "cct_adresse": "11 AV DE PARIS",
    "cct_tel": "237370505",
    "cct_url": "https://controle-technique-margon.autosecurite.com/",
    "cat_vehicule_id": "4",
    "cat_vehicule_libelle": "Camionnette",
    "cat_energie_id": "3",
    "cat_energie_libelle": "Gaz",
    "prix_visite": 95,
    "date_application_visite": "2020-08-31",
    "prix_contre_visite_min": 95,
    "prix_contre_visite_max": 95,
    "date_application_contre_visite": "2020-08-31",
    "cct_siret": 52072240600029,
    "latitude": 48.330203,
    "longitude": 0.830264,
    "coordgeo": {
      "lon": 0.830264,
      "lat": 48.330203
    },
    "cct_statut": "actif"
  },
  {
    "cct_code_dept": "Eure-et-Loir",
    "code_postal": "34320",
    "cct_code_commune": "Margon",
    "cct_denomination": "CENTRE DE CONTROLE TECHNIQUE AUTOMOBILE MARGONNAIS",
    "cct_adresse": "11 AV DE PARIS",
    "cct_tel": "237370505",
    "cct_url": "https://controle-technique-margon.autosecurite.com/",
    "cat_vehicule_id": "5",
    "cat_vehicule_libelle": "Camping-car (moins de 3,5 tonnes)",
    "cat_energie_id": "5",
    "cat_energie_libelle": "Electrique",
    "prix_visite": 95,
    "date_application_visite": "2020-08-31",
    "prix_contre_visite_min": 10,
    "prix_contre_visite_max": 25,
    "date_application_contre_visite": "2020-08-31",
    "cct_siret": 52072240600029,
    "latitude": 48.330203,
    "longitude": 0.830264,
    "coordgeo": {
      "lon": 0.830264,
      "lat": 48.330203
    },
    "cct_statut": "actif"
  },
  {
    "cct_code_dept": "Eure-et-Loir",
    "code_postal": "28300",
    "cct_code_commune": "Mainvilliers",
    "cct_denomination": "CONTROLE TECHNIQUE AUTO MAINVILLIERS",
    "cct_adresse": "10 RUE DE VERDUN",
    "cct_tel": "237216055",
    "cct_url": null,
    "cat_vehicule_id": "5",
    "cat_vehicule_libelle": "Camping-car (moins de 3,5 tonnes)",
    "cat_energie_id": "4",
    "cat_energie_libelle": "Hybride",
    "prix_visite": 90,
    "date_application_visite": "2020-08-28",
    "prix_contre_visite_min": 5,
    "prix_contre_visite_max": 20,
    "date_application_contre_visite": "2020-08-28",
    "cct_siret": 38315520700012,
    "latitude": 48.453422,
    "longitude": 1.472614,
    "coordgeo": {
      "lon": 1.472614,
      "lat": 48.453422
    },
    "cct_statut": "actif"
  },
  {
    "cct_code_dept": "Eure-et-Loir",
    "code_postal": "28300",
    "cct_code_commune": "Mainvilliers",
    "cct_denomination": "CONTROLE TECHNIQUE AUTO MAINVILLIERS",
    "cct_adresse": "10 RUE DE VERDUN",
    "cct_tel": "237216055",
    "cct_url": null,
    "cat_vehicule_id": "3",
    "cat_vehicule_libelle": "Voiture de collection",
    "cat_energie_id": "5",
    "cat_energie_libelle": "Electrique",
    "prix_visite": 90,
    "date_application_visite": "2020-08-28",
    "prix_contre_visite_min": 5,
    "prix_contre_visite_max": 20,
    "date_application_contre_visite": "2020-08-28",
    "cct_siret": 38315520700012,
    "latitude": 48.453422,
    "longitude": 1.472614,
    "coordgeo": {
      "lon": 1.472614,
      "lat": 48.453422
    },
    "cct_statut": "actif"
  },
  {
    "cct_code_dept": "Eure-et-Loir",
    "code_postal": null,
    "cct_code_commune": "Saint-Rémy-sur-Avre",
    "cct_denomination": "AUTOMOBILE CONTROLE ACTUEL",
    "cct_adresse": "83 RTE NATIONALE 12",
    "cct_tel": "237366467",
    "cct_url": null,
    "cat_vehicule_id": "2",
    "cat_vehicule_libelle": "4 x 4",
    "cat_energie_id": "5",
    "cat_energie_libelle": "Electrique",
    "prix_visite": 80,
    "date_application_visite": "2021-04-22",
    "prix_contre_visite_min": 25,
    "prix_contre_visite_max": 25,
    "date_application_contre_visite": "2021-04-22",
    "cct_siret": 45052316200011,
    "latitude": 48.754338,
    "longitude": 1.253606,
    "coordgeo": {
      "lon": 1.253606,
      "lat": 48.754338
    },
    "cct_statut": "actif"
  },
  {
    "cct_code_dept": "Eure-et-Loir",
    "code_postal": null,
    "cct_code_commune": "Épernon",
    "cct_denomination": "A.B.C. AUTO BILAN CASTELNEUVIEN",
    "cct_adresse": "23 RUE DU GENERAL LECLERC",
    "cct_tel": "618926092",
    "cct_url": null,
    "cat_vehicule_id": "2",
    "cat_vehicule_libelle": "4 x 4",
    "cat_energie_id": "2",
    "cat_energie_libelle": "Diesel",
    "prix_visite": 80,
    "date_application_visite": "2020-09-06",
    "prix_contre_visite_min": 15,
    "prix_contre_visite_max": 15,
    "date_application_contre_visite": "2020-09-06",
    "cct_siret": 49330731800029,
    "latitude": 48.60981,
    "longitude": 1.672787,
    "coordgeo": {
      "lon": 1.672787,
      "lat": 48.60981
    },
    "cct_statut": "actif"
  },
  {
    "cct_code_dept": "Eure-et-Loir",
    "code_postal": "28000",
    "cct_code_commune": "Chartres",
    "cct_denomination": "EURL D.B. AUTOCONTROL",
    "cct_adresse": "9 RUE CHARLES COULOMB",
    "cct_tel": null,
    "cct_url": null,
    "cat_vehicule_id": "2",
    "cat_vehicule_libelle": "4 x 4",
    "cat_energie_id": "2",
    "cat_energie_libelle": "Diesel",
    "prix_visite": 91,
    "date_application_visite": "2023-01-01",
    "prix_contre_visite_min": 10,
    "prix_contre_visite_max": 40,
    "date_application_contre_visite": "2023-01-01",
    "cct_siret": 50979497000012,
    "latitude": 48.43661,
    "longitude": 1.519061,
    "coordgeo": {
      "lon": 1.519061,
      "lat": 48.43661
    },
    "cct_statut": "actif"
  },
  {
    "cct_code_dept": "Eure-et-Loir",
    "code_postal": "28000",
    "cct_code_commune": "Chartres",
    "cct_denomination": "EURL D.B. AUTOCONTROL",
    "cct_adresse": "9 RUE CHARLES COULOMB",
    "cct_tel": null,
    "cct_url": null,
    "cat_vehicule_id": "3",
    "cat_vehicule_libelle": "Voiture de collection",
    "cat_energie_id": "1",
    "cat_energie_libelle": "Essence",
    "prix_visite": 82,
    "date_application_visite": "2023-01-01",
    "prix_contre_visite_min": 10,
    "prix_contre_visite_max": 40,
    "date_application_contre_visite": "2023-01-01",
    "cct_siret": 50979497000012,
    "latitude": 48.43661,
    "longitude": 1.519061,
    "coordgeo": {
      "lon": 1.519061,
      "lat": 48.43661
    },
    "cct_statut": "actif"
  },
  {
    "cct_code_dept": "Eure-et-Loir",
    "code_postal": "28210",
    "cct_code_commune": "Chaudon",
    "cct_denomination": "CONTROLE CHAUDONAIS",
    "cct_adresse": "55  GRAND RUE",
    "cct_tel": "237620531",
    "cct_url": null,
    "cat_vehicule_id": "1",
    "cat_vehicule_libelle": "Voiture Particulière",
    "cat_energie_id": "3",
    "cat_energie_libelle": "Gaz",
    "prix_visite": 95,
    "date_application_visite": "2020-09-30",
    "prix_contre_visite_min": 20,
    "prix_contre_visite_max": 20,
    "date_application_contre_visite": "2020-09-30",
    "cct_siret": 51534642700021,
    "latitude": 48.663101,
    "longitude": 1.489252,
    "coordgeo": {
      "lon": 1.489252,
      "lat": 48.663101
    },
    "cct_statut": "actif"
  },
  {
    "cct_code_dept": "Eure-et-Loir",
    "code_postal": "28100",
    "cct_code_commune": "Dreux",
    "cct_denomination": "CONTROLE TECHNIQUE AUTO VERNOUILLET",
    "cct_adresse": "7 RUE DES CHAMPS CORNEILLE",
    "cct_tel": "237466212",
    "cct_url": null,
    "cat_vehicule_id": "2",
    "cat_vehicule_libelle": "4 x 4",
    "cat_energie_id": "5",
    "cat_energie_libelle": "Electrique",
    "prix_visite": 75,
    "date_application_visite": "2020-10-19",
    "prix_contre_visite_min": 10,
    "prix_contre_visite_max": 75,
    "date_application_contre_visite": "2020-10-19",
    "cct_siret": 48474081600026,
    "latitude": 48.74755,
    "longitude": 1.353794,
    "coordgeo": {
      "lon": 1.353794,
      "lat": 48.74755
    },
    "cct_statut": "actif"
  },
  {
    "cct_code_dept": "Eure-et-Loir",
    "code_postal": "28100",
    "cct_code_commune": "Dreux",
    "cct_denomination": "CONTROLE TECHNIQUE AUTO VERNOUILLET",
    "cct_adresse": "7 RUE DES CHAMPS CORNEILLE",
    "cct_tel": "237466212",
    "cct_url": null,
    "cat_vehicule_id": "1",
    "cat_vehicule_libelle": "Voiture Particulière",
    "cat_energie_id": "4",
    "cat_energie_libelle": "Hybride",
    "prix_visite": 85,
    "date_application_visite": "2020-10-19",
    "prix_contre_visite_min": 10,
    "prix_contre_visite_max": 85,
    "date_application_contre_visite": "2020-10-19",
    "cct_siret": 48474081600026,
    "latitude": 48.74755,
    "longitude": 1.353794,
    "coordgeo": {
      "lon": 1.353794,
      "lat": 48.74755
    },
    "cct_statut": "actif"
  },
  {
    "cct_code_dept": "Eure-et-Loir",
    "code_postal": "28100",
    "cct_code_commune": "Dreux",
    "cct_denomination": "CTADC",
    "cct_adresse": "8 RUE RENE MIET",
    "cct_tel": "237641967",
    "cct_url": null,
    "cat_vehicule_id": "5",
    "cat_vehicule_libelle": "Camping-car (moins de 3,5 tonnes)",
    "cat_energie_id": "1",
    "cat_energie_libelle": "Essence",
    "prix_visite": 80,
    "date_application_visite": "2020-10-23",
    "prix_contre_visite_min": 10,
    "prix_contre_visite_max": 20,
    "date_application_contre_visite": "2020-10-23",
    "cct_siret": 83747065700029,
    "latitude": 48.747244,
    "longitude": 1.343095,
    "coordgeo": {
      "lon": 1.343095,
      "lat": 48.747244
    },
    "cct_statut": "actif"
  },
  {
    "cct_code_dept": "Eure-et-Loir",
    "code_postal": null,
    "cct_code_commune": "Saint-Rémy-sur-Avre",
    "cct_denomination": "AUTOMOBILE CONTROLE REMOIS",
    "cct_adresse": "83 RTE NATIONALE 12",
    "cct_tel": "237621487",
    "cct_url": "www.dekra-norisko.fr",
    "cat_vehicule_id": "3",
    "cat_vehicule_libelle": "Voiture de collection",
    "cat_energie_id": "5",
    "cat_energie_libelle": "Electrique",
    "prix_visite": 80,
    "date_application_visite": "2021-04-22",
    "prix_contre_visite_min": 25,
    "prix_contre_visite_max": 25,
    "date_application_contre_visite": "2021-04-22",
    "cct_siret": 85143446400018,
    "latitude": 48.754338,
    "longitude": 1.253606,
    "coordgeo": {
      "lon": 1.253606,
      "lat": 48.754338
    },
    "cct_statut": "actif"
  },
  {
    "cct_code_dept": "Eure-et-Loir",
    "code_postal": null,
    "cct_code_commune": "Auneau",
    "cct_denomination": "ETS KWASNY",
    "cct_adresse": "RTE DE GARNET",
    "cct_tel": "237319089",
    "cct_url": "www.dekra-norisko.fr",
    "cat_vehicule_id": "4",
    "cat_vehicule_libelle": "Camionnette",
    "cat_energie_id": "4",
    "cat_energie_libelle": "Hybride",
    "prix_visite": 75,
    "date_application_visite": "2021-01-04",
    "prix_contre_visite_min": 10,
    "prix_contre_visite_max": 30,
    "date_application_contre_visite": "2021-01-04",
    "cct_siret": 89029411900015,
    "latitude": 48.475489,
    "longitude": 1.766216,
    "coordgeo": {
      "lon": 1.766216,
      "lat": 48.475489
    },
    "cct_statut": "actif"
  },
  {
    "cct_code_dept": "Eure-et-Loir",
    "code_postal": null,
    "cct_code_commune": "Auneau",
    "cct_denomination": "ETS KWASNY",
    "cct_adresse": "RTE DE GARNET",
    "cct_tel": "237319089",
    "cct_url": "www.dekra-norisko.fr",
    "cat_vehicule_id": "1",
    "cat_vehicule_libelle": "Voiture Particulière",
    "cat_energie_id": "5",
    "cat_energie_libelle": "Electrique",
    "prix_visite": 75,
    "date_application_visite": "2021-01-04",
    "prix_contre_visite_min": 10,
    "prix_contre_visite_max": 30,
    "date_application_contre_visite": "2021-01-04",
    "cct_siret": 89029411900015,
    "latitude": 48.475489,
    "longitude": 1.766216,
    "coordgeo": {
      "lon": 1.766216,
      "lat": 48.475489
    },
    "cct_statut": "actif"
  },
  {
    "cct_code_dept": "Eure-et-Loir",
    "code_postal": null,
    "cct_code_commune": "Épernon",
    "cct_denomination": "AUTOBILAN EPERNON",
    "cct_adresse": "23 RUE DU GENERAL LECLERC",
    "cct_tel": "237838090",
    "cct_url": "https://www.dekra-norisko.fr/centres-controle-technique/epernon,28230/autobilan-epernon,s028d114#utm_source=google&utm_medium=mybusiness&utm_campaign=fiche_centre&utm_term=epernon&utm_content=S028D069",
    "cat_vehicule_id": "5",
    "cat_vehicule_libelle": "Camping-car (moins de 3,5 tonnes)",
    "cat_energie_id": "4",
    "cat_energie_libelle": "Hybride",
    "prix_visite": 81.99,
    "date_application_visite": "2022-05-09",
    "prix_contre_visite_min": 18.99,
    "prix_contre_visite_max": 25.99,
    "date_application_contre_visite": "2022-05-09",
    "cct_siret": 89102625400013,
    "latitude": 48.609807,
    "longitude": 1.67274,
    "coordgeo": {
      "lon": 1.67274,
      "lat": 48.609807
    },
    "cct_statut": "actif"
  },
  {
    "cct_code_dept": "Eure-et-Loir",
    "code_postal": "28260",
    "cct_code_commune": "Anet",
    "cct_denomination": "SARL BOUVARD",
    "cct_adresse": "ZA ALLEE GAUCHE D'OULINS",
    "cct_tel": null,
    "cct_url": null,
    "cat_vehicule_id": "4",
    "cat_vehicule_libelle": "Camionnette",
    "cat_energie_id": "4",
    "cat_energie_libelle": "Hybride",
    "prix_visite": 90,
    "date_application_visite": "2020-09-07",
    "prix_contre_visite_min": 15,
    "prix_contre_visite_max": 30,
    "date_application_contre_visite": "2020-09-07",
    "cct_siret": 49287290800016,
    "latitude": 48.864742,
    "longitude": 1.457171,
    "coordgeo": {
      "lon": 1.457171,
      "lat": 48.864742
    },
    "cct_statut": "actif"
  },
  {
    "cct_code_dept": "Eure-et-Loir",
    "code_postal": null,
    "cct_code_commune": "Nogent-le-Rotrou",
    "cct_denomination": "CENTRE AUTO BILAN MONTREUIL",
    "cct_adresse": "AV DE LA MESSESSELLE",
    "cct_tel": "344553933",
    "cct_url": null,
    "cat_vehicule_id": "4",
    "cat_vehicule_libelle": "Camionnette",
    "cat_energie_id": "2",
    "cat_energie_libelle": "Diesel",
    "prix_visite": 78,
    "date_application_visite": "2020-09-12",
    "prix_contre_visite_min": 10,
    "prix_contre_visite_max": 30,
    "date_application_contre_visite": "2020-09-12",
    "cct_siret": 32838567900324,
    "latitude": 48.326457,
    "longitude": 0.808335,
    "coordgeo": {
      "lon": 0.808335,
      "lat": 48.326457
    },
    "cct_statut": "actif"
  },
  {
    "cct_code_dept": "Eure-et-Loir",
    "code_postal": "28130",
    "cct_code_commune": "Maintenon",
    "cct_denomination": "AUTO CONTROLE MAINTENON",
    "cct_adresse": "RUE DU 19 MARS 1962",
    "cct_tel": "237830389",
    "cct_url": "https://www.autovision.fr/centre/280024-auto-controle-maintenon-maintenon/",
    "cat_vehicule_id": "1",
    "cat_vehicule_libelle": "Voiture Particulière",
    "cat_energie_id": "2",
    "cat_energie_libelle": "Diesel",
    "prix_visite": 75,
    "date_application_visite": "2020-12-01",
    "prix_contre_visite_min": 20,
    "prix_contre_visite_max": 50,
    "date_application_contre_visite": "2020-12-01",
    "cct_siret": 82500555600014,
    "latitude": 48.578959,
    "longitude": 1.568572,
    "coordgeo": {
      "lon": 1.568572,
      "lat": 48.578959
    },
    "cct_statut": "actif"
  },
  {
    "cct_code_dept": "Eure-et-Loir",
    "code_postal": "28500",
    "cct_code_commune": "Vernouillet",
    "cct_denomination": "CENTRE SECURITE CONTROLE AUTOMOBILE DROUAIS",
    "cct_adresse": "88 RUE DE NUISEMENT",
    "cct_tel": "237502500",
    "cct_url": "https://vernouillet.automsa.fr/reservation/iframe/bTxjN85Gm9",
    "cat_vehicule_id": "2",
    "cat_vehicule_libelle": "4 x 4",
    "cat_energie_id": "2",
    "cat_energie_libelle": "Diesel",
    "prix_visite": 80,
    "date_application_visite": "2020-09-08",
    "prix_contre_visite_min": 0,
    "prix_contre_visite_max": 20,
    "date_application_contre_visite": "2020-09-08",
    "cct_siret": 33364374000025,
    "latitude": 48.718003,
    "longitude": 1.376117,
    "coordgeo": {
      "lon": 1.376117,
      "lat": 48.718003
    },
    "cct_statut": "actif"
  },
  {
    "cct_code_dept": "Eure-et-Loir",
    "code_postal": "78540",
    "cct_code_commune": "Vernouillet",
    "cct_denomination": "CENTRE SECURITE CONTROLE AUTOMOBILE DROUAIS",
    "cct_adresse": "88 RUE DE NUISEMENT",
    "cct_tel": "237502500",
    "cct_url": "https://vernouillet.automsa.fr/reservation/iframe/bTxjN85Gm9",
    "cat_vehicule_id": "2",
    "cat_vehicule_libelle": "4 x 4",
    "cat_energie_id": "2",
    "cat_energie_libelle": "Diesel",
    "prix_visite": 80,
    "date_application_visite": "2020-09-08",
    "prix_contre_visite_min": 20,
    "prix_contre_visite_max": 20,
    "date_application_contre_visite": "2020-09-08",
    "cct_siret": 33364374000025,
    "latitude": 48.718003,
    "longitude": 1.376117,
    "coordgeo": {
      "lon": 1.376117,
      "lat": 48.718003
    },
    "cct_statut": "actif"
  },
  {
    "cct_code_dept": "Eure-et-Loir",
    "code_postal": "78540",
    "cct_code_commune": "Vernouillet",
    "cct_denomination": "CENTRE SECURITE CONTROLE AUTOMOBILE DROUAIS",
    "cct_adresse": "88 RUE DE NUISEMENT",
    "cct_tel": "237502500",
    "cct_url": "https://vernouillet.automsa.fr/reservation/iframe/bTxjN85Gm9",
    "cat_vehicule_id": "2",
    "cat_vehicule_libelle": "4 x 4",
    "cat_energie_id": "5",
    "cat_energie_libelle": "Electrique",
    "prix_visite": 85,
    "date_application_visite": "2020-09-08",
    "prix_contre_visite_min": 20,
    "prix_contre_visite_max": 20,
    "date_application_contre_visite": "2020-09-08",
    "cct_siret": 33364374000025,
    "latitude": 48.718003,
    "longitude": 1.376117,
    "coordgeo": {
      "lon": 1.376117,
      "lat": 48.718003
    },
    "cct_statut": "actif"
  },
  {
    "cct_code_dept": "Eure-et-Loir",
    "code_postal": "28500",
    "cct_code_commune": "Vernouillet",
    "cct_denomination": "CENTRE SECURITE CONTROLE AUTOMOBILE DROUAIS",
    "cct_adresse": "88 RUE DE NUISEMENT",
    "cct_tel": "237502500",
    "cct_url": "https://vernouillet.automsa.fr/reservation/iframe/bTxjN85Gm9",
    "cat_vehicule_id": "2",
    "cat_vehicule_libelle": "4 x 4",
    "cat_energie_id": "1",
    "cat_energie_libelle": "Essence",
    "prix_visite": 80,
    "date_application_visite": "2020-09-08",
    "prix_contre_visite_min": 20,
    "prix_contre_visite_max": 20,
    "date_application_contre_visite": "2020-09-08",
    "cct_siret": 33364374000025,
    "latitude": 48.718003,
    "longitude": 1.376117,
    "coordgeo": {
      "lon": 1.376117,
      "lat": 48.718003
    },
    "cct_statut": "actif"
  },
  {
    "cct_code_dept": "Eure-et-Loir",
    "code_postal": "28500",
    "cct_code_commune": "Vernouillet",
    "cct_denomination": "CENTRE SECURITE CONTROLE AUTOMOBILE DROUAIS",
    "cct_adresse": "88 RUE DE NUISEMENT",
    "cct_tel": "237502500",
    "cct_url": "https://vernouillet.automsa.fr/reservation/iframe/bTxjN85Gm9",
    "cat_vehicule_id": "4",
    "cat_vehicule_libelle": "Camionnette",
    "cat_energie_id": "2",
    "cat_energie_libelle": "Diesel",
    "prix_visite": 80,
    "date_application_visite": "2020-09-08",
    "prix_contre_visite_min": 5,
    "prix_contre_visite_max": 20,
    "date_application_contre_visite": "2020-09-08",
    "cct_siret": 33364374000025,
    "latitude": 48.718003,
    "longitude": 1.376117,
    "coordgeo": {
      "lon": 1.376117,
      "lat": 48.718003
    },
    "cct_statut": "actif"
  },
  {
    "cct_code_dept": "Eure-et-Loir",
    "code_postal": "78540",
    "cct_code_commune": "Vernouillet",
    "cct_denomination": "CENTRE SECURITE CONTROLE AUTOMOBILE DROUAIS",
    "cct_adresse": "88 RUE DE NUISEMENT",
    "cct_tel": "237502500",
    "cct_url": "https://vernouillet.automsa.fr/reservation/iframe/bTxjN85Gm9",
    "cat_vehicule_id": "4",
    "cat_vehicule_libelle": "Camionnette",
    "cat_energie_id": "5",
    "cat_energie_libelle": "Electrique",
    "prix_visite": 80,
    "date_application_visite": "2020-09-08",
    "prix_contre_visite_min": 10,
    "prix_contre_visite_max": 20,
    "date_application_contre_visite": "2020-09-08",
    "cct_siret": 33364374000025,
    "latitude": 48.718003,
    "longitude": 1.376117,
    "coordgeo": {
      "lon": 1.376117,
      "lat": 48.718003
    },
    "cct_statut": "actif"
  },
  {
    "cct_code_dept": "Eure-et-Loir",
    "code_postal": "78540",
    "cct_code_commune": "Vernouillet",
    "cct_denomination": "CENTRE SECURITE CONTROLE AUTOMOBILE DROUAIS",
    "cct_adresse": "88 RUE DE NUISEMENT",
    "cct_tel": "237502500",
    "cct_url": "https://vernouillet.automsa.fr/reservation/iframe/bTxjN85Gm9",
    "cat_vehicule_id": "1",
    "cat_vehicule_libelle": "Voiture Particulière",
    "cat_energie_id": "1",
    "cat_energie_libelle": "Essence",
    "prix_visite": 75,
    "date_application_visite": "2020-09-08",
    "prix_contre_visite_min": 10,
    "prix_contre_visite_max": 30,
    "date_application_contre_visite": "2020-09-08",
    "cct_siret": 33364374000025,
    "latitude": 48.718003,
    "longitude": 1.376117,
    "coordgeo": {
      "lon": 1.376117,
      "lat": 48.718003
    },
    "cct_statut": "actif"
  },
  {
    "cct_code_dept": "Eure-et-Loir",
    "code_postal": "28500",
    "cct_code_commune": "Vernouillet",
    "cct_denomination": "CENTRE SECURITE CONTROLE AUTOMOBILE DROUAIS",
    "cct_adresse": "88 RUE DE NUISEMENT",
    "cct_tel": "237502500",
    "cct_url": "https://vernouillet.automsa.fr/reservation/iframe/bTxjN85Gm9",
    "cat_vehicule_id": "1",
    "cat_vehicule_libelle": "Voiture Particulière",
    "cat_energie_id": "4",
    "cat_energie_libelle": "Hybride",
    "prix_visite": 75,
    "date_application_visite": "2020-09-08",
    "prix_contre_visite_min": 10,
    "prix_contre_visite_max": 20,
    "date_application_contre_visite": "2020-09-08",
    "cct_siret": 33364374000025,
    "latitude": 48.718003,
    "longitude": 1.376117,
    "coordgeo": {
      "lon": 1.376117,
      "lat": 48.718003
    },
    "cct_statut": "actif"
  },
  {
    "cct_code_dept": "Eure-et-Loir",
    "code_postal": "78540",
    "cct_code_commune": "Vernouillet",
    "cct_denomination": "CENTRE SECURITE CONTROLE AUTOMOBILE DROUAIS",
    "cct_adresse": "88 RUE DE NUISEMENT",
    "cct_tel": "237502500",
    "cct_url": "https://vernouillet.automsa.fr/reservation/iframe/bTxjN85Gm9",
    "cat_vehicule_id": "3",
    "cat_vehicule_libelle": "Voiture de collection",
    "cat_energie_id": "5",
    "cat_energie_libelle": "Electrique",
    "prix_visite": 80,
    "date_application_visite": "2020-09-08",
    "prix_contre_visite_min": 10,
    "prix_contre_visite_max": 20,
    "date_application_contre_visite": "2020-09-08",
    "cct_siret": 33364374000025,
    "latitude": 48.718003,
    "longitude": 1.376117,
    "coordgeo": {
      "lon": 1.376117,
      "lat": 48.718003
    },
    "cct_statut": "actif"
  },
  {
    "cct_code_dept": "Eure-et-Loir",
    "code_postal": "28100",
    "cct_code_commune": "Dreux",
    "cct_denomination": "CONTROLE TECHNIQUE AUTOMOBILE PASDELOUP",
    "cct_adresse": "4 RUE JULES PASDELOUP",
    "cct_tel": "237464812",
    "cct_url": "https://autosurdreux.automsa.fr/reservation/iframe/wa2MwpB1fG",
    "cat_vehicule_id": "2",
    "cat_vehicule_libelle": "4 x 4",
    "cat_energie_id": "2",
    "cat_energie_libelle": "Diesel",
    "prix_visite": 80,
    "date_application_visite": "2022-08-30",
    "prix_contre_visite_min": 5,
    "prix_contre_visite_max": 20,
    "date_application_contre_visite": "2022-08-30",
    "cct_siret": 84976961700010,
    "latitude": 48.749315,
    "longitude": 1.353287,
    "coordgeo": {
      "lon": 1.353287,
      "lat": 48.749315
    },
    "cct_statut": "actif"
  },
  {
    "cct_code_dept": "Eure-et-Loir",
    "code_postal": "28100",
    "cct_code_commune": "Dreux",
    "cct_denomination": "CONTROLE TECHNIQUE AUTOMOBILE PASDELOUP",
    "cct_adresse": "4 RUE JULES PASDELOUP",
    "cct_tel": "237464812",
    "cct_url": "https://autosurdreux.automsa.fr/reservation/iframe/wa2MwpB1fG",
    "cat_vehicule_id": "1",
    "cat_vehicule_libelle": "Voiture Particulière",
    "cat_energie_id": "5",
    "cat_energie_libelle": "Electrique",
    "prix_visite": 80,
    "date_application_visite": "2022-08-30",
    "prix_contre_visite_min": 5,
    "prix_contre_visite_max": 20,
    "date_application_contre_visite": "2022-08-30",
    "cct_siret": 84976961700010,
    "latitude": 48.749315,
    "longitude": 1.353287,
    "coordgeo": {
      "lon": 1.353287,
      "lat": 48.749315
    },
    "cct_statut": "actif"
  },
  {
    "cct_code_dept": "Eure-et-Loir",
    "code_postal": null,
    "cct_code_commune": "Châteaudun",
    "cct_denomination": "CHATEAUDUN CONTROLE AUTOMOBILE",
    "cct_adresse": "98 RUE DE VARIZE",
    "cct_tel": "237660236",
    "cct_url": "237660236",
    "cat_vehicule_id": "2",
    "cat_vehicule_libelle": "4 x 4",
    "cat_energie_id": "4",
    "cat_energie_libelle": "Hybride",
    "prix_visite": 69,
    "date_application_visite": "2020-09-14",
    "prix_contre_visite_min": 0,
    "prix_contre_visite_max": 25,
    "date_application_contre_visite": "2020-09-14",
    "cct_siret": 40985825500022,
    "latitude": 48.06576,
    "longitude": 1.333572,
    "coordgeo": {
      "lon": 1.333572,
      "lat": 48.06576
    },
    "cct_statut": "actif"
  },
  {
    "cct_code_dept": "Eure-et-Loir",
    "code_postal": null,
    "cct_code_commune": "Châteaudun",
    "cct_denomination": "CHATEAUDUN CONTROLE AUTOMOBILE",
    "cct_adresse": "98 RUE DE VARIZE",
    "cct_tel": "237660236",
    "cct_url": "237660236",
    "cat_vehicule_id": "4",
    "cat_vehicule_libelle": "Camionnette",
    "cat_energie_id": "4",
    "cat_energie_libelle": "Hybride",
    "prix_visite": 69,
    "date_application_visite": "2020-09-14",
    "prix_contre_visite_min": 0,
    "prix_contre_visite_max": 25,
    "date_application_contre_visite": "2020-09-14",
    "cct_siret": 40985825500022,
    "latitude": 48.06576,
    "longitude": 1.333572,
    "coordgeo": {
      "lon": 1.333572,
      "lat": 48.06576
    },
    "cct_statut": "actif"
  },
  {
    "cct_code_dept": "Eure-et-Loir",
    "code_postal": null,
    "cct_code_commune": "Châteaudun",
    "cct_denomination": "CHATEAUDUN CONTROLE AUTOMOBILE",
    "cct_adresse": "98 RUE DE VARIZE",
    "cct_tel": "237660236",
    "cct_url": "237660236",
    "cat_vehicule_id": "3",
    "cat_vehicule_libelle": "Voiture de collection",
    "cat_energie_id": "5",
    "cat_energie_libelle": "Electrique",
    "prix_visite": 69,
    "date_application_visite": "2020-09-14",
    "prix_contre_visite_min": 0,
    "prix_contre_visite_max": 25,
    "date_application_contre_visite": "2020-09-14",
    "cct_siret": 40985825500022,
    "latitude": 48.06576,
    "longitude": 1.333572,
    "coordgeo": {
      "lon": 1.333572,
      "lat": 48.06576
    },
    "cct_statut": "actif"
  },
  {
    "cct_code_dept": "Eure-et-Loir",
    "code_postal": "60150",
    "cct_code_commune": "Janville",
    "cct_denomination": "AUTO CONTROLE JANVILLOIS",
    "cct_adresse": "5 PL D ORLEANS",
    "cct_tel": "237902222",
    "cct_url": "securitest janville",
    "cat_vehicule_id": "1",
    "cat_vehicule_libelle": "Voiture Particulière",
    "cat_energie_id": "3",
    "cat_energie_libelle": "Gaz",
    "prix_visite": 85,
    "date_application_visite": "2020-09-25",
    "prix_contre_visite_min": 25,
    "prix_contre_visite_max": 25,
    "date_application_contre_visite": "2020-09-25",
    "cct_siret": 44445237900019,
    "latitude": 48.19928,
    "longitude": 1.883481,
    "coordgeo": {
      "lon": 1.883481,
      "lat": 48.19928
    },
    "cct_statut": "actif"
  },
  {
    "cct_code_dept": "Eure-et-Loir",
    "code_postal": "28130",
    "cct_code_commune": "Hanches",
    "cct_denomination": "ACTL",
    "cct_adresse": "RD 28 ROUTE DE GALLARDON",
    "cct_tel": "687346087",
    "cct_url": null,
    "cat_vehicule_id": "1",
    "cat_vehicule_libelle": "Voiture Particulière",
    "cat_energie_id": "1",
    "cat_energie_libelle": "Essence",
    "prix_visite": 80,
    "date_application_visite": "2020-09-11",
    "prix_contre_visite_min": 25,
    "prix_contre_visite_max": 25,
    "date_application_contre_visite": "2020-09-11",
    "cct_siret": 45255173200012,
    "latitude": 48.60281,
    "longitude": 1.673153,
    "coordgeo": {
      "lon": 1.673153,
      "lat": 48.60281
    },
    "cct_statut": "actif"
  },
  {
    "cct_code_dept": "Eure-et-Loir",
    "code_postal": null,
    "cct_code_commune": "Yèvres",
    "cct_denomination": "AUTO CONTROLE OLIVIER",
    "cct_adresse": "ZA DE LA CROIX VERTE",
    "cct_tel": "237960200",
    "cct_url": "www.controle-technique-yevres.securitest.fr",
    "cat_vehicule_id": "2",
    "cat_vehicule_libelle": "4 x 4",
    "cat_energie_id": "2",
    "cat_energie_libelle": "Diesel",
    "prix_visite": 72,
    "date_application_visite": "2020-09-09",
    "prix_contre_visite_min": 0,
    "prix_contre_visite_max": 20,
    "date_application_contre_visite": "2020-09-09",
    "cct_siret": 51474387100014,
    "latitude": 48.205623,
    "longitude": 1.193124,
    "coordgeo": {
      "lon": 1.193124,
      "lat": 48.205623
    },
    "cct_statut": "actif"
  },
  {
    "cct_code_dept": "Eure-et-Loir",
    "code_postal": null,
    "cct_code_commune": "Yèvres",
    "cct_denomination": "AUTO CONTROLE OLIVIER",
    "cct_adresse": "ZA DE LA CROIX VERTE",
    "cct_tel": "237960200",
    "cct_url": "www.controle-technique-yevres.securitest.fr",
    "cat_vehicule_id": "2",
    "cat_vehicule_libelle": "4 x 4",
    "cat_energie_id": "2",
    "cat_energie_libelle": "Diesel",
    "prix_visite": 70,
    "date_application_visite": "2020-09-09",
    "prix_contre_visite_min": 0,
    "prix_contre_visite_max": 20,
    "date_application_contre_visite": "2020-09-09",
    "cct_siret": 51474387100014,
    "latitude": 48.205623,
    "longitude": 1.193124,
    "coordgeo": {
      "lon": 1.193124,
      "lat": 48.205623
    },
    "cct_statut": "actif"
  },
  {
    "cct_code_dept": "Eure-et-Loir",
    "code_postal": null,
    "cct_code_commune": "Yèvres",
    "cct_denomination": "AUTO CONTROLE OLIVIER",
    "cct_adresse": "ZA DE LA CROIX VERTE",
    "cct_tel": "237960200",
    "cct_url": "www.controle-technique-yevres.securitest.fr",
    "cat_vehicule_id": "1",
    "cat_vehicule_libelle": "Voiture Particulière",
    "cat_energie_id": "5",
    "cat_energie_libelle": "Electrique",
    "prix_visite": 70,
    "date_application_visite": "2020-09-09",
    "prix_contre_visite_min": 0,
    "prix_contre_visite_max": 20,
    "date_application_contre_visite": "2020-09-09",
    "cct_siret": 51474387100014,
    "latitude": 48.205623,
    "longitude": 1.193124,
    "coordgeo": {
      "lon": 1.193124,
      "lat": 48.205623
    },
    "cct_statut": "actif"
  },
  {
    "cct_code_dept": "Eure-et-Loir",
    "code_postal": null,
    "cct_code_commune": "Courville-sur-Eure",
    "cct_denomination": "COUCHY",
    "cct_adresse": "4 RUE DE BEAUCE",
    "cct_tel": null,
    "cct_url": null,
    "cat_vehicule_id": "1",
    "cat_vehicule_libelle": "Voiture Particulière",
    "cat_energie_id": "3",
    "cat_energie_libelle": "Gaz",
    "prix_visite": 95,
    "date_application_visite": "2020-09-01",
    "prix_contre_visite_min": 10,
    "prix_contre_visite_max": 25,
    "date_application_contre_visite": "2020-09-01",
    "cct_siret": 84471544100011,
    "latitude": 48.44901,
    "longitude": 1.25242,
    "coordgeo": {
      "lon": 1.25242,
      "lat": 48.44901
    },
    "cct_statut": "actif"
  },
  {
    "cct_code_dept": "Eure-et-Loir",
    "code_postal": null,
    "cct_code_commune": "Saint-Denis-les-Ponts",
    "cct_denomination": "AUTO BILAN PONTOIS",
    "cct_adresse": "9 Les Cathelines",
    "cct_tel": "237940695",
    "cct_url": "moncontroletechnique.fr",
    "cat_vehicule_id": "3",
    "cat_vehicule_libelle": "Voiture de collection",
    "cat_energie_id": "2",
    "cat_energie_libelle": "Diesel",
    "prix_visite": 75,
    "date_application_visite": "2020-09-21",
    "prix_contre_visite_min": 0,
    "prix_contre_visite_max": 0,
    "date_application_contre_visite": "2020-09-21",
    "cct_siret": 41498643000018,
    "latitude": 48.06925,
    "longitude": 1.30776,
    "coordgeo": {
      "lon": 1.30776,
      "lat": 48.06925
    },
    "cct_statut": "actif"
  },
  {
    "cct_code_dept": "Eure-et-Loir",
    "code_postal": null,
    "cct_code_commune": "Cloyes-sur-le-Loir",
    "cct_denomination": "SARL AUTO BILAN CLOYSIEN",
    "cct_adresse": "RUE SEVERIN",
    "cct_tel": "237983298",
    "cct_url": "moncontroletechnique.fr",
    "cat_vehicule_id": "5",
    "cat_vehicule_libelle": "Camping-car (moins de 3,5 tonnes)",
    "cat_energie_id": "4",
    "cat_energie_libelle": "Hybride",
    "prix_visite": 75,
    "date_application_visite": "2020-09-21",
    "prix_contre_visite_min": 0,
    "prix_contre_visite_max": 0,
    "date_application_contre_visite": "2020-09-21",
    "cct_siret": 45068582100016,
    "latitude": 47.991444,
    "longitude": 1.24838,
    "coordgeo": {
      "lon": 1.24838,
      "lat": 47.991444
    },
    "cct_statut": "actif"
  },
  {
    "cct_code_dept": "Eure-et-Loir",
    "code_postal": null,
    "cct_code_commune": "Cloyes-sur-le-Loir",
    "cct_denomination": "SARL AUTO BILAN CLOYSIEN",
    "cct_adresse": "RUE SEVERIN",
    "cct_tel": "237983298",
    "cct_url": "moncontroletechnique.fr",
    "cat_vehicule_id": "1",
    "cat_vehicule_libelle": "Voiture Particulière",
    "cat_energie_id": "5",
    "cat_energie_libelle": "Electrique",
    "prix_visite": 75,
    "date_application_visite": "2020-09-21",
    "prix_contre_visite_min": 0,
    "prix_contre_visite_max": 0,
    "date_application_contre_visite": "2020-09-21",
    "cct_siret": 45068582100016,
    "latitude": 47.991444,
    "longitude": 1.24838,
    "coordgeo": {
      "lon": 1.24838,
      "lat": 47.991444
    },
    "cct_statut": "actif"
  },
  {
    "cct_code_dept": "Eure-et-Loir",
    "code_postal": "28630",
    "cct_code_commune": "Barjouville",
    "cct_denomination": "BRUNO PINSAULT CONTROLE TECHNIQUE B.P.C.T",
    "cct_adresse": "33 RUE DES PIERRES MISSIGAULT",
    "cct_tel": "237240658",
    "cct_url": null,
    "cat_vehicule_id": "4",
    "cat_vehicule_libelle": "Camionnette",
    "cat_energie_id": "1",
    "cat_energie_libelle": "Essence",
    "prix_visite": 95,
    "date_application_visite": "2020-05-08",
    "prix_contre_visite_min": 20,
    "prix_contre_visite_max": 30,
    "date_application_contre_visite": "2020-05-08",
    "cct_siret": 53169726600017,
    "latitude": 48.414611,
    "longitude": 1.466466,
    "coordgeo": {
      "lon": 1.466466,
      "lat": 48.414611
    },
    "cct_statut": "actif"
  },
  {
    "cct_code_dept": "Eure-et-Loir",
    "code_postal": "28630",
    "cct_code_commune": "Barjouville",
    "cct_denomination": "BRUNO PINSAULT CONTROLE TECHNIQUE B.P.C.T",
    "cct_adresse": "33 RUE DES PIERRES MISSIGAULT",
    "cct_tel": "237240658",
    "cct_url": null,
    "cat_vehicule_id": "4",
    "cat_vehicule_libelle": "Camionnette",
    "cat_energie_id": "3",
    "cat_energie_libelle": "Gaz",
    "prix_visite": 95,
    "date_application_visite": "2020-05-08",
    "prix_contre_visite_min": 20,
    "prix_contre_visite_max": 30,
    "date_application_contre_visite": "2020-05-08",
    "cct_siret": 53169726600017,
    "latitude": 48.414611,
    "longitude": 1.466466,
    "coordgeo": {
      "lon": 1.466466,
      "lat": 48.414611
    },
    "cct_statut": "actif"
  },
  {
    "cct_code_dept": "Eure-et-Loir",
    "code_postal": null,
    "cct_code_commune": "Châteauneuf-en-Thymerais",
    "cct_denomination": "CONTROLE TECHNIQUE J.D.S.",
    "cct_adresse": "8 AV LANGLOIS",
    "cct_tel": null,
    "cct_url": null,
    "cat_vehicule_id": "5",
    "cat_vehicule_libelle": "Camping-car (moins de 3,5 tonnes)",
    "cat_energie_id": "2",
    "cat_energie_libelle": "Diesel",
    "prix_visite": 80,
    "date_application_visite": "2020-09-11",
    "prix_contre_visite_min": 15,
    "prix_contre_visite_max": 25,
    "date_application_contre_visite": "2020-09-11",
    "cct_siret": 41465882300011,
    "latitude": 48.578051,
    "longitude": 1.238513,
    "coordgeo": {
      "lon": 1.238513,
      "lat": 48.578051
    },
    "cct_statut": "actif"
  },
  {
    "cct_code_dept": "Eure-et-Loir",
    "code_postal": null,
    "cct_code_commune": "Châteauneuf-en-Thymerais",
    "cct_denomination": "CONTROLE TECHNIQUE J.D.S.",
    "cct_adresse": "8 AV LANGLOIS",
    "cct_tel": null,
    "cct_url": null,
    "cat_vehicule_id": "1",
    "cat_vehicule_libelle": "Voiture Particulière",
    "cat_energie_id": "3",
    "cat_energie_libelle": "Gaz",
    "prix_visite": 100,
    "date_application_visite": "2020-09-11",
    "prix_contre_visite_min": 15,
    "prix_contre_visite_max": 25,
    "date_application_contre_visite": "2020-09-11",
    "cct_siret": 41465882300011,
    "latitude": 48.578051,
    "longitude": 1.238513,
    "coordgeo": {
      "lon": 1.238513,
      "lat": 48.578051
    },
    "cct_statut": "actif"
  },
  {
    "cct_code_dept": "Eure-et-Loir",
    "code_postal": null,
    "cct_code_commune": "Châteauneuf-en-Thymerais",
    "cct_denomination": "CONTROLE TECHNIQUE J.D.S.",
    "cct_adresse": "8 AV LANGLOIS",
    "cct_tel": null,
    "cct_url": null,
    "cat_vehicule_id": "3",
    "cat_vehicule_libelle": "Voiture de collection",
    "cat_energie_id": "2",
    "cat_energie_libelle": "Diesel",
    "prix_visite": 80,
    "date_application_visite": "2020-09-11",
    "prix_contre_visite_min": 15,
    "prix_contre_visite_max": 25,
    "date_application_contre_visite": "2020-09-11",
    "cct_siret": 41465882300011,
    "latitude": 48.578051,
    "longitude": 1.238513,
    "coordgeo": {
      "lon": 1.238513,
      "lat": 48.578051
    },
    "cct_statut": "actif"
  },
  {
    "cct_code_dept": "Eure-et-Loir",
    "code_postal": "28250",
    "cct_code_commune": "Senonches",
    "cct_denomination": "CONTROLE TECHNIQUE J.D.S.",
    "cct_adresse": "48 RUE DE LA FERTE VIDAME",
    "cct_tel": null,
    "cct_url": null,
    "cat_vehicule_id": "4",
    "cat_vehicule_libelle": "Camionnette",
    "cat_energie_id": "2",
    "cat_energie_libelle": "Diesel",
    "prix_visite": 80,
    "date_application_visite": "2020-09-11",
    "prix_contre_visite_min": 15,
    "prix_contre_visite_max": 25,
    "date_application_contre_visite": "2020-09-11",
    "cct_siret": 41465882300029,
    "latitude": 48.568505,
    "longitude": 1.024954,
    "coordgeo": {
      "lon": 1.024954,
      "lat": 48.568505
    },
    "cct_statut": "actif"
  },
  {
    "cct_code_dept": "Eure-et-Loir",
    "code_postal": "28250",
    "cct_code_commune": "Senonches",
    "cct_denomination": "CONTROLE TECHNIQUE J.D.S.",
    "cct_adresse": "48 RUE DE LA FERTE VIDAME",
    "cct_tel": null,
    "cct_url": null,
    "cat_vehicule_id": "1",
    "cat_vehicule_libelle": "Voiture Particulière",
    "cat_energie_id": "5",
    "cat_energie_libelle": "Electrique",
    "prix_visite": 100,
    "date_application_visite": "2020-09-11",
    "prix_contre_visite_min": 15,
    "prix_contre_visite_max": 25,
    "date_application_contre_visite": "2020-09-11",
    "cct_siret": 41465882300029,
    "latitude": 48.568505,
    "longitude": 1.024954,
    "coordgeo": {
      "lon": 1.024954,
      "lat": 48.568505
    },
    "cct_statut": "actif"
  },
  {
    "cct_code_dept": "Eure-et-Loir",
    "code_postal": "28800",
    "cct_code_commune": "Bonneval",
    "cct_denomination": "SARL AUTO BILAN BONNEVALAIS",
    "cct_adresse": "2 RUE DENIS PAPIN",
    "cct_tel": "237473750",
    "cct_url": "moncontroletechnique.fr",
    "cat_vehicule_id": "3",
    "cat_vehicule_libelle": "Voiture de collection",
    "cat_energie_id": "2",
    "cat_energie_libelle": "Diesel",
    "prix_visite": 75,
    "date_application_visite": "2020-09-21",
    "prix_contre_visite_min": 0,
    "prix_contre_visite_max": 0,
    "date_application_contre_visite": "2020-09-21",
    "cct_siret": 43255359200028,
    "latitude": 48.178487,
    "longitude": 1.374866,
    "coordgeo": {
      "lon": 1.374866,
      "lat": 48.178487
    },
    "cct_statut": "actif"
  },
  {
    "cct_code_dept": "Eure-et-Loir",
    "code_postal": "28500",
    "cct_code_commune": "Vernouillet",
    "cct_denomination": "CENTRE TECHNIQUE AUTOMOBILE BOUMERAH",
    "cct_adresse": "AV MARC CHAPPEY",
    "cct_tel": "237625695",
    "cct_url": "https://controle-technique-vernouillet.autosecurite.com/",
    "cat_vehicule_id": "5",
    "cat_vehicule_libelle": "Camping-car (moins de 3,5 tonnes)",
    "cat_energie_id": "2",
    "cat_energie_libelle": "Diesel",
    "prix_visite": 85,
    "date_application_visite": "2020-09-15",
    "prix_contre_visite_min": 10,
    "prix_contre_visite_max": 35,
    "date_application_contre_visite": "2020-09-15",
    "cct_siret": 41945892200020,
    "latitude": 48.730709,
    "longitude": 1.339645,
    "coordgeo": {
      "lon": 1.339645,
      "lat": 48.730709
    },
    "cct_statut": "actif"
  },
  {
    "cct_code_dept": "Eure-et-Loir",
    "code_postal": "28500",
    "cct_code_commune": "Vernouillet",
    "cct_denomination": "CENTRE TECHNIQUE AUTOMOBILE BOUMERAH",
    "cct_adresse": "AV MARC CHAPPEY",
    "cct_tel": "237625695",
    "cct_url": "https://controle-technique-vernouillet.autosecurite.com/",
    "cat_vehicule_id": "5",
    "cat_vehicule_libelle": "Camping-car (moins de 3,5 tonnes)",
    "cat_energie_id": "1",
    "cat_energie_libelle": "Essence",
    "prix_visite": 85,
    "date_application_visite": "2020-09-15",
    "prix_contre_visite_min": 10,
    "prix_contre_visite_max": 35,
    "date_application_contre_visite": "2020-09-15",
    "cct_siret": 41945892200020,
    "latitude": 48.730709,
    "longitude": 1.339645,
    "coordgeo": {
      "lon": 1.339645,
      "lat": 48.730709
    },
    "cct_statut": "actif"
  },
  {
    "cct_code_dept": "Eure-et-Loir",
    "code_postal": "78540",
    "cct_code_commune": "Vernouillet",
    "cct_denomination": "CENTRE TECHNIQUE AUTOMOBILE BOUMERAH",
    "cct_adresse": "AV MARC CHAPPEY",
    "cct_tel": "237625695",
    "cct_url": "https://controle-technique-vernouillet.autosecurite.com/",
    "cat_vehicule_id": "1",
    "cat_vehicule_libelle": "Voiture Particulière",
    "cat_energie_id": "5",
    "cat_energie_libelle": "Electrique",
    "prix_visite": 85,
    "date_application_visite": "2020-09-15",
    "prix_contre_visite_min": 10,
    "prix_contre_visite_max": 35,
    "date_application_contre_visite": "2020-09-15",
    "cct_siret": 41945892200020,
    "latitude": 48.730709,
    "longitude": 1.339645,
    "coordgeo": {
      "lon": 1.339645,
      "lat": 48.730709
    },
    "cct_statut": "actif"
  },
  {
    "cct_code_dept": "Eure-et-Loir",
    "code_postal": "28500",
    "cct_code_commune": "Vernouillet",
    "cct_denomination": "CENTRE TECHNIQUE AUTOMOBILE BOUMERAH",
    "cct_adresse": "AV MARC CHAPPEY",
    "cct_tel": "237625695",
    "cct_url": "https://controle-technique-vernouillet.autosecurite.com/",
    "cat_vehicule_id": "3",
    "cat_vehicule_libelle": "Voiture de collection",
    "cat_energie_id": "4",
    "cat_energie_libelle": "Hybride",
    "prix_visite": 85,
    "date_application_visite": "2020-09-15",
    "prix_contre_visite_min": 10,
    "prix_contre_visite_max": 35,
    "date_application_contre_visite": "2020-09-15",
    "cct_siret": 41945892200020,
    "latitude": 48.730709,
    "longitude": 1.339645,
    "coordgeo": {
      "lon": 1.339645,
      "lat": 48.730709
    },
    "cct_statut": "actif"
  },
  {
    "cct_code_dept": "Eure-et-Loir",
    "code_postal": "28320",
    "cct_code_commune": "Gallardon",
    "cct_denomination": "EURL AUTO SECURITE GALLARDON",
    "cct_adresse": "23  ZA SAINT  MATHIEU",
    "cct_tel": "237907037",
    "cct_url": null,
    "cat_vehicule_id": "5",
    "cat_vehicule_libelle": "Camping-car (moins de 3,5 tonnes)",
    "cat_energie_id": "5",
    "cat_energie_libelle": "Electrique",
    "prix_visite": 85,
    "date_application_visite": "2020-09-08",
    "prix_contre_visite_min": 10,
    "prix_contre_visite_max": 26,
    "date_application_contre_visite": "2020-09-08",
    "cct_siret": 51254001400010,
    "latitude": 48.531083,
    "longitude": 1.676842,
    "coordgeo": {
      "lon": 1.676842,
      "lat": 48.531083
    },
    "cct_statut": "actif"
  },
  {
    "cct_code_dept": "Eure-et-Loir",
    "code_postal": "28320",
    "cct_code_commune": "Gallardon",
    "cct_denomination": "EURL AUTO SECURITE GALLARDON",
    "cct_adresse": "23  ZA SAINT  MATHIEU",
    "cct_tel": "237907037",
    "cct_url": null,
    "cat_vehicule_id": "1",
    "cat_vehicule_libelle": "Voiture Particulière",
    "cat_energie_id": "2",
    "cat_energie_libelle": "Diesel",
    "prix_visite": 78,
    "date_application_visite": "2020-09-08",
    "prix_contre_visite_min": 10,
    "prix_contre_visite_max": 26,
    "date_application_contre_visite": "2020-09-08",
    "cct_siret": 51254001400010,
    "latitude": 48.531083,
    "longitude": 1.676842,
    "coordgeo": {
      "lon": 1.676842,
      "lat": 48.531083
    },
    "cct_statut": "actif"
  },
  {
    "cct_code_dept": "Eure-et-Loir",
    "code_postal": "28130",
    "cct_code_commune": "Pierres",
    "cct_denomination": "CONTROLE TECHNIQUE VANESSA FROUDIERE",
    "cct_adresse": "RTE DE BOUGLAINVAL",
    "cct_tel": "237185305",
    "cct_url": null,
    "cat_vehicule_id": "5",
    "cat_vehicule_libelle": "Camping-car (moins de 3,5 tonnes)",
    "cat_energie_id": "3",
    "cat_energie_libelle": "Gaz",
    "prix_visite": 105,
    "date_application_visite": "2023-01-01",
    "prix_contre_visite_min": 12,
    "prix_contre_visite_max": 38,
    "date_application_contre_visite": "2020-09-15",
    "cct_siret": 87748533400016,
    "latitude": 48.583551,
    "longitude": 1.574718,
    "coordgeo": {
      "lon": 1.574718,
      "lat": 48.583551
    },
    "cct_statut": "actif"
  },
  {
    "cct_code_dept": "Eure-et-Loir",
    "code_postal": "28600",
    "cct_code_commune": "Luisant",
    "cct_denomination": "AUTO CONTROLE TECHNIQUE BGF-ACTBGF",
    "cct_adresse": "8 RUE JEAN PERRIN",
    "cct_tel": "237907474",
    "cct_url": null,
    "cat_vehicule_id": "2",
    "cat_vehicule_libelle": "4 x 4",
    "cat_energie_id": "4",
    "cat_energie_libelle": "Hybride",
    "prix_visite": 95,
    "date_application_visite": "2023-01-01",
    "prix_contre_visite_min": 20,
    "prix_contre_visite_max": 35,
    "date_application_contre_visite": "2023-01-01",
    "cct_siret": 41232511000010,
    "latitude": 48.418391,
    "longitude": 1.448942,
    "coordgeo": {
      "lon": 1.448942,
      "lat": 48.418391
    },
    "cct_statut": "actif"
  },
  {
    "cct_code_dept": "Eure-et-Loir",
    "code_postal": "28600",
    "cct_code_commune": "Luisant",
    "cct_denomination": "AUTO CONTROLE TECHNIQUE BGF-ACTBGF",
    "cct_adresse": "8 RUE JEAN PERRIN",
    "cct_tel": "237907474",
    "cct_url": null,
    "cat_vehicule_id": "4",
    "cat_vehicule_libelle": "Camionnette",
    "cat_energie_id": "2",
    "cat_energie_libelle": "Diesel",
    "prix_visite": 90,
    "date_application_visite": "2020-09-08",
    "prix_contre_visite_min": 5,
    "prix_contre_visite_max": 30,
    "date_application_contre_visite": "2020-09-08",
    "cct_siret": 41232511000010,
    "latitude": 48.418391,
    "longitude": 1.448942,
    "coordgeo": {
      "lon": 1.448942,
      "lat": 48.418391
    },
    "cct_statut": "actif"
  },
  {
    "cct_code_dept": "Eure-et-Loir",
    "code_postal": "28600",
    "cct_code_commune": "Luisant",
    "cct_denomination": "AUTO CONTROLE TECHNIQUE BGF-ACTBGF",
    "cct_adresse": "8 RUE JEAN PERRIN",
    "cct_tel": "237907474",
    "cct_url": null,
    "cat_vehicule_id": "1",
    "cat_vehicule_libelle": "Voiture Particulière",
    "cat_energie_id": "1",
    "cat_energie_libelle": "Essence",
    "prix_visite": 85,
    "date_application_visite": "2023-01-01",
    "prix_contre_visite_min": 20,
    "prix_contre_visite_max": 35,
    "date_application_contre_visite": "2023-01-01",
    "cct_siret": 41232511000010,
    "latitude": 48.418391,
    "longitude": 1.448942,
    "coordgeo": {
      "lon": 1.448942,
      "lat": 48.418391
    },
    "cct_statut": "actif"
  },
  {
    "cct_code_dept": "Eure-et-Loir",
    "code_postal": "28600",
    "cct_code_commune": "Luisant",
    "cct_denomination": "AUTO CONTROLE TECHNIQUE BGF-ACTBGF",
    "cct_adresse": "8 RUE JEAN PERRIN",
    "cct_tel": "237907474",
    "cct_url": null,
    "cat_vehicule_id": "3",
    "cat_vehicule_libelle": "Voiture de collection",
    "cat_energie_id": "1",
    "cat_energie_libelle": "Essence",
    "prix_visite": 80,
    "date_application_visite": "2020-09-08",
    "prix_contre_visite_min": 10,
    "prix_contre_visite_max": 30,
    "date_application_contre_visite": "2020-09-08",
    "cct_siret": 41232511000010,
    "latitude": 48.418391,
    "longitude": 1.448942,
    "coordgeo": {
      "lon": 1.448942,
      "lat": 48.418391
    },
    "cct_statut": "actif"
  },
  {
    "cct_code_dept": "Eure-et-Loir",
    "code_postal": "28240",
    "cct_code_commune": "La Loupe",
    "cct_denomination": "LE TERTRE",
    "cct_adresse": "LES PUCELLES",
    "cct_tel": "237813786",
    "cct_url": null,
    "cat_vehicule_id": "1",
    "cat_vehicule_libelle": "Voiture Particulière",
    "cat_energie_id": "3",
    "cat_energie_libelle": "Gaz",
    "prix_visite": 100,
    "date_application_visite": "2020-10-12",
    "prix_contre_visite_min": 15,
    "prix_contre_visite_max": 30,
    "date_application_contre_visite": "2020-10-12",
    "cct_siret": 50855459900011,
    "latitude": null,
    "longitude": null,
    "coordgeo": null,
    "cct_statut": "actif"
  },
  {
    "cct_code_dept": "Eure-et-Loir",
    "code_postal": null,
    "cct_code_commune": "Lucé",
    "cct_denomination": "CONTROLE TECHNIQUE FL",
    "cct_adresse": "Route Du Mans",
    "cct_tel": "237284703",
    "cct_url": null,
    "cat_vehicule_id": "4",
    "cat_vehicule_libelle": "Camionnette",
    "cat_energie_id": "2",
    "cat_energie_libelle": "Diesel",
    "prix_visite": 90,
    "date_application_visite": "2020-09-15",
    "prix_contre_visite_min": 5,
    "prix_contre_visite_max": 30,
    "date_application_contre_visite": "2020-09-15",
    "cct_siret": 82933737700016,
    "latitude": 48.437057,
    "longitude": 1.452004,
    "coordgeo": {
      "lon": 1.452004,
      "lat": 48.437057
    },
    "cct_statut": "actif"
  },
  {
    "cct_code_dept": "Eure-et-Loir",
    "code_postal": null,
    "cct_code_commune": "Lucé",
    "cct_denomination": "CONTROLE TECHNIQUE FL",
    "cct_adresse": "Route Du Mans",
    "cct_tel": "237284703",
    "cct_url": null,
    "cat_vehicule_id": "1",
    "cat_vehicule_libelle": "Voiture Particulière",
    "cat_energie_id": "5",
    "cat_energie_libelle": "Electrique",
    "prix_visite": 90,
    "date_application_visite": "2020-09-15",
    "prix_contre_visite_min": 10,
    "prix_contre_visite_max": 30,
    "date_application_contre_visite": "2020-09-15",
    "cct_siret": 82933737700016,
    "latitude": 48.437057,
    "longitude": 1.452004,
    "coordgeo": {
      "lon": 1.452004,
      "lat": 48.437057
    },
    "cct_statut": "actif"
  },
  {
    "cct_code_dept": "Eure-et-Loir",
    "code_postal": null,
    "cct_code_commune": "Lucé",
    "cct_denomination": "CONTROLE TECHNIQUE FL",
    "cct_adresse": "Route Du Mans",
    "cct_tel": "237284703",
    "cct_url": null,
    "cat_vehicule_id": "3",
    "cat_vehicule_libelle": "Voiture de collection",
    "cat_energie_id": "4",
    "cat_energie_libelle": "Hybride",
    "prix_visite": 90,
    "date_application_visite": "2020-09-15",
    "prix_contre_visite_min": 10,
    "prix_contre_visite_max": 30,
    "date_application_contre_visite": "2020-09-15",
    "cct_siret": 82933737700016,
    "latitude": 48.437057,
    "longitude": 1.452004,
    "coordgeo": {
      "lon": 1.452004,
      "lat": 48.437057
    },
    "cct_statut": "actif"
  },
  {
    "cct_code_dept": "Eure-et-Loir",
    "code_postal": "28630",
    "cct_code_commune": "Gellainville",
    "cct_denomination": "ACTBJ",
    "cct_adresse": "7 RUE HELENE BOUCHER",
    "cct_tel": "237333228",
    "cct_url": null,
    "cat_vehicule_id": "5",
    "cat_vehicule_libelle": "Camping-car (moins de 3,5 tonnes)",
    "cat_energie_id": "4",
    "cat_energie_libelle": "Hybride",
    "prix_visite": 90,
    "date_application_visite": "2020-09-14",
    "prix_contre_visite_min": 90,
    "prix_contre_visite_max": 95,
    "date_application_contre_visite": "2020-09-14",
    "cct_siret": 88234940000011,
    "latitude": 48.43377,
    "longitude": 1.53262,
    "coordgeo": {
      "lon": 1.53262,
      "lat": 48.43377
    },
    "cct_statut": "actif"
  },
  {
    "cct_code_dept": "Eure-et-Loir",
    "code_postal": "28630",
    "cct_code_commune": "Gellainville",
    "cct_denomination": "ACTBJ",
    "cct_adresse": "7 RUE HELENE BOUCHER",
    "cct_tel": "237333228",
    "cct_url": null,
    "cat_vehicule_id": "1",
    "cat_vehicule_libelle": "Voiture Particulière",
    "cat_energie_id": "3",
    "cat_energie_libelle": "Gaz",
    "prix_visite": 90,
    "date_application_visite": "2020-09-14",
    "prix_contre_visite_min": 15,
    "prix_contre_visite_max": 30,
    "date_application_contre_visite": "2020-09-14",
    "cct_siret": 88234940000011,
    "latitude": 48.43377,
    "longitude": 1.53262,
    "coordgeo": {
      "lon": 1.53262,
      "lat": 48.43377
    },
    "cct_statut": "actif"
  },
  {
    "cct_code_dept": "Eure-et-Loir",
    "code_postal": "28260",
    "cct_code_commune": "Saussay",
    "cct_denomination": "CONTROLE TECHNIQUE AUTOMOBILE DES AULNES",
    "cct_adresse": "50 RUE D'ANET",
    "cct_tel": "237622200",
    "cct_url": "https://controletechniqueaulnes.autosecurite.com",
    "cat_vehicule_id": "4",
    "cat_vehicule_libelle": "Camionnette",
    "cat_energie_id": "2",
    "cat_energie_libelle": "Diesel",
    "prix_visite": 83,
    "date_application_visite": "2020-09-17",
    "prix_contre_visite_min": 20,
    "prix_contre_visite_max": 35,
    "date_application_contre_visite": "2020-09-17",
    "cct_siret": 41437630100019,
    "latitude": 48.858949,
    "longitude": 1.424588,
    "coordgeo": {
      "lon": 1.424588,
      "lat": 48.858949
    },
    "cct_statut": "actif"
  },
  {
    "cct_code_dept": "Eure-et-Loir",
    "code_postal": null,
    "cct_code_commune": "Nogent-le-Phaye",
    "cct_denomination": "ABC ARCHEVILLIERS",
    "cct_adresse": "14 RUE GILLES DE ROBERVAL",
    "cct_tel": "237300318",
    "cct_url": null,
    "cat_vehicule_id": "4",
    "cat_vehicule_libelle": "Camionnette",
    "cat_energie_id": "1",
    "cat_energie_libelle": "Essence",
    "prix_visite": 93,
    "date_application_visite": "2023-03-06",
    "prix_contre_visite_min": 10,
    "prix_contre_visite_max": 15,
    "date_application_contre_visite": "2023-03-06",
    "cct_siret": 81409878600019,
    "latitude": 48.454124,
    "longitude": 1.545617,
    "coordgeo": {
      "lon": 1.545617,
      "lat": 48.454124
    },
    "cct_statut": "actif"
  },
  {
    "cct_code_dept": "Eure-et-Loir",
    "code_postal": null,
    "cct_code_commune": "Nogent-le-Phaye",
    "cct_denomination": "ABC ARCHEVILLIERS",
    "cct_adresse": "14 RUE GILLES DE ROBERVAL",
    "cct_tel": "237300318",
    "cct_url": null,
    "cat_vehicule_id": "4",
    "cat_vehicule_libelle": "Camionnette",
    "cat_energie_id": "3",
    "cat_energie_libelle": "Gaz",
    "prix_visite": 95,
    "date_application_visite": "2023-03-01",
    "prix_contre_visite_min": 10,
    "prix_contre_visite_max": 15,
    "date_application_contre_visite": "2023-03-01",
    "cct_siret": 81409878600019,
    "latitude": 48.454124,
    "longitude": 1.545617,
    "coordgeo": {
      "lon": 1.545617,
      "lat": 48.454124
    },
    "cct_statut": "actif"
  },
  {
    "cct_code_dept": "Eure-et-Loir",
    "code_postal": null,
    "cct_code_commune": "Nogent-le-Phaye",
    "cct_denomination": "ABC ARCHEVILLIERS",
    "cct_adresse": "14 RUE GILLES DE ROBERVAL",
    "cct_tel": "237300318",
    "cct_url": null,
    "cat_vehicule_id": "4",
    "cat_vehicule_libelle": "Camionnette",
    "cat_energie_id": "3",
    "cat_energie_libelle": "Gaz",
    "prix_visite": 98,
    "date_application_visite": "2020-09-01",
    "prix_contre_visite_min": 90,
    "prix_contre_visite_max": 98,
    "date_application_contre_visite": "2020-09-01",
    "cct_siret": 81409878600019,
    "latitude": 48.454124,
    "longitude": 1.545617,
    "coordgeo": {
      "lon": 1.545617,
      "lat": 48.454124
    },
    "cct_statut": "actif"
  },
  {
    "cct_code_dept": "Eure-et-Loir",
    "code_postal": null,
    "cct_code_commune": "Nogent-le-Phaye",
    "cct_denomination": "ABC ARCHEVILLIERS",
    "cct_adresse": "14 RUE GILLES DE ROBERVAL",
    "cct_tel": "237300318",
    "cct_url": null,
    "cat_vehicule_id": "4",
    "cat_vehicule_libelle": "Camionnette",
    "cat_energie_id": "4",
    "cat_energie_libelle": "Hybride",
    "prix_visite": 95,
    "date_application_visite": "2023-03-01",
    "prix_contre_visite_min": 10,
    "prix_contre_visite_max": 15,
    "date_application_contre_visite": "2023-03-01",
    "cct_siret": 81409878600019,
    "latitude": 48.454124,
    "longitude": 1.545617,
    "coordgeo": {
      "lon": 1.545617,
      "lat": 48.454124
    },
    "cct_statut": "actif"
  },
  {
    "cct_code_dept": "Eure-et-Loir",
    "code_postal": null,
    "cct_code_commune": "Nogent-le-Phaye",
    "cct_denomination": "ABC ARCHEVILLIERS",
    "cct_adresse": "14 RUE GILLES DE ROBERVAL",
    "cct_tel": "237300318",
    "cct_url": null,
    "cat_vehicule_id": "4",
    "cat_vehicule_libelle": "Camionnette",
    "cat_energie_id": "4",
    "cat_energie_libelle": "Hybride",
    "prix_visite": 98,
    "date_application_visite": "2020-09-01",
    "prix_contre_visite_min": 90,
    "prix_contre_visite_max": 98,
    "date_application_contre_visite": "2020-09-01",
    "cct_siret": 81409878600019,
    "latitude": 48.454124,
    "longitude": 1.545617,
    "coordgeo": {
      "lon": 1.545617,
      "lat": 48.454124
    },
    "cct_statut": "actif"
  },
  {
    "cct_code_dept": "Eure-et-Loir",
    "code_postal": null,
    "cct_code_commune": "Nogent-le-Phaye",
    "cct_denomination": "ABC ARCHEVILLIERS",
    "cct_adresse": "14 RUE GILLES DE ROBERVAL",
    "cct_tel": "237300318",
    "cct_url": null,
    "cat_vehicule_id": "5",
    "cat_vehicule_libelle": "Camping-car (moins de 3,5 tonnes)",
    "cat_energie_id": "2",
    "cat_energie_libelle": "Diesel",
    "prix_visite": 89,
    "date_application_visite": "2020-09-01",
    "prix_contre_visite_min": 89,
    "prix_contre_visite_max": 89,
    "date_application_contre_visite": "2020-09-01",
    "cct_siret": 81409878600019,
    "latitude": 48.454124,
    "longitude": 1.545617,
    "coordgeo": {
      "lon": 1.545617,
      "lat": 48.454124
    },
    "cct_statut": "actif"
  },
  {
    "cct_code_dept": "Eure-et-Loir",
    "code_postal": null,
    "cct_code_commune": "Nogent-le-Phaye",
    "cct_denomination": "ABC ARCHEVILLIERS",
    "cct_adresse": "14 RUE GILLES DE ROBERVAL",
    "cct_tel": "237300318",
    "cct_url": null,
    "cat_vehicule_id": "5",
    "cat_vehicule_libelle": "Camping-car (moins de 3,5 tonnes)",
    "cat_energie_id": "2",
    "cat_energie_libelle": "Diesel",
    "prix_visite": 89,
    "date_application_visite": "2020-09-01",
    "prix_contre_visite_min": 81,
    "prix_contre_visite_max": 89,
    "date_application_contre_visite": "2020-09-01",
    "cct_siret": 81409878600019,
    "latitude": 48.454124,
    "longitude": 1.545617,
    "coordgeo": {
      "lon": 1.545617,
      "lat": 48.454124
    },
    "cct_statut": "actif"
  },
  {
    "cct_code_dept": "Eure-et-Loir",
    "code_postal": null,
    "cct_code_commune": "Nogent-le-Phaye",
    "cct_denomination": "ABC ARCHEVILLIERS",
    "cct_adresse": "14 RUE GILLES DE ROBERVAL",
    "cct_tel": "237300318",
    "cct_url": null,
    "cat_vehicule_id": "5",
    "cat_vehicule_libelle": "Camping-car (moins de 3,5 tonnes)",
    "cat_energie_id": "1",
    "cat_energie_libelle": "Essence",
    "prix_visite": 89,
    "date_application_visite": "2020-09-01",
    "prix_contre_visite_min": 89,
    "prix_contre_visite_max": 89,
    "date_application_contre_visite": "2020-09-01",
    "cct_siret": 81409878600019,
    "latitude": 48.454124,
    "longitude": 1.545617,
    "coordgeo": {
      "lon": 1.545617,
      "lat": 48.454124
    },
    "cct_statut": "actif"
  },
  {
    "cct_code_dept": "Eure-et-Loir",
    "code_postal": null,
    "cct_code_commune": "Nogent-le-Roi",
    "cct_denomination": "NOGENTAISE AUTOMOBILE CONTROLE",
    "cct_adresse": "65 RUE DU FAUBOURG VALMORIN",
    "cct_tel": "237514841",
    "cct_url": null,
    "cat_vehicule_id": "5",
    "cat_vehicule_libelle": "Camping-car (moins de 3,5 tonnes)",
    "cat_energie_id": "3",
    "cat_energie_libelle": "Gaz",
    "prix_visite": 80,
    "date_application_visite": "2021-04-22",
    "prix_contre_visite_min": 25,
    "prix_contre_visite_max": 25,
    "date_application_contre_visite": "2021-04-22",
    "cct_siret": 81500034400011,
    "latitude": 48.652712,
    "longitude": 1.521725,
    "coordgeo": {
      "lon": 1.521725,
      "lat": 48.652712
    },
    "cct_statut": "actif"
  },
  {
    "cct_code_dept": "Eure-et-Loir",
    "code_postal": null,
    "cct_code_commune": "Nogent-le-Roi",
    "cct_denomination": "NOGENTAISE AUTOMOBILE CONTROLE",
    "cct_adresse": "65 RUE DU FAUBOURG VALMORIN",
    "cct_tel": "237514841",
    "cct_url": null,
    "cat_vehicule_id": "1",
    "cat_vehicule_libelle": "Voiture Particulière",
    "cat_energie_id": "5",
    "cat_energie_libelle": "Electrique",
    "prix_visite": 80,
    "date_application_visite": "2021-04-22",
    "prix_contre_visite_min": 25,
    "prix_contre_visite_max": 25,
    "date_application_contre_visite": "2021-04-22",
    "cct_siret": 81500034400011,
    "latitude": 48.652712,
    "longitude": 1.521725,
    "coordgeo": {
      "lon": 1.521725,
      "lat": 48.652712
    },
    "cct_statut": "actif"
  },
  {
    "cct_code_dept": "Eure-et-Loir",
    "code_postal": null,
    "cct_code_commune": "Nogent-le-Roi",
    "cct_denomination": "NOGENTAISE AUTOMOBILE CONTROLE",
    "cct_adresse": "65 RUE DU FAUBOURG VALMORIN",
    "cct_tel": "237514841",
    "cct_url": null,
    "cat_vehicule_id": "3",
    "cat_vehicule_libelle": "Voiture de collection",
    "cat_energie_id": "5",
    "cat_energie_libelle": "Electrique",
    "prix_visite": 80,
    "date_application_visite": "2021-04-22",
    "prix_contre_visite_min": 25,
    "prix_contre_visite_max": 25,
    "date_application_contre_visite": "2021-04-22",
    "cct_siret": 81500034400011,
    "latitude": 48.652712,
    "longitude": 1.521725,
    "coordgeo": {
      "lon": 1.521725,
      "lat": 48.652712
    },
    "cct_statut": "actif"
  },
  {
    "cct_code_dept": "Eure-et-Loir",
    "code_postal": "28300",
    "cct_code_commune": "Mainvilliers",
    "cct_denomination": "CONTROLE TECHNIQUE AUTO MAINVILLIERS",
    "cct_adresse": "10 RUE DE VERDUN",
    "cct_tel": "237216055",
    "cct_url": null,
    "cat_vehicule_id": "4",
    "cat_vehicule_libelle": "Camionnette",
    "cat_energie_id": "2",
    "cat_energie_libelle": "Diesel",
    "prix_visite": 95,
    "date_application_visite": "2023-01-26",
    "prix_contre_visite_min": 10,
    "prix_contre_visite_max": 20,
    "date_application_contre_visite": "2020-08-28",
    "cct_siret": 38315520700012,
    "latitude": 48.453422,
    "longitude": 1.472614,
    "coordgeo": {
      "lon": 1.472614,
      "lat": 48.453422
    },
    "cct_statut": "actif"
  },
  {
    "cct_code_dept": "Eure-et-Loir",
    "code_postal": "28300",
    "cct_code_commune": "Mainvilliers",
    "cct_denomination": "CONTROLE TECHNIQUE AUTO MAINVILLIERS",
    "cct_adresse": "10 RUE DE VERDUN",
    "cct_tel": "237216055",
    "cct_url": null,
    "cat_vehicule_id": "4",
    "cat_vehicule_libelle": "Camionnette",
    "cat_energie_id": "4",
    "cat_energie_libelle": "Hybride",
    "prix_visite": 95,
    "date_application_visite": "2023-01-26",
    "prix_contre_visite_min": 10,
    "prix_contre_visite_max": 30,
    "date_application_contre_visite": "2023-01-26",
    "cct_siret": 38315520700012,
    "latitude": 48.453422,
    "longitude": 1.472614,
    "coordgeo": {
      "lon": 1.472614,
      "lat": 48.453422
    },
    "cct_statut": "actif"
  },
  {
    "cct_code_dept": "Eure-et-Loir",
    "code_postal": null,
    "cct_code_commune": "Voves",
    "cct_denomination": "CONTROLE TECHNIQUE AUTOMOBILE DE VOVES",
    "cct_adresse": "ZA DU MOULIN GEARGEOT",
    "cct_tel": null,
    "cct_url": null,
    "cat_vehicule_id": "2",
    "cat_vehicule_libelle": "4 x 4",
    "cat_energie_id": "3",
    "cat_energie_libelle": "Gaz",
    "prix_visite": 90,
    "date_application_visite": "2020-09-29",
    "prix_contre_visite_min": 10,
    "prix_contre_visite_max": 20,
    "date_application_contre_visite": "2020-09-29",
    "cct_siret": 44858992900018,
    "latitude": 48.291905,
    "longitude": 1.597544,
    "coordgeo": {
      "lon": 1.597544,
      "lat": 48.291905
    },
    "cct_statut": "actif"
  },
  {
    "cct_code_dept": "Eure-et-Loir",
    "code_postal": null,
    "cct_code_commune": "Voves",
    "cct_denomination": "CONTROLE TECHNIQUE AUTOMOBILE DE VOVES",
    "cct_adresse": "ZA DU MOULIN GEARGEOT",
    "cct_tel": null,
    "cct_url": null,
    "cat_vehicule_id": "5",
    "cat_vehicule_libelle": "Camping-car (moins de 3,5 tonnes)",
    "cat_energie_id": "3",
    "cat_energie_libelle": "Gaz",
    "prix_visite": 90,
    "date_application_visite": "2020-09-29",
    "prix_contre_visite_min": 10,
    "prix_contre_visite_max": 30,
    "date_application_contre_visite": "2020-09-29",
    "cct_siret": 44858992900018,
    "latitude": 48.291905,
    "longitude": 1.597544,
    "coordgeo": {
      "lon": 1.597544,
      "lat": 48.291905
    },
    "cct_statut": "actif"
  },
  {
    "cct_code_dept": "Eure-et-Loir",
    "code_postal": null,
    "cct_code_commune": "Saint-Rémy-sur-Avre",
    "cct_denomination": "AUTOMOBILE CONTROLE ACTUEL",
    "cct_adresse": "83 RTE NATIONALE 12",
    "cct_tel": "237366467",
    "cct_url": null,
    "cat_vehicule_id": "1",
    "cat_vehicule_libelle": "Voiture Particulière",
    "cat_energie_id": "3",
    "cat_energie_libelle": "Gaz",
    "prix_visite": 80,
    "date_application_visite": "2021-04-22",
    "prix_contre_visite_min": 25,
    "prix_contre_visite_max": 25,
    "date_application_contre_visite": "2021-04-22",
    "cct_siret": 45052316200011,
    "latitude": 48.754338,
    "longitude": 1.253606,
    "coordgeo": {
      "lon": 1.253606,
      "lat": 48.754338
    },
    "cct_statut": "actif"
  },
  {
    "cct_code_dept": "Eure-et-Loir",
    "code_postal": null,
    "cct_code_commune": "Saint-Rémy-sur-Avre",
    "cct_denomination": "AUTOMOBILE CONTROLE ACTUEL",
    "cct_adresse": "83 RTE NATIONALE 12",
    "cct_tel": "237366467",
    "cct_url": null,
    "cat_vehicule_id": "3",
    "cat_vehicule_libelle": "Voiture de collection",
    "cat_energie_id": "2",
    "cat_energie_libelle": "Diesel",
    "prix_visite": 65,
    "date_application_visite": "2021-04-22",
    "prix_contre_visite_min": 25,
    "prix_contre_visite_max": 25,
    "date_application_contre_visite": "2021-04-22",
    "cct_siret": 45052316200011,
    "latitude": 48.754338,
    "longitude": 1.253606,
    "coordgeo": {
      "lon": 1.253606,
      "lat": 48.754338
    },
    "cct_statut": "actif"
  },
  {
    "cct_code_dept": "Eure-et-Loir",
    "code_postal": null,
    "cct_code_commune": "Épernon",
    "cct_denomination": "A.B.C. AUTO BILAN CASTELNEUVIEN",
    "cct_adresse": "23 RUE DU GENERAL LECLERC",
    "cct_tel": "618926092",
    "cct_url": null,
    "cat_vehicule_id": "4",
    "cat_vehicule_libelle": "Camionnette",
    "cat_energie_id": "5",
    "cat_energie_libelle": "Electrique",
    "prix_visite": 80,
    "date_application_visite": "2020-09-06",
    "prix_contre_visite_min": 15,
    "prix_contre_visite_max": 15,
    "date_application_contre_visite": "2020-09-06",
    "cct_siret": 49330731800029,
    "latitude": 48.60981,
    "longitude": 1.672787,
    "coordgeo": {
      "lon": 1.672787,
      "lat": 48.60981
    },
    "cct_statut": "actif"
  },
  {
    "cct_code_dept": "Eure-et-Loir",
    "code_postal": "28000",
    "cct_code_commune": "Chartres",
    "cct_denomination": "EURL D.B. AUTOCONTROL",
    "cct_adresse": "9 RUE CHARLES COULOMB",
    "cct_tel": null,
    "cct_url": null,
    "cat_vehicule_id": "5",
    "cat_vehicule_libelle": "Camping-car (moins de 3,5 tonnes)",
    "cat_energie_id": "5",
    "cat_energie_libelle": "Electrique",
    "prix_visite": 92,
    "date_application_visite": "2023-01-01",
    "prix_contre_visite_min": 10,
    "prix_contre_visite_max": 40,
    "date_application_contre_visite": "2023-01-01",
    "cct_siret": 50979497000012,
    "latitude": 48.43661,
    "longitude": 1.519061,
    "coordgeo": {
      "lon": 1.519061,
      "lat": 48.43661
    },
    "cct_statut": "actif"
  },
  {
    "cct_code_dept": "Eure-et-Loir",
    "code_postal": "28500",
    "cct_code_commune": "Vernouillet",
    "cct_denomination": "C T A V CONTROLE TECHNIQUE AUTOMOBILE VERNOLITAIN",
    "cct_adresse": "RUE PAUL HENRI SPAAK",
    "cct_tel": "237460012",
    "cct_url": "https://www.dekra-norisko.fr/centres-controle-technique/vernouillet,28500/ctav-controle-technique-automobile-vernolitain,s028d099#utm_source=Google&utm_medium=lienSiteMaps&utm_term=s028d099&utm_content=vernouillet",
    "cat_vehicule_id": "1",
    "cat_vehicule_libelle": "Voiture Particulière",
    "cat_energie_id": "2",
    "cat_energie_libelle": "Diesel",
    "prix_visite": 72,
    "date_application_visite": "2020-09-01",
    "prix_contre_visite_min": 0,
    "prix_contre_visite_max": 30,
    "date_application_contre_visite": "2020-09-01",
    "cct_siret": 82102876800017,
    "latitude": 48.718038,
    "longitude": 1.366807,
    "coordgeo": {
      "lon": 1.366807,
      "lat": 48.718038
    },
    "cct_statut": "actif"
  },
  {
    "cct_code_dept": "Eure-et-Loir",
    "code_postal": "78540",
    "cct_code_commune": "Vernouillet",
    "cct_denomination": "C T A V CONTROLE TECHNIQUE AUTOMOBILE VERNOLITAIN",
    "cct_adresse": "RUE PAUL HENRI SPAAK",
    "cct_tel": "237460012",
    "cct_url": "https://www.dekra-norisko.fr/centres-controle-technique/vernouillet,28500/ctav-controle-technique-automobile-vernolitain,s028d099#utm_source=Google&utm_medium=lienSiteMaps&utm_term=s028d099&utm_content=vernouillet",
    "cat_vehicule_id": "1",
    "cat_vehicule_libelle": "Voiture Particulière",
    "cat_energie_id": "2",
    "cat_energie_libelle": "Diesel",
    "prix_visite": 72,
    "date_application_visite": "2020-09-01",
    "prix_contre_visite_min": 0,
    "prix_contre_visite_max": 30,
    "date_application_contre_visite": "2020-09-01",
    "cct_siret": 82102876800017,
    "latitude": 48.718038,
    "longitude": 1.366807,
    "coordgeo": {
      "lon": 1.366807,
      "lat": 48.718038
    },
    "cct_statut": "actif"
  },
  {
    "cct_code_dept": "Eure-et-Loir",
    "code_postal": null,
    "cct_code_commune": "Auneau",
    "cct_denomination": "ETS KWASNY",
    "cct_adresse": "RTE DE GARNET",
    "cct_tel": "237319089",
    "cct_url": "www.dekra-norisko.fr",
    "cat_vehicule_id": "1",
    "cat_vehicule_libelle": "Voiture Particulière",
    "cat_energie_id": "2",
    "cat_energie_libelle": "Diesel",
    "prix_visite": 75,
    "date_application_visite": "2021-01-04",
    "prix_contre_visite_min": 10,
    "prix_contre_visite_max": 30,
    "date_application_contre_visite": "2021-01-04",
    "cct_siret": 89029411900015,
    "latitude": 48.475489,
    "longitude": 1.766216,
    "coordgeo": {
      "lon": 1.766216,
      "lat": 48.475489
    },
    "cct_statut": "actif"
  },
  {
    "cct_code_dept": "Eure-et-Loir",
    "code_postal": null,
    "cct_code_commune": "Auneau",
    "cct_denomination": "ETS KWASNY",
    "cct_adresse": "RTE DE GARNET",
    "cct_tel": "237319089",
    "cct_url": "www.dekra-norisko.fr",
    "cat_vehicule_id": "3",
    "cat_vehicule_libelle": "Voiture de collection",
    "cat_energie_id": "2",
    "cat_energie_libelle": "Diesel",
    "prix_visite": 75,
    "date_application_visite": "2021-01-04",
    "prix_contre_visite_min": 10,
    "prix_contre_visite_max": 30,
    "date_application_contre_visite": "2021-01-04",
    "cct_siret": 89029411900015,
    "latitude": 48.475489,
    "longitude": 1.766216,
    "coordgeo": {
      "lon": 1.766216,
      "lat": 48.475489
    },
    "cct_statut": "actif"
  },
  {
    "cct_code_dept": "Eure-et-Loir",
    "code_postal": null,
    "cct_code_commune": "Illiers-Combray",
    "cct_denomination": "AUX P'TITS CONTROLEURS",
    "cct_adresse": "1 RUE DES TILLEULS",
    "cct_tel": "237240972",
    "cct_url": "www.dekra-norisko.fr",
    "cat_vehicule_id": "4",
    "cat_vehicule_libelle": "Camionnette",
    "cat_energie_id": "1",
    "cat_energie_libelle": "Essence",
    "prix_visite": 75,
    "date_application_visite": "2021-06-02",
    "prix_contre_visite_min": 20,
    "prix_contre_visite_max": 40,
    "date_application_contre_visite": "2021-06-02",
    "cct_siret": 89522928400016,
    "latitude": 48.307415,
    "longitude": 1.243104,
    "coordgeo": {
      "lon": 1.243104,
      "lat": 48.307415
    },
    "cct_statut": "actif"
  },
  {
    "cct_code_dept": "Eure-et-Loir",
    "code_postal": null,
    "cct_code_commune": "Épernon",
    "cct_denomination": "AUTOBILAN EPERNON",
    "cct_adresse": "23 RUE DU GENERAL LECLERC",
    "cct_tel": "237838090",
    "cct_url": "https://www.dekra-norisko.fr/centres-controle-technique/epernon,28230/autobilan-epernon,s028d114#utm_source=google&utm_medium=mybusiness&utm_campaign=fiche_centre&utm_term=epernon&utm_content=S028D069",
    "cat_vehicule_id": "4",
    "cat_vehicule_libelle": "Camionnette",
    "cat_energie_id": "5",
    "cat_energie_libelle": "Electrique",
    "prix_visite": 81.99,
    "date_application_visite": "2022-05-09",
    "prix_contre_visite_min": 18.99,
    "prix_contre_visite_max": 25.99,
    "date_application_contre_visite": "2022-05-09",
    "cct_siret": 89102625400013,
    "latitude": 48.609807,
    "longitude": 1.67274,
    "coordgeo": {
      "lon": 1.67274,
      "lat": 48.609807
    },
    "cct_statut": "actif"
  },
  {
    "cct_code_dept": "Eure-et-Loir",
    "code_postal": null,
    "cct_code_commune": "Nogent-le-Rotrou",
    "cct_denomination": "ETABLISSEMENTS THERREY",
    "cct_adresse": "15 RUE DES TERRES FORTES",
    "cct_tel": "237539633",
    "cct_url": null,
    "cat_vehicule_id": "1",
    "cat_vehicule_libelle": "Voiture Particulière",
    "cat_energie_id": "5",
    "cat_energie_libelle": "Electrique",
    "prix_visite": 82,
    "date_application_visite": "2020-09-04",
    "prix_contre_visite_min": 25,
    "prix_contre_visite_max": 35,
    "date_application_contre_visite": "2020-09-04",
    "cct_siret": 30163918300096,
    "latitude": 48.327588,
    "longitude": 0.803096,
    "coordgeo": {
      "lon": 0.803096,
      "lat": 48.327588
    },
    "cct_statut": "actif"
  },
  {
    "cct_code_dept": "Eure-et-Loir",
    "code_postal": null,
    "cct_code_commune": "Nogent-le-Rotrou",
    "cct_denomination": "ETABLISSEMENTS THERREY",
    "cct_adresse": "15 RUE DES TERRES FORTES",
    "cct_tel": "237539633",
    "cct_url": null,
    "cat_vehicule_id": "1",
    "cat_vehicule_libelle": "Voiture Particulière",
    "cat_energie_id": "4",
    "cat_energie_libelle": "Hybride",
    "prix_visite": 82,
    "date_application_visite": "2020-09-04",
    "prix_contre_visite_min": 25,
    "prix_contre_visite_max": 35,
    "date_application_contre_visite": "2020-09-04",
    "cct_siret": 30163918300096,
    "latitude": 48.327588,
    "longitude": 0.803096,
    "coordgeo": {
      "lon": 0.803096,
      "lat": 48.327588
    },
    "cct_statut": "actif"
  },
  {
    "cct_code_dept": "Eure-et-Loir",
    "code_postal": "28260",
    "cct_code_commune": "Anet",
    "cct_denomination": "SARL BOUVARD",
    "cct_adresse": "ZA ALLEE GAUCHE D'OULINS",
    "cct_tel": null,
    "cct_url": null,
    "cat_vehicule_id": "4",
    "cat_vehicule_libelle": "Camionnette",
    "cat_energie_id": "5",
    "cat_energie_libelle": "Electrique",
    "prix_visite": 90,
    "date_application_visite": "2020-09-07",
    "prix_contre_visite_min": 15,
    "prix_contre_visite_max": 30,
    "date_application_contre_visite": "2020-09-07",
    "cct_siret": 49287290800016,
    "latitude": 48.864742,
    "longitude": 1.457171,
    "coordgeo": {
      "lon": 1.457171,
      "lat": 48.864742
    },
    "cct_statut": "actif"
  },
  {
    "cct_code_dept": "Eure-et-Loir",
    "code_postal": "28260",
    "cct_code_commune": "Anet",
    "cct_denomination": "SARL BOUVARD",
    "cct_adresse": "ZA ALLEE GAUCHE D'OULINS",
    "cct_tel": null,
    "cct_url": null,
    "cat_vehicule_id": "1",
    "cat_vehicule_libelle": "Voiture Particulière",
    "cat_energie_id": "2",
    "cat_energie_libelle": "Diesel",
    "prix_visite": 87,
    "date_application_visite": "2020-09-07",
    "prix_contre_visite_min": 15,
    "prix_contre_visite_max": 30,
    "date_application_contre_visite": "2020-09-07",
    "cct_siret": 49287290800016,
    "latitude": 48.864742,
    "longitude": 1.457171,
    "coordgeo": {
      "lon": 1.457171,
      "lat": 48.864742
    },
    "cct_statut": "actif"
  },
  {
    "cct_code_dept": "Eure-et-Loir",
    "code_postal": null,
    "cct_code_commune": "Nogent-le-Rotrou",
    "cct_denomination": "CENTRE AUTO BILAN MONTREUIL",
    "cct_adresse": "AV DE LA MESSESSELLE",
    "cct_tel": "344553933",
    "cct_url": null,
    "cat_vehicule_id": "3",
    "cat_vehicule_libelle": "Voiture de collection",
    "cat_energie_id": "1",
    "cat_energie_libelle": "Essence",
    "prix_visite": 74,
    "date_application_visite": "2020-09-12",
    "prix_contre_visite_min": 10,
    "prix_contre_visite_max": 30,
    "date_application_contre_visite": "2020-09-12",
    "cct_siret": 32838567900324,
    "latitude": 48.326457,
    "longitude": 0.808335,
    "coordgeo": {
      "lon": 0.808335,
      "lat": 48.326457
    },
    "cct_statut": "actif"
  },
  {
    "cct_code_dept": "Eure-et-Loir",
    "code_postal": null,
    "cct_code_commune": "Nogent-le-Rotrou",
    "cct_denomination": "AUTO CONTROLE DU PERCHE",
    "cct_adresse": "AV DU PRESIDENT KENNEDY",
    "cct_tel": "237528612",
    "cct_url": "https://controle-technique.autosur.fr/490-autosur-nogent-le-rotrou?utm_source=google&utm_medium=places&utm_campaign=20120425JC",
    "cat_vehicule_id": "5",
    "cat_vehicule_libelle": "Camping-car (moins de 3,5 tonnes)",
    "cat_energie_id": "5",
    "cat_energie_libelle": "Electrique",
    "prix_visite": 85,
    "date_application_visite": "2020-09-06",
    "prix_contre_visite_min": 10,
    "prix_contre_visite_max": 33,
    "date_application_contre_visite": "2020-09-06",
    "cct_siret": 38479381600024,
    "latitude": 48.325587,
    "longitude": 0.799226,
    "coordgeo": {
      "lon": 0.799226,
      "lat": 48.325587
    },
    "cct_statut": "actif"
  },
  {
    "cct_code_dept": "Eure-et-Loir",
    "code_postal": "78540",
    "cct_code_commune": "Vernouillet",
    "cct_denomination": "CENTRE SECURITE CONTROLE AUTOMOBILE DROUAIS",
    "cct_adresse": "88 RUE DE NUISEMENT",
    "cct_tel": "237502500",
    "cct_url": "https://vernouillet.automsa.fr/reservation/iframe/bTxjN85Gm9",
    "cat_vehicule_id": "4",
    "cat_vehicule_libelle": "Camionnette",
    "cat_energie_id": "2",
    "cat_energie_libelle": "Diesel",
    "prix_visite": 80,
    "date_application_visite": "2020-09-08",
    "prix_contre_visite_min": 10,
    "prix_contre_visite_max": 20,
    "date_application_contre_visite": "2020-09-08",
    "cct_siret": 33364374000025,
    "latitude": 48.718003,
    "longitude": 1.376117,
    "coordgeo": {
      "lon": 1.376117,
      "lat": 48.718003
    },
    "cct_statut": "actif"
  },
  {
    "cct_code_dept": "Eure-et-Loir",
    "code_postal": "78540",
    "cct_code_commune": "Vernouillet",
    "cct_denomination": "CENTRE SECURITE CONTROLE AUTOMOBILE DROUAIS",
    "cct_adresse": "88 RUE DE NUISEMENT",
    "cct_tel": "237502500",
    "cct_url": "https://vernouillet.automsa.fr/reservation/iframe/bTxjN85Gm9",
    "cat_vehicule_id": "4",
    "cat_vehicule_libelle": "Camionnette",
    "cat_energie_id": "2",
    "cat_energie_libelle": "Diesel",
    "prix_visite": 80,
    "date_application_visite": "2020-09-08",
    "prix_contre_visite_min": 10,
    "prix_contre_visite_max": 30,
    "date_application_contre_visite": "2020-09-08",
    "cct_siret": 33364374000025,
    "latitude": 48.718003,
    "longitude": 1.376117,
    "coordgeo": {
      "lon": 1.376117,
      "lat": 48.718003
    },
    "cct_statut": "actif"
  },
  {
    "cct_code_dept": "Eure-et-Loir",
    "code_postal": "78540",
    "cct_code_commune": "Vernouillet",
    "cct_denomination": "CENTRE SECURITE CONTROLE AUTOMOBILE DROUAIS",
    "cct_adresse": "88 RUE DE NUISEMENT",
    "cct_tel": "237502500",
    "cct_url": "https://vernouillet.automsa.fr/reservation/iframe/bTxjN85Gm9",
    "cat_vehicule_id": "4",
    "cat_vehicule_libelle": "Camionnette",
    "cat_energie_id": "4",
    "cat_energie_libelle": "Hybride",
    "prix_visite": 85,
    "date_application_visite": "2020-09-08",
    "prix_contre_visite_min": 0,
    "prix_contre_visite_max": 30,
    "date_application_contre_visite": "2020-09-08",
    "cct_siret": 33364374000025,
    "latitude": 48.718003,
    "longitude": 1.376117,
    "coordgeo": {
      "lon": 1.376117,
      "lat": 48.718003
    },
    "cct_statut": "actif"
  },
  {
    "cct_code_dept": "Eure-et-Loir",
    "code_postal": "28500",
    "cct_code_commune": "Vernouillet",
    "cct_denomination": "CENTRE SECURITE CONTROLE AUTOMOBILE DROUAIS",
    "cct_adresse": "88 RUE DE NUISEMENT",
    "cct_tel": "237502500",
    "cct_url": "https://vernouillet.automsa.fr/reservation/iframe/bTxjN85Gm9",
    "cat_vehicule_id": "5",
    "cat_vehicule_libelle": "Camping-car (moins de 3,5 tonnes)",
    "cat_energie_id": "5",
    "cat_energie_libelle": "Electrique",
    "prix_visite": 85,
    "date_application_visite": "2020-09-08",
    "prix_contre_visite_min": 20,
    "prix_contre_visite_max": 30,
    "date_application_contre_visite": "2020-09-08",
    "cct_siret": 33364374000025,
    "latitude": 48.718003,
    "longitude": 1.376117,
    "coordgeo": {
      "lon": 1.376117,
      "lat": 48.718003
    },
    "cct_statut": "actif"
  },
  {
    "cct_code_dept": "Eure-et-Loir",
    "code_postal": "78540",
    "cct_code_commune": "Vernouillet",
    "cct_denomination": "CENTRE SECURITE CONTROLE AUTOMOBILE DROUAIS",
    "cct_adresse": "88 RUE DE NUISEMENT",
    "cct_tel": "237502500",
    "cct_url": "https://vernouillet.automsa.fr/reservation/iframe/bTxjN85Gm9",
    "cat_vehicule_id": "5",
    "cat_vehicule_libelle": "Camping-car (moins de 3,5 tonnes)",
    "cat_energie_id": "1",
    "cat_energie_libelle": "Essence",
    "prix_visite": 85,
    "date_application_visite": "2020-09-08",
    "prix_contre_visite_min": 10,
    "prix_contre_visite_max": 20,
    "date_application_contre_visite": "2020-09-08",
    "cct_siret": 33364374000025,
    "latitude": 48.718003,
    "longitude": 1.376117,
    "coordgeo": {
      "lon": 1.376117,
      "lat": 48.718003
    },
    "cct_statut": "actif"
  },