[
  {
    "cct_code_dept": "Landes",
    "code_postal": "40600",
    "cct_code_commune": "Biscarrosse",
    "cct_denomination": "CENTRE CONTROLE TECHNIQ AUTO HAUTE LANDE",
    "cct_adresse": "RTE DE PARENTIS",
    "cct_tel": "558820999",
    "cct_url": null,
    "cat_vehicule_id": "1",
    "cat_vehicule_libelle": "Voiture Particulière",
    "cat_energie_id": "3",
    "cat_energie_libelle": "Gaz",
    "prix_visite": 95,
    "date_application_visite": "2020-09-03",
    "prix_contre_visite_min": 15,
    "prix_contre_visite_max": 35,
    "date_application_contre_visite": "2020-09-03",
    "cct_siret": 39141437200030,
    "latitude": 44.381797,
    "longitude": -1.144151,
    "coordgeo": {
      "lon": -1.144151,
      "lat": 44.381797
    },
    "cct_statut": "actif"
  },
  {
    "cct_code_dept": "Landes",
    "code_postal": null,
    "cct_code_commune": "Aire-sur-l'Adour",
    "cct_denomination": "C.T.B CONTROLE TECHNIQUE BARCELONNAIS",
    "cct_adresse": "RTE DE VIELLA",
    "cct_tel": "558719658",
    "cct_url": null,
    "cat_vehicule_id": "5",
    "cat_vehicule_libelle": "Camping-car (moins de 3,5 tonnes)",
    "cat_energie_id": "4",
    "cat_energie_libelle": "Hybride",
    "prix_visite": 78,
    "date_application_visite": "2020-09-15",
    "prix_contre_visite_min": 15,
    "prix_contre_visite_max": 25,
    "date_application_contre_visite": "2020-09-15",
    "cct_siret": 44265872000028,
    "latitude": 43.694999,
    "longitude": -0.25346,
    "coordgeo": {
      "lon": -0.25346,
      "lat": 43.694999
    },
    "cct_statut": "actif"
  },
  {
    "cct_code_dept": "Landes",
    "code_postal": null,
    "cct_code_commune": "Morcenx",
    "cct_denomination": "CLCT",
    "cct_adresse": "RTE DE MONT DE MARSAN",
    "cct_tel": "558041414",
    "cct_url": null,
    "cat_vehicule_id": "2",
    "cat_vehicule_libelle": "4 x 4",
    "cat_energie_id": "3",
    "cat_energie_libelle": "Gaz",
    "prix_visite": 97,
    "date_application_visite": "2020-09-14",
    "prix_contre_visite_min": 20,
    "prix_contre_visite_max": 35,
    "date_application_contre_visite": "2023-01-02",
    "cct_siret": 81415784800015,
    "latitude": 44.013806,
    "longitude": -0.840092,
    "coordgeo": {
      "lon": -0.840092,
      "lat": 44.013806
    },
    "cct_statut": "actif"
  },
  {
    "cct_code_dept": "Landes",
    "code_postal": null,
    "cct_code_commune": "Morcenx",
    "cct_denomination": "CLCT",
    "cct_adresse": "RTE DE MONT DE MARSAN",
    "cct_tel": "558041414",
    "cct_url": null,
    "cat_vehicule_id": "1",
    "cat_vehicule_libelle": "Voiture Particulière",
    "cat_energie_id": "1",
    "cat_energie_libelle": "Essence",
    "prix_visite": 80,
    "date_application_visite": "2020-09-14",
    "prix_contre_visite_min": 15,
    "prix_contre_visite_max": 35,
    "date_application_contre_visite": "2020-09-14",
    "cct_siret": 81415784800015,
    "latitude": 44.013806,
    "longitude": -0.840092,
    "coordgeo": {
      "lon": -0.840092,
      "lat": 44.013806
    },
    "cct_statut": "actif"
  },
  {
    "cct_code_dept": "Landes",
    "code_postal": "40310",
    "cct_code_commune": "Gabarret",
    "cct_denomination": "LANDGERS CONTROL",
    "cct_adresse": "151 RTE DE L AVENIR",
    "cct_tel": "558756401",
    "cct_url": "https://controle-technique-gabarret.autosecurite.com",
    "cat_vehicule_id": "4",
    "cat_vehicule_libelle": "Camionnette",
    "cat_energie_id": "1",
    "cat_energie_libelle": "Essence",
    "prix_visite": 70,
    "date_application_visite": "2020-09-14",
    "prix_contre_visite_min": 10,
    "prix_contre_visite_max": 15,
    "date_application_contre_visite": "2020-09-14",
    "cct_siret": 81507132900016,
    "latitude": 43.977632,
    "longitude": 0.008977,
    "coordgeo": {
      "lon": 0.008977,
      "lat": 43.977632
    },
    "cct_statut": "actif"
  },
  {
    "cct_code_dept": "Landes",
    "code_postal": "40310",
    "cct_code_commune": "Gabarret",
    "cct_denomination": "LANDGERS CONTROL",
    "cct_adresse": "151 RTE DE L AVENIR",
    "cct_tel": "558756401",
    "cct_url": "https://controle-technique-gabarret.autosecurite.com",
    "cat_vehicule_id": "1",
    "cat_vehicule_libelle": "Voiture Particulière",
    "cat_energie_id": "2",
    "cat_energie_libelle": "Diesel",
    "prix_visite": 75,
    "date_application_visite": "2020-09-14",
    "prix_contre_visite_min": 15,
    "prix_contre_visite_max": 75,
    "date_application_contre_visite": "2020-09-14",
    "cct_siret": 81507132900016,
    "latitude": 43.977632,
    "longitude": 0.008977,
    "coordgeo": {
      "lon": 0.008977,
      "lat": 43.977632
    },
    "cct_statut": "actif"
  },
  {
    "cct_code_dept": "Landes",
    "code_postal": "40310",
    "cct_code_commune": "Gabarret",
    "cct_denomination": "LANDGERS CONTROL",
    "cct_adresse": "151 RTE DE L AVENIR",
    "cct_tel": "558756401",
    "cct_url": "https://controle-technique-gabarret.autosecurite.com",
    "cat_vehicule_id": "1",
    "cat_vehicule_libelle": "Voiture Particulière",
    "cat_energie_id": "2",
    "cat_energie_libelle": "Diesel",
    "prix_visite": 75,
    "date_application_visite": "2020-09-14",
    "prix_contre_visite_min": 10,
    "prix_contre_visite_max": 40,
    "date_application_contre_visite": "2020-09-14",
    "cct_siret": 81507132900016,
    "latitude": 43.977632,
    "longitude": 0.008977,
    "coordgeo": {
      "lon": 0.008977,
      "lat": 43.977632
    },
    "cct_statut": "actif"
  },
  {
    "cct_code_dept": "Landes",
    "code_postal": "40220",
    "cct_code_commune": "Tarnos",
    "cct_denomination": "CONTROLE TECHNIQUE MONCADE",
    "cct_adresse": "RTE NATIONALE 10",
    "cct_tel": "559747070",
    "cct_url": "https://www.controletechniquemoncade.fr",
    "cat_vehicule_id": "1",
    "cat_vehicule_libelle": "Voiture Particulière",
    "cat_energie_id": "3",
    "cat_energie_libelle": "Gaz",
    "prix_visite": 112,
    "date_application_visite": "2020-09-10",
    "prix_contre_visite_min": 15,
    "prix_contre_visite_max": 35,
    "date_application_contre_visite": "2020-09-10",
    "cct_siret": 75314822000027,
    "latitude": 43.546055,
    "longitude": -1.461065,
    "coordgeo": {
      "lon": -1.461065,
      "lat": 43.546055
    },
    "cct_statut": "actif"
  },
  {
    "cct_code_dept": "Landes",
    "code_postal": "40220",
    "cct_code_commune": "Tarnos",
    "cct_denomination": "CONTROLE TECHNIQUE MONCADE",
    "cct_adresse": "RTE NATIONALE 10",
    "cct_tel": "559747070",
    "cct_url": "https://www.controletechniquemoncade.fr",
    "cat_vehicule_id": "3",
    "cat_vehicule_libelle": "Voiture de collection",
    "cat_energie_id": "2",
    "cat_energie_libelle": "Diesel",
    "prix_visite": 95,
    "date_application_visite": "2020-09-10",
    "prix_contre_visite_min": 15,
    "prix_contre_visite_max": 35,
    "date_application_contre_visite": "2020-09-10",
    "cct_siret": 75314822000027,
    "latitude": 43.546055,
    "longitude": -1.461065,
    "coordgeo": {
      "lon": -1.461065,
      "lat": 43.546055
    },
    "cct_statut": "actif"
  },
  {
    "cct_code_dept": "Landes",
    "code_postal": "40600",
    "cct_code_commune": "Biscarrosse",
    "cct_denomination": "AGREE AURILLAC AUTO CONTROLE",
    "cct_adresse": "1031 AV DE LAOUADIE",
    "cct_tel": null,
    "cct_url": null,
    "cat_vehicule_id": "2",
    "cat_vehicule_libelle": "4 x 4",
    "cat_energie_id": "2",
    "cat_energie_libelle": "Diesel",
    "prix_visite": 79,
    "date_application_visite": "2020-09-07",
    "prix_contre_visite_min": 5,
    "prix_contre_visite_max": 20,
    "date_application_contre_visite": "2020-09-07",
    "cct_siret": 49310396400026,
    "latitude": 44.410721,
    "longitude": -1.168733,
    "coordgeo": {
      "lon": -1.168733,
      "lat": 44.410721
    },
    "cct_statut": "actif"
  },
  {
    "cct_code_dept": "Landes",
    "code_postal": "40100",
    "cct_code_commune": "Dax",
    "cct_denomination": "CONTROLE TECHNIQUE DAX NARROSSE",
    "cct_adresse": "10 RUE D ARGOUBET",
    "cct_tel": null,
    "cct_url": null,
    "cat_vehicule_id": "3",
    "cat_vehicule_libelle": "Voiture de collection",
    "cat_energie_id": "5",
    "cat_energie_libelle": "Electrique",
    "prix_visite": 79,
    "date_application_visite": "2020-09-03",
    "prix_contre_visite_min": 10,
    "prix_contre_visite_max": 30,
    "date_application_contre_visite": "2020-09-03",
    "cct_siret": 81189773500015,
    "latitude": 43.705145,
    "longitude": -1.03335,
    "coordgeo": {
      "lon": -1.03335,
      "lat": 43.705145
    },
    "cct_statut": "actif"
  },
  {
    "cct_code_dept": "Landes",
    "code_postal": null,
    "cct_code_commune": "Saint-Paul-lès-Dax",
    "cct_denomination": "SAINT PAUL CONTROLE",
    "cct_adresse": "1245 AV DE LA RESISTANCE",
    "cct_tel": "558913410",
    "cct_url": "https://agenda.dekra-norisko.fr",
    "cat_vehicule_id": "4",
    "cat_vehicule_libelle": "Camionnette",
    "cat_energie_id": "3",
    "cat_energie_libelle": "Gaz",
    "prix_visite": 90,
    "date_application_visite": "2020-09-04",
    "prix_contre_visite_min": 15,
    "prix_contre_visite_max": 30,
    "date_application_contre_visite": "2020-09-04",
    "cct_siret": 81228796900016,
    "latitude": 43.725306,
    "longitude": -1.066062,
    "coordgeo": {
      "lon": -1.066062,
      "lat": 43.725306
    },
    "cct_statut": "actif"
  },
  {
    "cct_code_dept": "Landes",
    "code_postal": null,
    "cct_code_commune": "Saint-Paul-lès-Dax",
    "cct_denomination": "SAINT PAUL CONTROLE",
    "cct_adresse": "1245 AV DE LA RESISTANCE",
    "cct_tel": "558913410",
    "cct_url": "https://agenda.dekra-norisko.fr",
    "cat_vehicule_id": "3",
    "cat_vehicule_libelle": "Voiture de collection",
    "cat_energie_id": "4",
    "cat_energie_libelle": "Hybride",
    "prix_visite": 75,
    "date_application_visite": "2020-09-04",
    "prix_contre_visite_min": 10,
    "prix_contre_visite_max": 30,
    "date_application_contre_visite": "2020-09-04",
    "cct_siret": 81228796900016,
    "latitude": 43.725306,
    "longitude": -1.066062,
    "coordgeo": {
      "lon": -1.066062,
      "lat": 43.725306
    },
    "cct_statut": "actif"
  },
  {
    "cct_code_dept": "Landes",
    "code_postal": null,
    "cct_code_commune": "Mont-de-Marsan",
    "cct_denomination": "MONTCONTROLE",
    "cct_adresse": "220 AV DU MARECHAL JUIN",
    "cct_tel": null,
    "cct_url": null,
    "cat_vehicule_id": "5",
    "cat_vehicule_libelle": "Camping-car (moins de 3,5 tonnes)",
    "cat_energie_id": "5",
    "cat_energie_libelle": "Electrique",
    "prix_visite": 90,
    "date_application_visite": "2020-09-11",
    "prix_contre_visite_min": 25,
    "prix_contre_visite_max": 50,
    "date_application_contre_visite": "2020-09-11",
    "cct_siret": 81971143300014,
    "latitude": 43.899136,
    "longitude": -0.485821,
    "coordgeo": {
      "lon": -0.485821,
      "lat": 43.899136
    },
    "cct_statut": "actif"
  },
  {
    "cct_code_dept": "Landes",
    "code_postal": null,
    "cct_code_commune": "Mont-de-Marsan",
    "cct_denomination": "MONTCONTROLE",
    "cct_adresse": "220 AV DU MARECHAL JUIN",
    "cct_tel": null,
    "cct_url": null,
    "cat_vehicule_id": "1",
    "cat_vehicule_libelle": "Voiture Particulière",
    "cat_energie_id": "5",
    "cat_energie_libelle": "Electrique",
    "prix_visite": 79,
    "date_application_visite": "2020-09-11",
    "prix_contre_visite_min": 25,
    "prix_contre_visite_max": 50,
    "date_application_contre_visite": "2020-09-11",
    "cct_siret": 81971143300014,
    "latitude": 43.899136,
    "longitude": -0.485821,
    "coordgeo": {
      "lon": -0.485821,
      "lat": 43.899136
    },
    "cct_statut": "actif"
  },
  {
    "cct_code_dept": "Landes",
    "code_postal": "40140",
    "cct_code_commune": "Soustons",
    "cct_denomination": "CONTROLE AUTO SOUSTONS",
    "cct_adresse": "19 RUE DE GASCOGNE",
    "cct_tel": "558414050",
    "cct_url": "https://dekra-ct.fr/soustons",
    "cat_vehicule_id": "5",
    "cat_vehicule_libelle": "Camping-car (moins de 3,5 tonnes)",
    "cat_energie_id": "2",
    "cat_energie_libelle": "Diesel",
    "prix_visite": 80,
    "date_application_visite": "2022-10-10",
    "prix_contre_visite_min": 10,
    "prix_contre_visite_max": 20,
    "date_application_contre_visite": "2022-10-10",
    "cct_siret": 80913056000026,
    "latitude": 43.7466,
    "longitude": -1.331163,
    "coordgeo": {
      "lon": -1.331163,
      "lat": 43.7466
    },
    "cct_statut": "actif"
  },
  {
    "cct_code_dept": "Landes",
    "code_postal": "40140",
    "cct_code_commune": "Soustons",
    "cct_denomination": "CONTROLE AUTO SOUSTONS",
    "cct_adresse": "19 RUE DE GASCOGNE",
    "cct_tel": "558414050",
    "cct_url": "https://dekra-ct.fr/soustons",
    "cat_vehicule_id": "1",
    "cat_vehicule_libelle": "Voiture Particulière",
    "cat_energie_id": "1",
    "cat_energie_libelle": "Essence",
    "prix_visite": 79,
    "date_application_visite": "2020-09-05",
    "prix_contre_visite_min": 9,
    "prix_contre_visite_max": 18,
    "date_application_contre_visite": "2020-09-05",
    "cct_siret": 80913056000026,
    "latitude": 43.7466,
    "longitude": -1.331163,
    "coordgeo": {
      "lon": -1.331163,
      "lat": 43.7466
    },
    "cct_statut": "actif"
  },
  {
    "cct_code_dept": "Landes",
    "code_postal": "40140",
    "cct_code_commune": "Soustons",
    "cct_denomination": "CONTROLE AUTO SOUSTONS",
    "cct_adresse": "19 RUE DE GASCOGNE",
    "cct_tel": "558414050",
    "cct_url": "https://dekra-ct.fr/soustons",
    "cat_vehicule_id": "3",
    "cat_vehicule_libelle": "Voiture de collection",
    "cat_energie_id": "2",
    "cat_energie_libelle": "Diesel",
    "prix_visite": 79,
    "date_application_visite": "2020-09-05",
    "prix_contre_visite_min": 9,
    "prix_contre_visite_max": 18,
    "date_application_contre_visite": "2020-09-05",
    "cct_siret": 80913056000026,
    "latitude": 43.7466,
    "longitude": -1.331163,
    "coordgeo": {
      "lon": -1.331163,
      "lat": 43.7466
    },
    "cct_statut": "actif"
  },
  {
    "cct_code_dept": "Landes",
    "code_postal": "40400",
    "cct_code_commune": "Tartas",
    "cct_denomination": "AUTO-BILAN TARUSATE",
    "cct_adresse": "136 PL DU LUC",
    "cct_tel": "558735577",
    "cct_url": "https://www.dekra-norisko.fr/centres-controle-technique/tartas,40400/auto-bilan-tarusate,s040d135#utm_source=google&utm_campaign=mybusiness&utm_term=Tartas",
    "cat_vehicule_id": "5",
    "cat_vehicule_libelle": "Camping-car (moins de 3,5 tonnes)",
    "cat_energie_id": "2",
    "cat_energie_libelle": "Diesel",
    "prix_visite": 88,
    "date_application_visite": "2020-09-30",
    "prix_contre_visite_min": 10,
    "prix_contre_visite_max": 35,
    "date_application_contre_visite": "2020-09-30",
    "cct_siret": 84533221200016,
    "latitude": 43.833744,
    "longitude": -0.811638,
    "coordgeo": {
      "lon": -0.811638,
      "lat": 43.833744
    },
    "cct_statut": "actif"
  },
  {
    "cct_code_dept": "Landes",
    "code_postal": "40400",
    "cct_code_commune": "Tartas",
    "cct_denomination": "AUTO-BILAN TARUSATE",
    "cct_adresse": "136 PL DU LUC",
    "cct_tel": "558735577",
    "cct_url": "https://www.dekra-norisko.fr/centres-controle-technique/tartas,40400/auto-bilan-tarusate,s040d135#utm_source=google&utm_campaign=mybusiness&utm_term=Tartas",
    "cat_vehicule_id": "5",
    "cat_vehicule_libelle": "Camping-car (moins de 3,5 tonnes)",
    "cat_energie_id": "3",
    "cat_energie_libelle": "Gaz",
    "prix_visite": 88,
    "date_application_visite": "2020-09-30",
    "prix_contre_visite_min": 10,
    "prix_contre_visite_max": 35,
    "date_application_contre_visite": "2020-09-30",
    "cct_siret": 84533221200016,
    "latitude": 43.833744,
    "longitude": -0.811638,
    "coordgeo": {
      "lon": -0.811638,
      "lat": 43.833744
    },
    "cct_statut": "actif"
  },
  {
    "cct_code_dept": "Landes",
    "code_postal": "40400",
    "cct_code_commune": "Tartas",
    "cct_denomination": "AUTO-BILAN TARUSATE",
    "cct_adresse": "136 PL DU LUC",
    "cct_tel": "558735577",
    "cct_url": "https://www.dekra-norisko.fr/centres-controle-technique/tartas,40400/auto-bilan-tarusate,s040d135#utm_source=google&utm_campaign=mybusiness&utm_term=Tartas",
    "cat_vehicule_id": "1",
    "cat_vehicule_libelle": "Voiture Particulière",
    "cat_energie_id": "4",
    "cat_energie_libelle": "Hybride",
    "prix_visite": 77,
    "date_application_visite": "2020-09-30",
    "prix_contre_visite_min": 10,
    "prix_contre_visite_max": 20,
    "date_application_contre_visite": "2020-09-30",
    "cct_siret": 84533221200016,
    "latitude": 43.833744,
    "longitude": -0.811638,
    "coordgeo": {
      "lon": -0.811638,
      "lat": 43.833744
    },
    "cct_statut": "actif"
  },
  {
    "cct_code_dept": "Landes",
    "code_postal": "40600",
    "cct_code_commune": "Biscarrosse",
    "cct_denomination": "BISCA AUTO CONTROLE",
    "cct_adresse": "1031 AV DE LAOUADIE",
    "cct_tel": "777361615",
    "cct_url": null,
    "cat_vehicule_id": "5",
    "cat_vehicule_libelle": "Camping-car (moins de 3,5 tonnes)",
    "cat_energie_id": "5",
    "cat_energie_libelle": "Electrique",
    "prix_visite": 98,
    "date_application_visite": "2023-04-05",
    "prix_contre_visite_min": 10,
    "prix_contre_visite_max": 10,
    "date_application_contre_visite": "2023-04-05",
    "cct_siret": 92240018900010,
    "latitude": 44.411007,
    "longitude": -1.172452,
    "coordgeo": {
      "lon": -1.172452,
      "lat": 44.411007
    },
    "cct_statut": "actif"
  },
  {
    "cct_code_dept": "Landes",
    "code_postal": "40100",
    "cct_code_commune": "Dax",
    "cct_denomination": "C.C.T.A. RIVE DROITE AUTOVISION",
    "cct_adresse": "4 ALL PAMPARA",
    "cct_tel": "558740517",
    "cct_url": null,
    "cat_vehicule_id": "2",
    "cat_vehicule_libelle": "4 x 4",
    "cat_energie_id": "1",
    "cat_energie_libelle": "Essence",
    "prix_visite": 75,
    "date_application_visite": "2020-09-07",
    "prix_contre_visite_min": 15,
    "prix_contre_visite_max": 22,
    "date_application_contre_visite": "2020-09-07",
    "cct_siret": 48539840800016,
    "latitude": 43.717325,
    "longitude": -1.054479,
    "coordgeo": {
      "lon": -1.054479,
      "lat": 43.717325
    },
    "cct_statut": "actif"
  },
  {
    "cct_code_dept": "Landes",
    "code_postal": "40100",
    "cct_code_commune": "Dax",
    "cct_denomination": "C.C.T.A. RIVE DROITE AUTOVISION",
    "cct_adresse": "4 ALL PAMPARA",
    "cct_tel": "558740517",
    "cct_url": null,
    "cat_vehicule_id": "2",
    "cat_vehicule_libelle": "4 x 4",
    "cat_energie_id": "4",
    "cat_energie_libelle": "Hybride",
    "prix_visite": 75,
    "date_application_visite": "2020-09-07",
    "prix_contre_visite_min": 15,
    "prix_contre_visite_max": 22,
    "date_application_contre_visite": "2020-09-07",
    "cct_siret": 48539840800016,
    "latitude": 43.717325,
    "longitude": -1.054479,
    "coordgeo": {
      "lon": -1.054479,
      "lat": 43.717325
    },
    "cct_statut": "actif"
  },
  {
    "cct_code_dept": "Landes",
    "code_postal": "40100",
    "cct_code_commune": "Dax",
    "cct_denomination": "C.C.T.A. RIVE DROITE AUTOVISION",
    "cct_adresse": "4 ALL PAMPARA",
    "cct_tel": "558740517",
    "cct_url": null,
    "cat_vehicule_id": "4",
    "cat_vehicule_libelle": "Camionnette",
    "cat_energie_id": "5",
    "cat_energie_libelle": "Electrique",
    "prix_visite": 75,
    "date_application_visite": "2020-09-07",
    "prix_contre_visite_min": 15,
    "prix_contre_visite_max": 22,
    "date_application_contre_visite": "2020-09-07",
    "cct_siret": 48539840800016,
    "latitude": 43.717325,
    "longitude": -1.054479,
    "coordgeo": {
      "lon": -1.054479,
      "lat": 43.717325
    },
    "cct_statut": "actif"
  },
  {
    "cct_code_dept": "Landes",
    "code_postal": "40100",
    "cct_code_commune": "Dax",
    "cct_denomination": "C.C.T.A. RIVE DROITE AUTOVISION",
    "cct_adresse": "4 ALL PAMPARA",
    "cct_tel": "558740517",
    "cct_url": null,
    "cat_vehicule_id": "5",
    "cat_vehicule_libelle": "Camping-car (moins de 3,5 tonnes)",
    "cat_energie_id": "3",
    "cat_energie_libelle": "Gaz",
    "prix_visite": 85,
    "date_application_visite": "2020-09-07",
    "prix_contre_visite_min": 15,
    "prix_contre_visite_max": 22,
    "date_application_contre_visite": "2020-09-07",
    "cct_siret": 48539840800016,
    "latitude": 43.717325,
    "longitude": -1.054479,
    "coordgeo": {
      "lon": -1.054479,
      "lat": 43.717325
    },
    "cct_statut": "actif"
  },
  {
    "cct_code_dept": "Landes",
    "code_postal": "40260",
    "cct_code_commune": "Castets",
    "cct_denomination": "CT DE CASTETS SARLU",
    "cct_adresse": "315 RUE DE GASCOGNE",
    "cct_tel": "558550083",
    "cct_url": null,
    "cat_vehicule_id": "4",
    "cat_vehicule_libelle": "Camionnette",
    "cat_energie_id": "2",
    "cat_energie_libelle": "Diesel",
    "prix_visite": 70,
    "date_application_visite": "2020-09-03",
    "prix_contre_visite_min": 15,
    "prix_contre_visite_max": 70,
    "date_application_contre_visite": "2020-09-03",
    "cct_siret": 78969760400013,
    "latitude": 43.873718,
    "longitude": -1.143085,
    "coordgeo": {
      "lon": -1.143085,
      "lat": 43.873718
    },
    "cct_statut": "actif"
  },
  {
    "cct_code_dept": "Landes",
    "code_postal": "40700",
    "cct_code_commune": "Hagetmau",
    "cct_denomination": "CONTROLE TECHNIQUE AUTOMOBILE HAGETMAUTIEN",
    "cct_adresse": "LD MONPLAISIR",
    "cct_tel": "558794000",
    "cct_url": null,
    "cat_vehicule_id": "4",
    "cat_vehicule_libelle": "Camionnette",
    "cat_energie_id": "3",
    "cat_energie_libelle": "Gaz",
    "prix_visite": 85,
    "date_application_visite": "2020-09-08",
    "prix_contre_visite_min": 10,
    "prix_contre_visite_max": 10,
    "date_application_contre_visite": "2020-09-08",
    "cct_siret": 81797554300015,
    "latitude": 43.64117,
    "longitude": -0.619051,
    "coordgeo": {
      "lon": -0.619051,
      "lat": 43.64117
    },
    "cct_statut": "actif"
  },
  {
    "cct_code_dept": "Landes",
    "code_postal": null,
    "cct_code_commune": "Villeneuve-de-Marsan",
    "cct_denomination": "EURL LAURIE VERDIER",
    "cct_adresse": "62 CHE DES BRUYERES",
    "cct_tel": "558459354",
    "cct_url": "ct-autovision-verdier.fr",
    "cat_vehicule_id": "1",
    "cat_vehicule_libelle": "Voiture Particulière",
    "cat_energie_id": "2",
    "cat_energie_libelle": "Diesel",
    "prix_visite": 73,
    "date_application_visite": "2023-01-11",
    "prix_contre_visite_min": 10,
    "prix_contre_visite_max": 15,
    "date_application_contre_visite": "2020-09-09",
    "cct_siret": 82448422400012,
    "latitude": 43.884631,
    "longitude": -0.311614,
    "coordgeo": {
      "lon": -0.311614,
      "lat": 43.884631
    },
    "cct_statut": "actif"
  },
  {
    "cct_code_dept": "Landes",
    "code_postal": "32390",
    "cct_code_commune": "Roquefort",
    "cct_denomination": "EURL LAURIE VERDIER",
    "cct_adresse": "145 CHE DE COUSSEILAT",
    "cct_tel": "558456038",
    "cct_url": "ct-autovision-verdier.fr",
    "cat_vehicule_id": "4",
    "cat_vehicule_libelle": "Camionnette",
    "cat_energie_id": "3",
    "cat_energie_libelle": "Gaz",
    "prix_visite": 75,
    "date_application_visite": "2020-09-09",
    "prix_contre_visite_min": 10,
    "prix_contre_visite_max": 15,
    "date_application_contre_visite": "2020-09-09",
    "cct_siret": 82448422400020,
    "latitude": 44.041889,
    "longitude": -0.320331,
    "coordgeo": {
      "lon": -0.320331,
      "lat": 44.041889
    },
    "cct_statut": "actif"
  },
  {
    "cct_code_dept": "Landes",
    "code_postal": "32390",
    "cct_code_commune": "Roquefort",
    "cct_denomination": "EURL LAURIE VERDIER",
    "cct_adresse": "145 CHE DE COUSSEILAT",
    "cct_tel": "558456038",
    "cct_url": "ct-autovision-verdier.fr",
    "cat_vehicule_id": "5",
    "cat_vehicule_libelle": "Camping-car (moins de 3,5 tonnes)",
    "cat_energie_id": "2",
    "cat_energie_libelle": "Diesel",
    "prix_visite": 81,
    "date_application_visite": "2023-01-11",
    "prix_contre_visite_min": 10,
    "prix_contre_visite_max": 15,
    "date_application_contre_visite": "2020-09-09",
    "cct_siret": 82448422400020,
    "latitude": 44.041889,
    "longitude": -0.320331,
    "coordgeo": {
      "lon": -0.320331,
      "lat": 44.041889
    },
    "cct_statut": "actif"
  },
  {
    "cct_code_dept": "Landes",
    "code_postal": "47310",
    "cct_code_commune": "Roquefort",
    "cct_denomination": "EURL LAURIE VERDIER",
    "cct_adresse": "145 CHE DE COUSSEILAT",
    "cct_tel": "558456038",
    "cct_url": "ct-autovision-verdier.fr",
    "cat_vehicule_id": "5",
    "cat_vehicule_libelle": "Camping-car (moins de 3,5 tonnes)",
    "cat_energie_id": "1",
    "cat_energie_libelle": "Essence",
    "prix_visite": 81,
    "date_application_visite": "2023-01-11",
    "prix_contre_visite_min": 10,
    "prix_contre_visite_max": 15,
    "date_application_contre_visite": "2020-09-09",
    "cct_siret": 82448422400020,
    "latitude": 44.041889,
    "longitude": -0.320331,
    "coordgeo": {
      "lon": -0.320331,
      "lat": 44.041889
    },
    "cct_statut": "actif"
  },
  {
    "cct_code_dept": "Landes",
    "code_postal": "40120",
    "cct_code_commune": "Roquefort",
    "cct_denomination": "EURL LAURIE VERDIER",
    "cct_adresse": "145 CHE DE COUSSEILAT",
    "cct_tel": "558456038",
    "cct_url": "ct-autovision-verdier.fr",
    "cat_vehicule_id": "5",
    "cat_vehicule_libelle": "Camping-car (moins de 3,5 tonnes)",
    "cat_energie_id": "3",
    "cat_energie_libelle": "Gaz",
    "prix_visite": 78,
    "date_application_visite": "2020-09-09",
    "prix_contre_visite_min": 10,
    "prix_contre_visite_max": 15,
    "date_application_contre_visite": "2020-09-09",
    "cct_siret": 82448422400020,
    "latitude": 44.041889,
    "longitude": -0.320331,
    "coordgeo": {
      "lon": -0.320331,
      "lat": 44.041889
    },
    "cct_statut": "actif"
  },
  {
    "cct_code_dept": "Landes",
    "code_postal": "47310",
    "cct_code_commune": "Roquefort",
    "cct_denomination": "EURL LAURIE VERDIER",
    "cct_adresse": "145 CHE DE COUSSEILAT",
    "cct_tel": "558456038",
    "cct_url": "ct-autovision-verdier.fr",
    "cat_vehicule_id": "1",
    "cat_vehicule_libelle": "Voiture Particulière",
    "cat_energie_id": "1",
    "cat_energie_libelle": "Essence",
    "prix_visite": 73,
    "date_application_visite": "2023-01-11",
    "prix_contre_visite_min": 10,
    "prix_contre_visite_max": 15,
    "date_application_contre_visite": "2020-09-09",
    "cct_siret": 82448422400020,
    "latitude": 44.041889,
    "longitude": -0.320331,
    "coordgeo": {
      "lon": -0.320331,
      "lat": 44.041889
    },
    "cct_statut": "actif"
  },
  {
    "cct_code_dept": "Landes",
    "code_postal": "40120",
    "cct_code_commune": "Roquefort",
    "cct_denomination": "EURL LAURIE VERDIER",
    "cct_adresse": "145 CHE DE COUSSEILAT",
    "cct_tel": "558456038",
    "cct_url": "ct-autovision-verdier.fr",
    "cat_vehicule_id": "3",
    "cat_vehicule_libelle": "Voiture de collection",
    "cat_energie_id": "3",
    "cat_energie_libelle": "Gaz",
    "prix_visite": 85,
    "date_application_visite": "2023-01-11",
    "prix_contre_visite_min": 10,
    "prix_contre_visite_max": 15,
    "date_application_contre_visite": "2020-09-09",
    "cct_siret": 82448422400020,
    "latitude": 44.041889,
    "longitude": -0.320331,
    "coordgeo": {
      "lon": -0.320331,
      "lat": 44.041889
    },
    "cct_statut": "actif"
  },
  {
    "cct_code_dept": "Landes",
    "code_postal": null,
    "cct_code_commune": "Saint-Paul-lès-Dax",
    "cct_denomination": "CENTRE CONTROLE TECHNIQUE SECURITE AUTO",
    "cct_adresse": "28 BD SAINT VINCENT DE PAUL",
    "cct_tel": "558916202",
    "cct_url": null,
    "cat_vehicule_id": "4",
    "cat_vehicule_libelle": "Camionnette",
    "cat_energie_id": "2",
    "cat_energie_libelle": "Diesel",
    "prix_visite": 75,
    "date_application_visite": "2020-09-07",
    "prix_contre_visite_min": 15,
    "prix_contre_visite_max": 25,
    "date_application_contre_visite": "2020-09-07",
    "cct_siret": 33353016000022,
    "latitude": 43.723925,
    "longitude": -1.050638,
    "coordgeo": {
      "lon": -1.050638,
      "lat": 43.723925
    },
    "cct_statut": "actif"
  },
  {
    "cct_code_dept": "Landes",
    "code_postal": null,
    "cct_code_commune": "Mont-de-Marsan",
    "cct_denomination": "CONTROLE TECHNIQUE MONTOIS",
    "cct_adresse": "1600 AV DU MARECHAL JUIN",
    "cct_tel": "558069718",
    "cct_url": "558069718",
    "cat_vehicule_id": "1",
    "cat_vehicule_libelle": "Voiture Particulière",
    "cat_energie_id": "3",
    "cat_energie_libelle": "Gaz",
    "prix_visite": 90,
    "date_application_visite": "2020-09-01",
    "prix_contre_visite_min": 15,
    "prix_contre_visite_max": 25,
    "date_application_contre_visite": "2020-09-01",
    "cct_siret": 43241776400011,
    "latitude": 43.906588,
    "longitude": -0.472245,
    "coordgeo": {
      "lon": -0.472245,
      "lat": 43.906588
    },
    "cct_statut": "actif"
  },
  {
    "cct_code_dept": "Landes",
    "code_postal": "40130",
    "cct_code_commune": "Capbreton",
    "cct_denomination": "AUTOSUR CAPBRETON",
    "cct_adresse": "2 RUE DU HAPCHOT",
    "cct_tel": "558726824",
    "cct_url": "autosur.com",
    "cat_vehicule_id": "3",
    "cat_vehicule_libelle": "Voiture de collection",
    "cat_energie_id": "4",
    "cat_energie_libelle": "Hybride",
    "prix_visite": 78,
    "date_application_visite": "2020-10-19",
    "prix_contre_visite_min": 5,
    "prix_contre_visite_max": 25,
    "date_application_contre_visite": "2020-10-19",
    "cct_siret": 75191168600010,
    "latitude": 43.648208,
    "longitude": -1.412002,
    "coordgeo": {
      "lon": -1.412002,
      "lat": 43.648208
    },
    "cct_statut": "actif"
  },
  {
    "cct_code_dept": "Landes",
    "code_postal": "40350",
    "cct_code_commune": "Pouillon",
    "cct_denomination": "CENTRE CONTROLE TECHNIQUE SECURITE AUTO",
    "cct_adresse": null,
    "cct_tel": "558983854",
    "cct_url": null,
    "cat_vehicule_id": "2",
    "cat_vehicule_libelle": "4 x 4",
    "cat_energie_id": "1",
    "cat_energie_libelle": "Essence",
    "prix_visite": 79,
    "date_application_visite": "2020-09-15",
    "prix_contre_visite_min": 10,
    "prix_contre_visite_max": 25,
    "date_application_contre_visite": "2020-09-15",
    "cct_siret": 33353016000048,
    "latitude": 43.693759,
    "longitude": -1.328225,
    "coordgeo": {
      "lon": -1.328225,
      "lat": 43.693759
    },
    "cct_statut": "actif"
  },
  {
    "cct_code_dept": "Landes",
    "code_postal": "40600",
    "cct_code_commune": "Biscarrosse",
    "cct_denomination": "CONTROLE BIGANOS AUTO",
    "cct_adresse": "32 RUE FORESTIERE",
    "cct_tel": "558820012",
    "cct_url": "securitest biscarrosse",
    "cat_vehicule_id": "5",
    "cat_vehicule_libelle": "Camping-car (moins de 3,5 tonnes)",
    "cat_energie_id": "3",
    "cat_energie_libelle": "Gaz",
    "prix_visite": 95,
    "date_application_visite": "2020-09-23",
    "prix_contre_visite_min": 10,
    "prix_contre_visite_max": 45,
    "date_application_contre_visite": "2020-09-23",
    "cct_siret": 40056001700024,
    "latitude": 44.382883,
    "longitude": -1.145779,
    "coordgeo": {
      "lon": -1.145779,
      "lat": 44.382883
    },
    "cct_statut": "actif"
  },
  {
    "cct_code_dept": "Landes",
    "code_postal": null,
    "cct_code_commune": "Saint-Vincent-de-Tyrosse",
    "cct_denomination": "TYROSSE CONTROLE AUTO",
    "cct_adresse": "15 RUE DES COMPAGNONS",
    "cct_tel": "558770717",
    "cct_url": null,
    "cat_vehicule_id": "4",
    "cat_vehicule_libelle": "Camionnette",
    "cat_energie_id": "5",
    "cat_energie_libelle": "Electrique",
    "prix_visite": 78,
    "date_application_visite": "2020-09-01",
    "prix_contre_visite_min": 10,
    "prix_contre_visite_max": 15,
    "date_application_contre_visite": "2020-09-01",
    "cct_siret": 43871192100017,
    "latitude": 43.666857,
    "longitude": -1.281822,
    "coordgeo": {
      "lon": -1.281822,
      "lat": 43.666857
    },
    "cct_statut": "actif"
  },
  {
    "cct_code_dept": "Landes",
    "code_postal": null,
    "cct_code_commune": "Saint-Vincent-de-Tyrosse",
    "cct_denomination": "TYROSSE CONTROLE AUTO",
    "cct_adresse": "15 RUE DES COMPAGNONS",
    "cct_tel": "558770717",
    "cct_url": null,
    "cat_vehicule_id": "5",
    "cat_vehicule_libelle": "Camping-car (moins de 3,5 tonnes)",
    "cat_energie_id": "2",
    "cat_energie_libelle": "Diesel",
    "prix_visite": 78,
    "date_application_visite": "2020-09-01",
    "prix_contre_visite_min": 10,
    "prix_contre_visite_max": 15,
    "date_application_contre_visite": "2020-09-01",
    "cct_siret": 43871192100017,
    "latitude": 43.666857,
    "longitude": -1.281822,
    "coordgeo": {
      "lon": -1.281822,
      "lat": 43.666857
    },
    "cct_statut": "actif"
  },
  {
    "cct_code_dept": "Landes",
    "code_postal": null,
    "cct_code_commune": "Saint-Sever",
    "cct_denomination": "ADOUR AUTO CONTROLE",
    "cct_adresse": "RTE DE MONT DE MARSAN",
    "cct_tel": "558939393",
    "cct_url": "https://controle-technique-st-sever.securitest.fr/",
    "cat_vehicule_id": "2",
    "cat_vehicule_libelle": "4 x 4",
    "cat_energie_id": "5",
    "cat_energie_libelle": "Electrique",
    "prix_visite": 90,
    "date_application_visite": "2020-09-14",
    "prix_contre_visite_min": 0,
    "prix_contre_visite_max": 0,
    "date_application_contre_visite": "2020-09-14",
    "cct_siret": 51512304000021,
    "latitude": 43.771201,
    "longitude": -0.569794,
    "coordgeo": {
      "lon": -0.569794,
      "lat": 43.771201
    },
    "cct_statut": "actif"
  },
  {
    "cct_code_dept": "Landes",
    "code_postal": null,
    "cct_code_commune": "Saint-Sever",
    "cct_denomination": "ADOUR AUTO CONTROLE",
    "cct_adresse": "RTE DE MONT DE MARSAN",
    "cct_tel": "558939393",
    "cct_url": "https://controle-technique-st-sever.securitest.fr/",
    "cat_vehicule_id": "1",
    "cat_vehicule_libelle": "Voiture Particulière",
    "cat_energie_id": "4",
    "cat_energie_libelle": "Hybride",
    "prix_visite": 90,
    "date_application_visite": "2020-09-14",
    "prix_contre_visite_min": 0,
    "prix_contre_visite_max": 0,
    "date_application_contre_visite": "2020-09-14",
    "cct_siret": 51512304000021,
    "latitude": 43.771201,
    "longitude": -0.569794,
    "coordgeo": {
      "lon": -0.569794,
      "lat": 43.771201
    },
    "cct_statut": "actif"
  },
  {
    "cct_code_dept": "Landes",
    "code_postal": null,
    "cct_code_commune": "Saint-Pierre-du-Mont",
    "cct_denomination": "CONTROLE TECHNIQUE DU SUD OUEST",
    "cct_adresse": "548 RUE DE L ARRAYADE",
    "cct_tel": "558451001",
    "cct_url": "www.verifauto40.com",
    "cat_vehicule_id": "2",
    "cat_vehicule_libelle": "4 x 4",
    "cat_energie_id": "2",
    "cat_energie_libelle": "Diesel",
    "prix_visite": 64,
    "date_application_visite": "2020-10-08",
    "prix_contre_visite_min": 10,
    "prix_contre_visite_max": 20,
    "date_application_contre_visite": "2020-10-08",
    "cct_siret": 52480178400017,
    "latitude": 43.865786,
    "longitude": -0.488876,
    "coordgeo": {
      "lon": -0.488876,
      "lat": 43.865786
    },
    "cct_statut": "actif"
  },
  {
    "cct_code_dept": "Landes",
    "code_postal": null,
    "cct_code_commune": "Saint-Pierre-du-Mont",
    "cct_denomination": "CONTROLE TECHNIQUE DU SUD OUEST",
    "cct_adresse": "548 RUE DE L ARRAYADE",
    "cct_tel": "558451001",
    "cct_url": "www.verifauto40.com",
    "cat_vehicule_id": "5",
    "cat_vehicule_libelle": "Camping-car (moins de 3,5 tonnes)",
    "cat_energie_id": "3",
    "cat_energie_libelle": "Gaz",
    "prix_visite": 76,
    "date_application_visite": "2020-10-08",
    "prix_contre_visite_min": 10,
    "prix_contre_visite_max": 20,
    "date_application_contre_visite": "2020-10-08",
    "cct_siret": 52480178400017,
    "latitude": 43.865786,
    "longitude": -0.488876,
    "coordgeo": {
      "lon": -0.488876,
      "lat": 43.865786
    },
    "cct_statut": "actif"
  },
  {
    "cct_code_dept": "Landes",
    "code_postal": null,
    "cct_code_commune": "Saint-Pierre-du-Mont",
    "cct_denomination": "ACTA",
    "cct_adresse": "79 IMP DE LA TEOULERE",
    "cct_tel": "953840004",
    "cct_url": "http://www.controle-technique-st-pierre-du-mont.fr",
    "cat_vehicule_id": "3",
    "cat_vehicule_libelle": "Voiture de collection",
    "cat_energie_id": "5",
    "cat_energie_libelle": "Electrique",
    "prix_visite": 95,
    "date_application_visite": "2020-09-05",
    "prix_contre_visite_min": 5,
    "prix_contre_visite_max": 35,
    "date_application_contre_visite": "2020-09-05",
    "cct_siret": 80798656700012,
    "latitude": 43.863714,
    "longitude": -0.51189,
    "coordgeo": {
      "lon": -0.51189,
      "lat": 43.863714
    },
    "cct_statut": "actif"
  },
  {
    "cct_code_dept": "Landes",
    "code_postal": null,
    "cct_code_commune": "Saint-Pierre-du-Mont",
    "cct_denomination": "LANDES AQUITAINE CONTROLE TECHINQUE POIDS LOURDS",
    "cct_adresse": "39 IMP JEAN FRANCOIS COMPEYROT",
    "cct_tel": "558765350",
    "cct_url": null,
    "cat_vehicule_id": "2",
    "cat_vehicule_libelle": "4 x 4",
    "cat_energie_id": "5",
    "cat_energie_libelle": "Electrique",
    "prix_visite": 75,
    "date_application_visite": "2020-08-31",
    "prix_contre_visite_min": 10,
    "prix_contre_visite_max": 20,
    "date_application_contre_visite": "2020-08-31",
    "cct_siret": 50153702100021,
    "latitude": 43.864694,
    "longitude": -0.515853,
    "coordgeo": {
      "lon": -0.515853,
      "lat": 43.864694
    },
    "cct_statut": "actif"
  },
  {
    "cct_code_dept": "Landes",
    "code_postal": "40360",
    "cct_code_commune": "Pomarez",
    "cct_denomination": "CONTROLE TECHNIQUE POMAREZIEN",
    "cct_adresse": "197 AV DU STADE",
    "cct_tel": "558744852",
    "cct_url": "www.controletechniquepomarez.fr",
    "cat_vehicule_id": "2",
    "cat_vehicule_libelle": "4 x 4",
    "cat_energie_id": "4",
    "cat_energie_libelle": "Hybride",
    "prix_visite": 78,
    "date_application_visite": "2020-09-14",
    "prix_contre_visite_min": 10,
    "prix_contre_visite_max": 25,
    "date_application_contre_visite": "2020-09-14",
    "cct_siret": 85409333300011,
    "latitude": 43.625634,
    "longitude": -0.827619,
    "coordgeo": {
      "lon": -0.827619,
      "lat": 43.625634
    },
    "cct_statut": "actif"
  },
  {
    "cct_code_dept": "Landes",
    "code_postal": "47310",
    "cct_code_commune": "Roquefort",
    "cct_denomination": "CONTROLE TECHNIQUE VERIF AUTO 3",
    "cct_adresse": "4 IMP DE LA GRANDE LANDE",
    "cct_tel": "558759648",
    "cct_url": "www.verifauto40@orange.fr",
    "cat_vehicule_id": "4",
    "cat_vehicule_libelle": "Camionnette",
    "cat_energie_id": "2",
    "cat_energie_libelle": "Diesel",
    "prix_visite": 67,
    "date_application_visite": "2020-12-16",
    "prix_contre_visite_min": 10,
    "prix_contre_visite_max": 15,
    "date_application_contre_visite": "2020-12-16",
    "cct_siret": 87824412800012,
    "latitude": 44.041366,
    "longitude": -0.346483,
    "coordgeo": {
      "lon": -0.346483,
      "lat": 44.041366
    },
    "cct_statut": "actif"
  },
  {
    "cct_code_dept": "Landes",
    "code_postal": "47310",
    "cct_code_commune": "Roquefort",
    "cct_denomination": "CONTROLE TECHNIQUE VERIF AUTO 3",
    "cct_adresse": "4 IMP DE LA GRANDE LANDE",
    "cct_tel": "558759648",
    "cct_url": "www.verifauto40@orange.fr",
    "cat_vehicule_id": "1",
    "cat_vehicule_libelle": "Voiture Particulière",
    "cat_energie_id": "3",
    "cat_energie_libelle": "Gaz",
    "prix_visite": 79,
    "date_application_visite": "2020-12-16",
    "prix_contre_visite_min": 10,
    "prix_contre_visite_max": 15,
    "date_application_contre_visite": "2020-12-16",
    "cct_siret": 87824412800012,
    "latitude": 44.041366,
    "longitude": -0.346483,
    "coordgeo": {
      "lon": -0.346483,
      "lat": 44.041366
    },
    "cct_statut": "actif"
  },
  {
    "cct_code_dept": "Landes",
    "code_postal": null,
    "cct_code_commune": "Saint-Vincent-de-Tyrosse",
    "cct_denomination": "TYROSSE CONTROLE AUTO",
    "cct_adresse": "ROUTE NATIONALE 10",
    "cct_tel": "558476413",
    "cct_url": "www.tyrosse@autosecurite.com",
    "cat_vehicule_id": "2",
    "cat_vehicule_libelle": "4 x 4",
    "cat_energie_id": "2",
    "cat_energie_libelle": "Diesel",
    "prix_visite": 78,
    "date_application_visite": "2020-09-24",
    "prix_contre_visite_min": 10,
    "prix_contre_visite_max": 30,
    "date_application_contre_visite": "2020-09-24",
    "cct_siret": 43871192100025,
    "latitude": 43.660791,
    "longitude": -1.301458,
    "coordgeo": {
      "lon": -1.301458,
      "lat": 43.660791
    },
    "cct_statut": "actif"
  },
  {
    "cct_code_dept": "Landes",
    "code_postal": null,
    "cct_code_commune": "Saint-Vincent-de-Tyrosse",
    "cct_denomination": "TYROSSE CONTROLE AUTO",
    "cct_adresse": "ROUTE NATIONALE 10",
    "cct_tel": "558476413",
    "cct_url": "www.tyrosse@autosecurite.com",
    "cat_vehicule_id": "4",
    "cat_vehicule_libelle": "Camionnette",
    "cat_energie_id": "5",
    "cat_energie_libelle": "Electrique",
    "prix_visite": 91,
    "date_application_visite": "06-11-11",
    "prix_contre_visite_min": 10,
    "prix_contre_visite_max": 30,
    "date_application_contre_visite": "2020-09-24",
    "cct_siret": 43871192100025,
    "latitude": 43.660791,
    "longitude": -1.301458,
    "coordgeo": {
      "lon": -1.301458,
      "lat": 43.660791
    },
    "cct_statut": "actif"
  },
  {
    "cct_code_dept": "Landes",
    "code_postal": null,
    "cct_code_commune": "Saint-Vincent-de-Tyrosse",
    "cct_denomination": "TYROSSE CONTROLE AUTO",
    "cct_adresse": "ROUTE NATIONALE 10",
    "cct_tel": "558476413",
    "cct_url": "www.tyrosse@autosecurite.com",
    "cat_vehicule_id": "3",
    "cat_vehicule_libelle": "Voiture de collection",
    "cat_energie_id": "4",
    "cat_energie_libelle": "Hybride",
    "prix_visite": 91,
    "date_application_visite": "06-11-11",
    "prix_contre_visite_min": 10,
    "prix_contre_visite_max": 30,
    "date_application_contre_visite": "2020-09-24",
    "cct_siret": 43871192100025,
    "latitude": 43.660791,
    "longitude": -1.301458,
    "coordgeo": {
      "lon": -1.301458,
      "lat": 43.660791
    },
    "cct_statut": "actif"
  },
  {
    "cct_code_dept": "Landes",
    "code_postal": "40100",
    "cct_code_commune": "Dax",
    "cct_denomination": "DAX CONTROLE AUTO",
    "cct_adresse": "51 RTE DE TERCIS",
    "cct_tel": "558747963",
    "cct_url": "dax.securitest.fr",
    "cat_vehicule_id": "4",
    "cat_vehicule_libelle": "Camionnette",
    "cat_energie_id": "5",
    "cat_energie_libelle": "Electrique",
    "prix_visite": 85,
    "date_application_visite": "2023-01-02",
    "prix_contre_visite_min": 15,
    "prix_contre_visite_max": 25,
    "date_application_contre_visite": "2023-01-02",
    "cct_siret": 40856635400010,
    "latitude": 43.698575,
    "longitude": -1.06589,
    "coordgeo": {
      "lon": -1.06589,
      "lat": 43.698575
    },
    "cct_statut": "actif"
  },
  {
    "cct_code_dept": "Landes",
    "code_postal": "40100",
    "cct_code_commune": "Dax",
    "cct_denomination": "DAX CONTROLE AUTO",
    "cct_adresse": "51 RTE DE TERCIS",
    "cct_tel": "558747963",
    "cct_url": "dax.securitest.fr",
    "cat_vehicule_id": "5",
    "cat_vehicule_libelle": "Camping-car (moins de 3,5 tonnes)",
    "cat_energie_id": "5",
    "cat_energie_libelle": "Electrique",
    "prix_visite": 85,
    "date_application_visite": "2023-01-02",
    "prix_contre_visite_min": 15,
    "prix_contre_visite_max": 25,
    "date_application_contre_visite": "2023-01-02",
    "cct_siret": 40856635400010,
    "latitude": 43.698575,
    "longitude": -1.06589,
    "coordgeo": {
      "lon": -1.06589,
      "lat": 43.698575
    },
    "cct_statut": "actif"
  },
  {
    "cct_code_dept": "Landes",
    "code_postal": "40100",
    "cct_code_commune": "Dax",
    "cct_denomination": "DAX CONTROLE AUTO",
    "cct_adresse": "51 RTE DE TERCIS",
    "cct_tel": "558747963",
    "cct_url": "dax.securitest.fr",
    "cat_vehicule_id": "1",
    "cat_vehicule_libelle": "Voiture Particulière",
    "cat_energie_id": "1",
    "cat_energie_libelle": "Essence",
    "prix_visite": 80,
    "date_application_visite": "2020-09-01",
    "prix_contre_visite_min": 10,
    "prix_contre_visite_max": 15,
    "date_application_contre_visite": "2020-09-01",
    "cct_siret": 40856635400010,
    "latitude": 43.698575,
    "longitude": -1.06589,
    "coordgeo": {
      "lon": -1.06589,
      "lat": 43.698575
    },
    "cct_statut": "actif"
  },
  {
    "cct_code_dept": "Landes",
    "code_postal": "40180",
    "cct_code_commune": "Hinx",
    "cct_denomination": "EURL AUTO BILAN HINXOIS",
    "cct_adresse": "14 ALL DE LA PEPINIERE",
    "cct_tel": "679974296",
    "cct_url": null,
    "cat_vehicule_id": "3",
    "cat_vehicule_libelle": "Voiture de collection",
    "cat_energie_id": "5",
    "cat_energie_libelle": "Electrique",
    "prix_visite": 65,
    "date_application_visite": "2020-09-02",
    "prix_contre_visite_min": 10,
    "prix_contre_visite_max": 20,
    "date_application_contre_visite": "2020-09-02",
    "cct_siret": 51134156200029,
    "latitude": 43.705563,
    "longitude": -0.917706,
    "coordgeo": {
      "lon": -0.917706,
      "lat": 43.705563
    },
    "cct_statut": "actif"
  },
  {
    "cct_code_dept": "Landes",
    "code_postal": null,
    "cct_code_commune": "Saint-Vincent-de-Tyrosse",
    "cct_denomination": "TYROSSE CONTROLE AUTO",
    "cct_adresse": "ROUTE NATIONALE 10",
    "cct_tel": "558476413",
    "cct_url": "www.tyrosse@autosecurite.com",
    "cat_vehicule_id": "4",
    "cat_vehicule_libelle": "Camionnette",
    "cat_energie_id": "5",
    "cat_energie_libelle": "Electrique",
    "prix_visite": 90,
    "date_application_visite": "2020-09-24",
    "prix_contre_visite_min": 10,
    "prix_contre_visite_max": 30,
    "date_application_contre_visite": "2020-09-24",
    "cct_siret": 43871192100025,
    "latitude": 43.660791,
    "longitude": -1.301458,
    "coordgeo": {
      "lon": -1.301458,
      "lat": 43.660791
    },
    "cct_statut": "actif"
  },
  {
    "cct_code_dept": "Landes",
    "code_postal": null,
    "cct_code_commune": "Aire-sur-l'Adour",
    "cct_denomination": "AUTO CONTROLE ATURIN",
    "cct_adresse": "3070 AV DE BORDEAUX",
    "cct_tel": "558526119",
    "cct_url": "https://www.autovision.fr/centre/400034-auto-controle-aturin-aire-sur-l-adour/",
    "cat_vehicule_id": "1",
    "cat_vehicule_libelle": "Voiture Particulière",
    "cat_energie_id": "1",
    "cat_energie_libelle": "Essence",
    "prix_visite": 72,
    "date_application_visite": "2020-09-10",
    "prix_contre_visite_min": 0,
    "prix_contre_visite_max": 20,
    "date_application_contre_visite": "2020-09-10",
    "cct_siret": 85299031600014,
    "latitude": 43.736284,
    "longitude": -0.267794,
    "coordgeo": {
      "lon": -0.267794,
      "lat": 43.736284
    },
    "cct_statut": "actif"
  },
  {
    "cct_code_dept": "Landes",
    "code_postal": null,
    "cct_code_commune": "Aire-sur-l'Adour",
    "cct_denomination": "AUTO CONTROLE ATURIN",
    "cct_adresse": "3070 AV DE BORDEAUX",
    "cct_tel": "558526119",
    "cct_url": "https://www.autovision.fr/centre/400034-auto-controle-aturin-aire-sur-l-adour/",
    "cat_vehicule_id": "3",
    "cat_vehicule_libelle": "Voiture de collection",
    "cat_energie_id": "4",
    "cat_energie_libelle": "Hybride",
    "prix_visite": 72,
    "date_application_visite": "2020-09-10",
    "prix_contre_visite_min": 0,
    "prix_contre_visite_max": 20,
    "date_application_contre_visite": "2020-09-10",
    "cct_siret": 85299031600014,
    "latitude": 43.736284,
    "longitude": -0.267794,
    "coordgeo": {
      "lon": -0.267794,
      "lat": 43.736284
    },
    "cct_statut": "actif"
  },
  {
    "cct_code_dept": "Landes",
    "code_postal": "40300",
    "cct_code_commune": "Peyrehorade",
    "cct_denomination": "CTRE CONTROLE TECH VEHICULE PAYS D ORTHE",
    "cct_adresse": "9 CHE DE LA BOUDIGUE",
    "cct_tel": "558732819",
    "cct_url": "www.controle-technique-peyrehorade.securitest.fr",
    "cat_vehicule_id": "1",
    "cat_vehicule_libelle": "Voiture Particulière",
    "cat_energie_id": "5",
    "cat_energie_libelle": "Electrique",
    "prix_visite": 70,
    "date_application_visite": "2020-09-02",
    "prix_contre_visite_min": 10,
    "prix_contre_visite_max": 10,
    "date_application_contre_visite": "2020-09-02",
    "cct_siret": 34493119100029,
    "latitude": 43.552334,
    "longitude": -1.127639,
    "coordgeo": {
      "lon": -1.127639,
      "lat": 43.552334
    },
    "cct_statut": "actif"
  },
  {
    "cct_code_dept": "Landes",
    "code_postal": "40300",
    "cct_code_commune": "Peyrehorade",
    "cct_denomination": "CTRE CONTROLE TECH VEHICULE PAYS D ORTHE",
    "cct_adresse": "9 CHE DE LA BOUDIGUE",
    "cct_tel": "558732819",
    "cct_url": "www.controle-technique-peyrehorade.securitest.fr",
    "cat_vehicule_id": "3",
    "cat_vehicule_libelle": "Voiture de collection",
    "cat_energie_id": "1",
    "cat_energie_libelle": "Essence",
    "prix_visite": 70,
    "date_application_visite": "2020-09-02",
    "prix_contre_visite_min": 10,
    "prix_contre_visite_max": 10,
    "date_application_contre_visite": "2020-09-02",
    "cct_siret": 34493119100029,
    "latitude": 43.552334,
    "longitude": -1.127639,
    "coordgeo": {
      "lon": -1.127639,
      "lat": 43.552334
    },
    "cct_statut": "actif"
  },
  {
    "cct_code_dept": "Landes",
    "code_postal": "40100",
    "cct_code_commune": "Dax",
    "cct_denomination": "DAX CONTROLE AUTO",
    "cct_adresse": "51 RTE DE TERCIS",
    "cct_tel": "558747963",
    "cct_url": "dax.securitest.fr",
    "cat_vehicule_id": "4",
    "cat_vehicule_libelle": "Camionnette",
    "cat_energie_id": "3",
    "cat_energie_libelle": "Gaz",
    "prix_visite": 95,
    "date_application_visite": "2022-10-01",
    "prix_contre_visite_min": 10,
    "prix_contre_visite_max": 20,
    "date_application_contre_visite": "2022-10-01",
    "cct_siret": 40856635400010,
    "latitude": 43.698575,
    "longitude": -1.06589,
    "coordgeo": {
      "lon": -1.06589,
      "lat": 43.698575
    },
    "cct_statut": "actif"
  },
  {
    "cct_code_dept": "Landes",
    "code_postal": "40100",
    "cct_code_commune": "Dax",
    "cct_denomination": "DAX CONTROLE AUTO",
    "cct_adresse": "51 RTE DE TERCIS",
    "cct_tel": "558747963",
    "cct_url": "dax.securitest.fr",
    "cat_vehicule_id": "5",
    "cat_vehicule_libelle": "Camping-car (moins de 3,5 tonnes)",
    "cat_energie_id": "1",
    "cat_energie_libelle": "Essence",
    "prix_visite": 85,
    "date_application_visite": "2023-01-02",
    "prix_contre_visite_min": 15,
    "prix_contre_visite_max": 25,
    "date_application_contre_visite": "2023-01-02",
    "cct_siret": 40856635400010,
    "latitude": 43.698575,
    "longitude": -1.06589,
    "coordgeo": {
      "lon": -1.06589,
      "lat": 43.698575
    },
    "cct_statut": "actif"
  },
  {
    "cct_code_dept": "Landes",
    "code_postal": "40100",
    "cct_code_commune": "Dax",
    "cct_denomination": "DAX CONTROLE AUTO",
    "cct_adresse": "51 RTE DE TERCIS",
    "cct_tel": "558747963",
    "cct_url": "dax.securitest.fr",
    "cat_vehicule_id": "1",
    "cat_vehicule_libelle": "Voiture Particulière",
    "cat_energie_id": "4",
    "cat_energie_libelle": "Hybride",
    "prix_visite": 80,
    "date_application_visite": "2020-09-01",
    "prix_contre_visite_min": 10,
    "prix_contre_visite_max": 15,
    "date_application_contre_visite": "2020-09-01",
    "cct_siret": 40856635400010,
    "latitude": 43.698575,
    "longitude": -1.06589,
    "coordgeo": {
      "lon": -1.06589,
      "lat": 43.698575
    },
    "cct_statut": "actif"
  },
  {
    "cct_code_dept": "Landes",
    "code_postal": "40180",
    "cct_code_commune": "Narrosse",
    "cct_denomination": "CONTROLE TECHNIQUE NARROSSAIS",
    "cct_adresse": "27 route de sort",
    "cct_tel": "558583647",
    "cct_url": null,
    "cat_vehicule_id": "2",
    "cat_vehicule_libelle": "4 x 4",
    "cat_energie_id": "5",
    "cat_energie_libelle": "Electrique",
    "prix_visite": 70,
    "date_application_visite": "2020-09-03",
    "prix_contre_visite_min": 5,
    "prix_contre_visite_max": 20,
    "date_application_contre_visite": "2020-09-03",
    "cct_siret": 51464924300011,
    "latitude": 43.692473,
    "longitude": -1.00137,
    "coordgeo": {
      "lon": -1.00137,
      "lat": 43.692473
    },
    "cct_statut": "actif"
  },
  {
    "cct_code_dept": "Landes",
    "code_postal": "40180",
    "cct_code_commune": "Narrosse",
    "cct_denomination": "CONTROLE TECHNIQUE NARROSSAIS",
    "cct_adresse": "27 route de sort",
    "cct_tel": "558583647",
    "cct_url": null,
    "cat_vehicule_id": "2",
    "cat_vehicule_libelle": "4 x 4",
    "cat_energie_id": "3",
    "cat_energie_libelle": "Gaz",
    "prix_visite": 75,
    "date_application_visite": "2020-09-03",
    "prix_contre_visite_min": 5,
    "prix_contre_visite_max": 20,
    "date_application_contre_visite": "2020-09-03",
    "cct_siret": 51464924300011,
    "latitude": 43.692473,
    "longitude": -1.00137,
    "coordgeo": {
      "lon": -1.00137,
      "lat": 43.692473
    },
    "cct_statut": "actif"
  },
  {
    "cct_code_dept": "Landes",
    "code_postal": "40180",
    "cct_code_commune": "Narrosse",
    "cct_denomination": "CONTROLE TECHNIQUE NARROSSAIS",
    "cct_adresse": "27 route de sort",
    "cct_tel": "558583647",
    "cct_url": null,
    "cat_vehicule_id": "5",
    "cat_vehicule_libelle": "Camping-car (moins de 3,5 tonnes)",
    "cat_energie_id": "5",
    "cat_energie_libelle": "Electrique",
    "prix_visite": 70,
    "date_application_visite": "2020-09-03",
    "prix_contre_visite_min": 5,
    "prix_contre_visite_max": 20,
    "date_application_contre_visite": "2020-09-03",
    "cct_siret": 51464924300011,
    "latitude": 43.692473,
    "longitude": -1.00137,
    "coordgeo": {
      "lon": -1.00137,
      "lat": 43.692473
    },
    "cct_statut": "actif"
  },
  {
    "cct_code_dept": "Landes",
    "code_postal": "40180",
    "cct_code_commune": "Narrosse",
    "cct_denomination": "CONTROLE TECHNIQUE NARROSSAIS",
    "cct_adresse": "27 route de sort",
    "cct_tel": "558583647",
    "cct_url": null,
    "cat_vehicule_id": "1",
    "cat_vehicule_libelle": "Voiture Particulière",
    "cat_energie_id": "5",
    "cat_energie_libelle": "Electrique",
    "prix_visite": 70,
    "date_application_visite": "2020-09-03",
    "prix_contre_visite_min": 5,
    "prix_contre_visite_max": 20,
    "date_application_contre_visite": "2020-09-03",
    "cct_siret": 51464924300011,
    "latitude": 43.692473,
    "longitude": -1.00137,
    "coordgeo": {
      "lon": -1.00137,
      "lat": 43.692473
    },
    "cct_statut": "actif"
  },
  {
    "cct_code_dept": "Landes",
    "code_postal": "40180",
    "cct_code_commune": "Narrosse",
    "cct_denomination": "CONTROLE TECHNIQUE NARROSSAIS",
    "cct_adresse": "27 route de sort",
    "cct_tel": "558583647",
    "cct_url": null,
    "cat_vehicule_id": "3",
    "cat_vehicule_libelle": "Voiture de collection",
    "cat_energie_id": "2",
    "cat_energie_libelle": "Diesel",
    "prix_visite": 65,
    "date_application_visite": "2020-09-03",
    "prix_contre_visite_min": 5,
    "prix_contre_visite_max": 20,
    "date_application_contre_visite": "2020-09-03",
    "cct_siret": 51464924300011,
    "latitude": 43.692473,
    "longitude": -1.00137,
    "coordgeo": {
      "lon": -1.00137,
      "lat": 43.692473
    },
    "cct_statut": "actif"
  },
  {
    "cct_code_dept": "Landes",
    "code_postal": "40180",
    "cct_code_commune": "Hinx",
    "cct_denomination": "EURL AUTO BILAN HINXOIS",
    "cct_adresse": "14 ALL DE LA PEPINIERE",
    "cct_tel": "679974296",
    "cct_url": null,
    "cat_vehicule_id": "4",
    "cat_vehicule_libelle": "Camionnette",
    "cat_energie_id": "4",
    "cat_energie_libelle": "Hybride",
    "prix_visite": 65,
    "date_application_visite": "2020-09-02",
    "prix_contre_visite_min": 10,
    "prix_contre_visite_max": 20,
    "date_application_contre_visite": "2020-09-02",
    "cct_siret": 51134156200029,
    "latitude": 43.705563,
    "longitude": -0.917706,
    "coordgeo": {
      "lon": -0.917706,
      "lat": 43.705563
    },
    "cct_statut": "actif"
  },
  {
    "cct_code_dept": "Landes",
    "code_postal": "40180",
    "cct_code_commune": "Hinx",
    "cct_denomination": "EURL AUTO BILAN HINXOIS",
    "cct_adresse": "14 ALL DE LA PEPINIERE",
    "cct_tel": "679974296",
    "cct_url": null,
    "cat_vehicule_id": "1",
    "cat_vehicule_libelle": "Voiture Particulière",
    "cat_energie_id": "5",
    "cat_energie_libelle": "Electrique",
    "prix_visite": 65,
    "date_application_visite": "2020-09-02",
    "prix_contre_visite_min": 10,
    "prix_contre_visite_max": 20,
    "date_application_contre_visite": "2020-09-02",
    "cct_siret": 51134156200029,
    "latitude": 43.705563,
    "longitude": -0.917706,
    "coordgeo": {
      "lon": -0.917706,
      "lat": 43.705563
    },
    "cct_statut": "actif"
  },
  {
    "cct_code_dept": "Landes",
    "code_postal": null,
    "cct_code_commune": "Saint-Paul-lès-Dax",
    "cct_denomination": "AUTO CONTROLE BZH",
    "cct_adresse": "209 RUE MAURICE MENTON",
    "cct_tel": "558776212",
    "cct_url": "mon controle technique .fr",
    "cat_vehicule_id": "1",
    "cat_vehicule_libelle": "Voiture Particulière",
    "cat_energie_id": "2",
    "cat_energie_libelle": "Diesel",
    "prix_visite": 55,
    "date_application_visite": "2020-09-02",
    "prix_contre_visite_min": 15,
    "prix_contre_visite_max": 30,
    "date_application_contre_visite": "2020-09-02",
    "cct_siret": 83399446000016,
    "latitude": 43.731574,
    "longitude": -1.045043,
    "coordgeo": {
      "lon": -1.045043,
      "lat": 43.731574
    },
    "cct_statut": "actif"
  },
  {
    "cct_code_dept": "Landes",
    "code_postal": "40600",
    "cct_code_commune": "Biscarrosse",
    "cct_denomination": "CENTRE CONTROLE TECHNIQ AUTO HAUTE LANDE",
    "cct_adresse": "RTE DE PARENTIS",
    "cct_tel": "558820999",
    "cct_url": null,
    "cat_vehicule_id": "3",
    "cat_vehicule_libelle": "Voiture de collection",
    "cat_energie_id": "5",
    "cat_energie_libelle": "Electrique",
    "prix_visite": 95,
    "date_application_visite": "2020-09-03",
    "prix_contre_visite_min": 15,
    "prix_contre_visite_max": 35,
    "date_application_contre_visite": "2020-09-03",
    "cct_siret": 39141437200030,
    "latitude": 44.381797,
    "longitude": -1.144151,
    "coordgeo": {
      "lon": -1.144151,
      "lat": 44.381797
    },
    "cct_statut": "actif"
  },
  {
    "cct_code_dept": "Landes",
    "code_postal": null,
    "cct_code_commune": "Pontonx-sur-l'Adour",
    "cct_denomination": "CONTROLE AUTO PONTONX",
    "cct_adresse": "15 CHE DE BOIS",
    "cct_tel": null,
    "cct_url": null,
    "cat_vehicule_id": "5",
    "cat_vehicule_libelle": "Camping-car (moins de 3,5 tonnes)",
    "cat_energie_id": "4",
    "cat_energie_libelle": "Hybride",
    "prix_visite": 0,
    "date_application_visite": null,
    "prix_contre_visite_min": 0,
    "prix_contre_visite_max": 0,
    "date_application_contre_visite": null,
    "cct_siret": 45255240900016,
    "latitude": 43.783,
    "longitude": -0.934735,
    "coordgeo": {
      "lon": -0.934735,
      "lat": 43.783
    },
    "cct_statut": "actif"
  },
  {
    "cct_code_dept": "Landes",
    "code_postal": null,
    "cct_code_commune": "Aire-sur-l'Adour",
    "cct_denomination": "C.T.B CONTROLE TECHNIQUE BARCELONNAIS",
    "cct_adresse": "RTE DE VIELLA",
    "cct_tel": "558719658",
    "cct_url": null,
    "cat_vehicule_id": "4",
    "cat_vehicule_libelle": "Camionnette",
    "cat_energie_id": "4",
    "cat_energie_libelle": "Hybride",
    "prix_visite": 78,
    "date_application_visite": "2020-09-15",
    "prix_contre_visite_min": 15,
    "prix_contre_visite_max": 25,
    "date_application_contre_visite": "2020-09-15",
    "cct_siret": 44265872000028,
    "latitude": 43.694999,
    "longitude": -0.25346,
    "coordgeo": {
      "lon": -0.25346,
      "lat": 43.694999
    },
    "cct_statut": "actif"
  },
  {
    "cct_code_dept": "Landes",
    "code_postal": null,
    "cct_code_commune": "Aire-sur-l'Adour",
    "cct_denomination": "C.T.B CONTROLE TECHNIQUE BARCELONNAIS",
    "cct_adresse": "RTE DE VIELLA",
    "cct_tel": "558719658",
    "cct_url": null,
    "cat_vehicule_id": "3",
    "cat_vehicule_libelle": "Voiture de collection",
    "cat_energie_id": "2",
    "cat_energie_libelle": "Diesel",
    "prix_visite": 78,
    "date_application_visite": "2020-09-15",
    "prix_contre_visite_min": 15,
    "prix_contre_visite_max": 25,
    "date_application_contre_visite": "2020-09-15",
    "cct_siret": 44265872000028,
    "latitude": 43.694999,
    "longitude": -0.25346,
    "coordgeo": {
      "lon": -0.25346,
      "lat": 43.694999
    },
    "cct_statut": "actif"
  },
  {
    "cct_code_dept": "Landes",
    "code_postal": "40310",
    "cct_code_commune": "Gabarret",
    "cct_denomination": "LANDGERS CONTROL",
    "cct_adresse": "151 RTE DE L AVENIR",
    "cct_tel": "558756401",
    "cct_url": "https://controle-technique-gabarret.autosecurite.com",
    "cat_vehicule_id": "4",
    "cat_vehicule_libelle": "Camionnette",
    "cat_energie_id": "2",
    "cat_energie_libelle": "Diesel",
    "prix_visite": 70,
    "date_application_visite": "2020-09-14",
    "prix_contre_visite_min": 10,
    "prix_contre_visite_max": 15,
    "date_application_contre_visite": "2020-09-14",
    "cct_siret": 81507132900016,
    "latitude": 43.977632,
    "longitude": 0.008977,
    "coordgeo": {
      "lon": 0.008977,
      "lat": 43.977632
    },
    "cct_statut": "actif"
  },
  {
    "cct_code_dept": "Landes",
    "code_postal": "40310",
    "cct_code_commune": "Gabarret",
    "cct_denomination": "LANDGERS CONTROL",
    "cct_adresse": "151 RTE DE L AVENIR",
    "cct_tel": "558756401",
    "cct_url": "https://controle-technique-gabarret.autosecurite.com",
    "cat_vehicule_id": "4",
    "cat_vehicule_libelle": "Camionnette",
    "cat_energie_id": "1",
    "cat_energie_libelle": "Essence",
    "prix_visite": 75,
    "date_application_visite": "2020-09-14",
    "prix_contre_visite_min": 10,
    "prix_contre_visite_max": 40,
    "date_application_contre_visite": "2020-09-14",
    "cct_siret": 81507132900016,
    "latitude": 43.977632,
    "longitude": 0.008977,
    "coordgeo": {
      "lon": 0.008977,
      "lat": 43.977632
    },
    "cct_statut": "actif"
  },
  {
    "cct_code_dept": "Landes",
    "code_postal": "40310",
    "cct_code_commune": "Gabarret",
    "cct_denomination": "LANDGERS CONTROL",
    "cct_adresse": "151 RTE DE L AVENIR",
    "cct_tel": "558756401",
    "cct_url": "https://controle-technique-gabarret.autosecurite.com",
    "cat_vehicule_id": "1",
    "cat_vehicule_libelle": "Voiture Particulière",
    "cat_energie_id": "1",
    "cat_energie_libelle": "Essence",
    "prix_visite": 75,
    "date_application_visite": "2020-09-14",
    "prix_contre_visite_min": 15,
    "prix_contre_visite_max": 75,
    "date_application_contre_visite": "2020-09-14",
    "cct_siret": 81507132900016,
    "latitude": 43.977632,
    "longitude": 0.008977,
    "coordgeo": {
      "lon": 0.008977,
      "lat": 43.977632
    },
    "cct_statut": "actif"
  },
  {
    "cct_code_dept": "Landes",
    "code_postal": "40310",
    "cct_code_commune": "Gabarret",
    "cct_denomination": "LANDGERS CONTROL",
    "cct_adresse": "151 RTE DE L AVENIR",
    "cct_tel": "558756401",
    "cct_url": "https://controle-technique-gabarret.autosecurite.com",
    "cat_vehicule_id": "1",
    "cat_vehicule_libelle": "Voiture Particulière",
    "cat_energie_id": "1",
    "cat_energie_libelle": "Essence",
    "prix_visite": 70,
    "date_application_visite": "2020-09-14",
    "prix_contre_visite_min": 10,
    "prix_contre_visite_max": 15,
    "date_application_contre_visite": "2020-09-14",
    "cct_siret": 81507132900016,
    "latitude": 43.977632,
    "longitude": 0.008977,
    "coordgeo": {
      "lon": 0.008977,
      "lat": 43.977632
    },
    "cct_statut": "actif"
  },
  {
    "cct_code_dept": "Landes",
    "code_postal": "40220",
    "cct_code_commune": "Tarnos",
    "cct_denomination": "CONTROLE TECHNIQUE MONCADE",
    "cct_adresse": "RTE NATIONALE 10",
    "cct_tel": "559747070",
    "cct_url": "https://www.controletechniquemoncade.fr",
    "cat_vehicule_id": "1",
    "cat_vehicule_libelle": "Voiture Particulière",
    "cat_energie_id": "4",
    "cat_energie_libelle": "Hybride",
    "prix_visite": 112,
    "date_application_visite": "2020-09-10",
    "prix_contre_visite_min": 15,
    "prix_contre_visite_max": 35,
    "date_application_contre_visite": "2020-09-10",
    "cct_siret": 75314822000027,
    "latitude": 43.546055,
    "longitude": -1.461065,
    "coordgeo": {
      "lon": -1.461065,
      "lat": 43.546055
    },
    "cct_statut": "actif"
  },
  {
    "cct_code_dept": "Landes",
    "code_postal": "40600",
    "cct_code_commune": "Biscarrosse",
    "cct_denomination": "AGREE AURILLAC AUTO CONTROLE",
    "cct_adresse": "1031 AV DE LAOUADIE",
    "cct_tel": null,
    "cct_url": null,
    "cat_vehicule_id": "2",
    "cat_vehicule_libelle": "4 x 4",
    "cat_energie_id": "3",
    "cat_energie_libelle": "Gaz",
    "prix_visite": 96,
    "date_application_visite": "2020-09-07",
    "prix_contre_visite_min": 5,
    "prix_contre_visite_max": 20,
    "date_application_contre_visite": "2020-09-07",
    "cct_siret": 49310396400026,
    "latitude": 44.410721,
    "longitude": -1.168733,
    "coordgeo": {
      "lon": -1.168733,
      "lat": 44.410721
    },
    "cct_statut": "actif"
  },
  {
    "cct_code_dept": "Landes",
    "code_postal": "40600",
    "cct_code_commune": "Biscarrosse",
    "cct_denomination": "AGREE AURILLAC AUTO CONTROLE",
    "cct_adresse": "1031 AV DE LAOUADIE",
    "cct_tel": null,
    "cct_url": null,
    "cat_vehicule_id": "5",
    "cat_vehicule_libelle": "Camping-car (moins de 3,5 tonnes)",
    "cat_energie_id": "3",
    "cat_energie_libelle": "Gaz",
    "prix_visite": 96,
    "date_application_visite": "2020-09-07",
    "prix_contre_visite_min": 5,
    "prix_contre_visite_max": 20,
    "date_application_contre_visite": "2020-09-07",
    "cct_siret": 49310396400026,
    "latitude": 44.410721,
    "longitude": -1.168733,
    "coordgeo": {
      "lon": -1.168733,
      "lat": 44.410721
    },
    "cct_statut": "actif"
  },
  {
    "cct_code_dept": "Landes",
    "code_postal": "40600",
    "cct_code_commune": "Biscarrosse",
    "cct_denomination": "AGREE AURILLAC AUTO CONTROLE",
    "cct_adresse": "1031 AV DE LAOUADIE",
    "cct_tel": null,
    "cct_url": null,
    "cat_vehicule_id": "3",
    "cat_vehicule_libelle": "Voiture de collection",
    "cat_energie_id": "5",
    "cat_energie_libelle": "Electrique",
    "prix_visite": 96,
    "date_application_visite": "2020-09-07",
    "prix_contre_visite_min": 5,
    "prix_contre_visite_max": 20,
    "date_application_contre_visite": "2020-09-07",
    "cct_siret": 49310396400026,
    "latitude": 44.410721,
    "longitude": -1.168733,
    "coordgeo": {
      "lon": -1.168733,
      "lat": 44.410721
    },
    "cct_statut": "actif"
  },
  {
    "cct_code_dept": "Landes",
    "code_postal": "40100",
    "cct_code_commune": "Dax",
    "cct_denomination": "CONTROLE TECHNIQUE DAX NARROSSE",
    "cct_adresse": "10 RUE D ARGOUBET",
    "cct_tel": null,
    "cct_url": null,
    "cat_vehicule_id": "2",
    "cat_vehicule_libelle": "4 x 4",
    "cat_energie_id": "2",
    "cat_energie_libelle": "Diesel",
    "prix_visite": 75,
    "date_application_visite": "2020-09-03",
    "prix_contre_visite_min": 10,
    "prix_contre_visite_max": 30,
    "date_application_contre_visite": "2020-09-03",
    "cct_siret": 81189773500015,
    "latitude": 43.705145,
    "longitude": -1.03335,
    "coordgeo": {
      "lon": -1.03335,
      "lat": 43.705145
    },
    "cct_statut": "actif"
  },
  {
    "cct_code_dept": "Landes",
    "code_postal": "40100",
    "cct_code_commune": "Dax",
    "cct_denomination": "CONTROLE TECHNIQUE DAX NARROSSE",
    "cct_adresse": "10 RUE D ARGOUBET",
    "cct_tel": null,
    "cct_url": null,
    "cat_vehicule_id": "2",
    "cat_vehicule_libelle": "4 x 4",
    "cat_energie_id": "1",
    "cat_energie_libelle": "Essence",
    "prix_visite": 75,
    "date_application_visite": "2020-09-03",
    "prix_contre_visite_min": 10,
    "prix_contre_visite_max": 30,
    "date_application_contre_visite": "2020-09-03",
    "cct_siret": 81189773500015,
    "latitude": 43.705145,
    "longitude": -1.03335,
    "coordgeo": {
      "lon": -1.03335,
      "lat": 43.705145
    },
    "cct_statut": "actif"
  },
  {
    "cct_code_dept": "Landes",
    "code_postal": "40100",
    "cct_code_commune": "Dax",
    "cct_denomination": "CONTROLE TECHNIQUE DAX NARROSSE",
    "cct_adresse": "10 RUE D ARGOUBET",
    "cct_tel": null,
    "cct_url": null,
    "cat_vehicule_id": "1",
    "cat_vehicule_libelle": "Voiture Particulière",
    "cat_energie_id": "1",
    "cat_energie_libelle": "Essence",
    "prix_visite": 75,
    "date_application_visite": "2020-09-03",
    "prix_contre_visite_min": 10,
    "prix_contre_visite_max": 30,
    "date_application_contre_visite": "2020-09-03",
    "cct_siret": 81189773500015,
    "latitude": 43.705145,
    "longitude": -1.03335,
    "coordgeo": {
      "lon": -1.03335,
      "lat": 43.705145
    },
    "cct_statut": "actif"
  },
  {
    "cct_code_dept": "Landes",
    "code_postal": null,
    "cct_code_commune": "Saint-Paul-lès-Dax",
    "cct_denomination": "SAINT PAUL CONTROLE",
    "cct_adresse": "1245 AV DE LA RESISTANCE",
    "cct_tel": "558913410",
    "cct_url": "https://agenda.dekra-norisko.fr",
    "cat_vehicule_id": "5",
    "cat_vehicule_libelle": "Camping-car (moins de 3,5 tonnes)",
    "cat_energie_id": "5",
    "cat_energie_libelle": "Electrique",
    "prix_visite": 80,
    "date_application_visite": "2020-09-04",
    "prix_contre_visite_min": 10,
    "prix_contre_visite_max": 30,
    "date_application_contre_visite": "2020-09-04",
    "cct_siret": 81228796900016,
    "latitude": 43.725306,
    "longitude": -1.066062,
    "coordgeo": {
      "lon": -1.066062,
      "lat": 43.725306
    },
    "cct_statut": "actif"
  },
  {
    "cct_code_dept": "Landes",
    "code_postal": null,
    "cct_code_commune": "Saint-Sever",
    "cct_denomination": "ADOUR AUTO CONTROLE",
    "cct_adresse": "ESCALES",
    "cct_tel": "558760176",
    "cct_url": "dekra-norisko.fr",
    "cat_vehicule_id": "2",
    "cat_vehicule_libelle": "4 x 4",
    "cat_energie_id": "1",
    "cat_energie_libelle": "Essence",
    "prix_visite": 80,
    "date_application_visite": "2020-09-14",
    "prix_contre_visite_min": 0,
    "prix_contre_visite_max": 0,
    "date_application_contre_visite": "2020-09-14",
    "cct_siret": 51512304000013,
    "latitude": 43.746615,
    "longitude": -0.559161,
    "coordgeo": {
      "lon": -0.559161,
      "lat": 43.746615
    },
    "cct_statut": "actif"
  },
  {
    "cct_code_dept": "Landes",
    "code_postal": null,
    "cct_code_commune": "Saint-Sever",
    "cct_denomination": "ADOUR AUTO CONTROLE",
    "cct_adresse": "ESCALES",
    "cct_tel": "558760176",
    "cct_url": "dekra-norisko.fr",
    "cat_vehicule_id": "4",
    "cat_vehicule_libelle": "Camionnette",
    "cat_energie_id": "1",
    "cat_energie_libelle": "Essence",
    "prix_visite": 80,
    "date_application_visite": "2020-09-14",
    "prix_contre_visite_min": 0,
    "prix_contre_visite_max": 0,
    "date_application_contre_visite": "2020-09-14",
    "cct_siret": 51512304000013,
    "latitude": 43.746615,
    "longitude": -0.559161,
    "coordgeo": {
      "lon": -0.559161,
      "lat": 43.746615
    },
    "cct_statut": "actif"
  },
  {
    "cct_code_dept": "Landes",
    "code_postal": null,
    "cct_code_commune": "Saint-Sever",
    "cct_denomination": "ADOUR AUTO CONTROLE",
    "cct_adresse": "ESCALES",
    "cct_tel": "558760176",
    "cct_url": "dekra-norisko.fr",
    "cat_vehicule_id": "3",
    "cat_vehicule_libelle": "Voiture de collection",
    "cat_energie_id": "2",
    "cat_energie_libelle": "Diesel",
    "prix_visite": 80,
    "date_application_visite": "2020-09-14",
    "prix_contre_visite_min": 0,
    "prix_contre_visite_max": 0,
    "date_application_contre_visite": "2020-09-14",
    "cct_siret": 51512304000013,
    "latitude": 43.746615,
    "longitude": -0.559161,
    "coordgeo": {
      "lon": -0.559161,
      "lat": 43.746615
    },
    "cct_statut": "actif"
  },
  {
    "cct_code_dept": "Landes",
    "code_postal": null,
    "cct_code_commune": "Mont-de-Marsan",
    "cct_denomination": "MONTCONTROLE",
    "cct_adresse": "220 AV DU MARECHAL JUIN",
    "cct_tel": null,
    "cct_url": null,
    "cat_vehicule_id": "1",
    "cat_vehicule_libelle": "Voiture Particulière",
    "cat_energie_id": "3",
    "cat_energie_libelle": "Gaz",
    "prix_visite": 0,
    "date_application_visite": "2020-09-11",
    "prix_contre_visite_min": 0,
    "prix_contre_visite_max": 0,
    "date_application_contre_visite": "2020-09-11",
    "cct_siret": 81971143300014,
    "latitude": 43.899136,
    "longitude": -0.485821,
    "coordgeo": {
      "lon": -0.485821,
      "lat": 43.899136
    },
    "cct_statut": "actif"
  },
  {
    "cct_code_dept": "Landes",
    "code_postal": "40400",
    "cct_code_commune": "Tartas",
    "cct_denomination": "AUTO-BILAN TARUSATE",
    "cct_adresse": "136 PL DU LUC",
    "cct_tel": "558735577",
    "cct_url": "https://www.dekra-norisko.fr/centres-controle-technique/tartas,40400/auto-bilan-tarusate,s040d135#utm_source=google&utm_campaign=mybusiness&utm_term=Tartas",
    "cat_vehicule_id": "4",
    "cat_vehicule_libelle": "Camionnette",
    "cat_energie_id": "3",
    "cat_energie_libelle": "Gaz",
    "prix_visite": 85,
    "date_application_visite": "2020-09-30",
    "prix_contre_visite_min": 10,
    "prix_contre_visite_max": 25,
    "date_application_contre_visite": "2020-09-30",
    "cct_siret": 84533221200016,
    "latitude": 43.833744,
    "longitude": -0.811638,
    "coordgeo": {
      "lon": -0.811638,
      "lat": 43.833744
    },
    "cct_statut": "actif"
  },
  {
    "cct_code_dept": "Landes",
    "code_postal": "40400",
    "cct_code_commune": "Tartas",
    "cct_denomination": "AUTO-BILAN TARUSATE",
    "cct_adresse": "136 PL DU LUC",
    "cct_tel": "558735577",
    "cct_url": "https://www.dekra-norisko.fr/centres-controle-technique/tartas,40400/auto-bilan-tarusate,s040d135#utm_source=google&utm_campaign=mybusiness&utm_term=Tartas",
    "cat_vehicule_id": "5",
    "cat_vehicule_libelle": "Camping-car (moins de 3,5 tonnes)",
    "cat_energie_id": "4",
    "cat_energie_libelle": "Hybride",
    "prix_visite": 77,
    "date_application_visite": "2020-09-30",
    "prix_contre_visite_min": 10,
    "prix_contre_visite_max": 20,
    "date_application_contre_visite": "2020-09-30",
    "cct_siret": 84533221200016,
    "latitude": 43.833744,
    "longitude": -0.811638,
    "coordgeo": {
      "lon": -0.811638,
      "lat": 43.833744
    },
    "cct_statut": "actif"
  },
  {
    "cct_code_dept": "Landes",
    "code_postal": "40600",
    "cct_code_commune": "Biscarrosse",
    "cct_denomination": "BISCA AUTO CONTROLE",
    "cct_adresse": "1031 AV DE LAOUADIE",
    "cct_tel": "777361615",
    "cct_url": null,
    "cat_vehicule_id": "3",
    "cat_vehicule_libelle": "Voiture de collection",
    "cat_energie_id": "3",
    "cat_energie_libelle": "Gaz",
    "prix_visite": 83,
    "date_application_visite": "2023-04-05",
    "prix_contre_visite_min": 10,
    "prix_contre_visite_max": 10,
    "date_application_contre_visite": "2023-04-05",
    "cct_siret": 92240018900010,
    "latitude": 44.411007,
    "longitude": -1.172452,
    "coordgeo": {
      "lon": -1.172452,
      "lat": 44.411007
    },
    "cct_statut": "actif"
  },
  {
    "cct_code_dept": "Landes",
    "code_postal": "40100",
    "cct_code_commune": "Dax",
    "cct_denomination": "C.C.T.A. RIVE DROITE AUTOVISION",
    "cct_adresse": "4 ALL PAMPARA",
    "cct_tel": "558740517",
    "cct_url": null,
    "cat_vehicule_id": "1",
    "cat_vehicule_libelle": "Voiture Particulière",
    "cat_energie_id": "3",
    "cat_energie_libelle": "Gaz",
    "prix_visite": 85,
    "date_application_visite": "2020-09-07",
    "prix_contre_visite_min": 15,
    "prix_contre_visite_max": 22,
    "date_application_contre_visite": "2020-09-07",
    "cct_siret": 48539840800016,
    "latitude": 43.717325,
    "longitude": -1.054479,
    "coordgeo": {
      "lon": -1.054479,
      "lat": 43.717325
    },
    "cct_statut": "actif"
  },
  {
    "cct_code_dept": "Landes",
    "code_postal": "40260",
    "cct_code_commune": "Castets",
    "cct_denomination": "CT DE CASTETS SARLU",
    "cct_adresse": "315 RUE DE GASCOGNE",
    "cct_tel": "558550083",
    "cct_url": null,
    "cat_vehicule_id": "2",
    "cat_vehicule_libelle": "4 x 4",
    "cat_energie_id": "4",
    "cat_energie_libelle": "Hybride",
    "prix_visite": 70,
    "date_application_visite": "2020-09-03",
    "prix_contre_visite_min": 15,
    "prix_contre_visite_max": 70,
    "date_application_contre_visite": "2020-09-03",
    "cct_siret": 78969760400013,
    "latitude": 43.873718,
    "longitude": -1.143085,
    "coordgeo": {
      "lon": -1.143085,
      "lat": 43.873718
    },
    "cct_statut": "actif"
  },
  {
    "cct_code_dept": "Landes",
    "code_postal": "40260",
    "cct_code_commune": "Castets",
    "cct_denomination": "CT DE CASTETS SARLU",
    "cct_adresse": "315 RUE DE GASCOGNE",
    "cct_tel": "558550083",
    "cct_url": null,
    "cat_vehicule_id": "4",
    "cat_vehicule_libelle": "Camionnette",
    "cat_energie_id": "1",
    "cat_energie_libelle": "Essence",
    "prix_visite": 70,
    "date_application_visite": "2020-09-03",
    "prix_contre_visite_min": 15,
    "prix_contre_visite_max": 70,
    "date_application_contre_visite": "2020-09-03",
    "cct_siret": 78969760400013,
    "latitude": 43.873718,
    "longitude": -1.143085,
    "coordgeo": {
      "lon": -1.143085,
      "lat": 43.873718
    },
    "cct_statut": "actif"
  },
  {
    "cct_code_dept": "Landes",
    "code_postal": "40260",
    "cct_code_commune": "Castets",
    "cct_denomination": "CT DE CASTETS SARLU",
    "cct_adresse": "315 RUE DE GASCOGNE",
    "cct_tel": "558550083",
    "cct_url": null,
    "cat_vehicule_id": "1",
    "cat_vehicule_libelle": "Voiture Particulière",
    "cat_energie_id": "2",
    "cat_energie_libelle": "Diesel",
    "prix_visite": 70,
    "date_application_visite": "2020-09-03",
    "prix_contre_visite_min": 15,
    "prix_contre_visite_max": 70,
    "date_application_contre_visite": "2020-09-03",
    "cct_siret": 78969760400013,
    "latitude": 43.873718,
    "longitude": -1.143085,
    "coordgeo": {
      "lon": -1.143085,
      "lat": 43.873718
    },
    "cct_statut": "actif"
  },
  {
    "cct_code_dept": "Landes",
    "code_postal": "40700",
    "cct_code_commune": "Hagetmau",
    "cct_denomination": "CONTROLE TECHNIQUE AUTOMOBILE HAGETMAUTIEN",
    "cct_adresse": "LD MONPLAISIR",
    "cct_tel": "558794000",
    "cct_url": null,
    "cat_vehicule_id": "1",
    "cat_vehicule_libelle": "Voiture Particulière",
    "cat_energie_id": "5",
    "cat_energie_libelle": "Electrique",
    "prix_visite": 70,
    "date_application_visite": "2020-09-08",
    "prix_contre_visite_min": 10,
    "prix_contre_visite_max": 10,
    "date_application_contre_visite": "2020-09-08",
    "cct_siret": 81797554300015,
    "latitude": 43.64117,
    "longitude": -0.619051,
    "coordgeo": {
      "lon": -0.619051,
      "lat": 43.64117
    },
    "cct_statut": "actif"
  },
  {
    "cct_code_dept": "Landes",
    "code_postal": "40120",
    "cct_code_commune": "Roquefort",
    "cct_denomination": "EURL LAURIE VERDIER",
    "cct_adresse": "145 CHE DE COUSSEILAT",
    "cct_tel": "558456038",
    "cct_url": "ct-autovision-verdier.fr",
    "cat_vehicule_id": "2",
    "cat_vehicule_libelle": "4 x 4",
    "cat_energie_id": "2",
    "cat_energie_libelle": "Diesel",
    "prix_visite": 73,
    "date_application_visite": "2023-01-11",
    "prix_contre_visite_min": 10,
    "prix_contre_visite_max": 15,
    "date_application_contre_visite": "2020-09-09",
    "cct_siret": 82448422400020,
    "latitude": 44.041889,
    "longitude": -0.320331,
    "coordgeo": {
      "lon": -0.320331,
      "lat": 44.041889
    },
    "cct_statut": "actif"
  },
  {
    "cct_code_dept": "Landes",
    "code_postal": "47310",
    "cct_code_commune": "Roquefort",
    "cct_denomination": "EURL LAURIE VERDIER",
    "cct_adresse": "145 CHE DE COUSSEILAT",
    "cct_tel": "558456038",
    "cct_url": "ct-autovision-verdier.fr",
    "cat_vehicule_id": "2",
    "cat_vehicule_libelle": "4 x 4",
    "cat_energie_id": "3",
    "cat_energie_libelle": "Gaz",
    "prix_visite": 85,
    "date_application_visite": "2023-01-11",
    "prix_contre_visite_min": 10,
    "prix_contre_visite_max": 15,
    "date_application_contre_visite": "2020-09-09",
    "cct_siret": 82448422400020,
    "latitude": 44.041889,
    "longitude": -0.320331,
    "coordgeo": {
      "lon": -0.320331,
      "lat": 44.041889
    },
    "cct_statut": "actif"
  },
  {
    "cct_code_dept": "Landes",
    "code_postal": "32390",
    "cct_code_commune": "Roquefort",
    "cct_denomination": "EURL LAURIE VERDIER",
    "cct_adresse": "145 CHE DE COUSSEILAT",
    "cct_tel": "558456038",
    "cct_url": "ct-autovision-verdier.fr",
    "cat_vehicule_id": "2",
    "cat_vehicule_libelle": "4 x 4",
    "cat_energie_id": "3",
    "cat_energie_libelle": "Gaz",
    "prix_visite": 75,
    "date_application_visite": "2020-09-09",
    "prix_contre_visite_min": 10,
    "prix_contre_visite_max": 15,
    "date_application_contre_visite": "2020-09-09",
    "cct_siret": 82448422400020,
    "latitude": 44.041889,
    "longitude": -0.320331,
    "coordgeo": {
      "lon": -0.320331,
      "lat": 44.041889
    },
    "cct_statut": "actif"
  },
  {
    "cct_code_dept": "Landes",
    "code_postal": "47310",
    "cct_code_commune": "Roquefort",
    "cct_denomination": "EURL LAURIE VERDIER",
    "cct_adresse": "145 CHE DE COUSSEILAT",
    "cct_tel": "558456038",
    "cct_url": "ct-autovision-verdier.fr",
    "cat_vehicule_id": "2",
    "cat_vehicule_libelle": "4 x 4",
    "cat_energie_id": "4",
    "cat_energie_libelle": "Hybride",
    "prix_visite": 85,
    "date_application_visite": "2023-01-11",
    "prix_contre_visite_min": 10,
    "prix_contre_visite_max": 15,
    "date_application_contre_visite": "2020-09-09",
    "cct_siret": 82448422400020,
    "latitude": 44.041889,
    "longitude": -0.320331,
    "coordgeo": {
      "lon": -0.320331,
      "lat": 44.041889
    },
    "cct_statut": "actif"
  },
  {
    "cct_code_dept": "Landes",
    "code_postal": "40120",
    "cct_code_commune": "Roquefort",
    "cct_denomination": "EURL LAURIE VERDIER",
    "cct_adresse": "145 CHE DE COUSSEILAT",
    "cct_tel": "558456038",
    "cct_url": "ct-autovision-verdier.fr",
    "cat_vehicule_id": "5",
    "cat_vehicule_libelle": "Camping-car (moins de 3,5 tonnes)",
    "cat_energie_id": "2",
    "cat_energie_libelle": "Diesel",
    "prix_visite": 81,
    "date_application_visite": "2023-01-11",
    "prix_contre_visite_min": 10,
    "prix_contre_visite_max": 15,
    "date_application_contre_visite": "2020-09-09",
    "cct_siret": 82448422400020,
    "latitude": 44.041889,
    "longitude": -0.320331,
    "coordgeo": {
      "lon": -0.320331,
      "lat": 44.041889
    },
    "cct_statut": "actif"
  },
  {
    "cct_code_dept": "Landes",
    "code_postal": "47310",
    "cct_code_commune": "Roquefort",
    "cct_denomination": "EURL LAURIE VERDIER",
    "cct_adresse": "145 CHE DE COUSSEILAT",
    "cct_tel": "558456038",
    "cct_url": "ct-autovision-verdier.fr",
    "cat_vehicule_id": "5",
    "cat_vehicule_libelle": "Camping-car (moins de 3,5 tonnes)",
    "cat_energie_id": "4",
    "cat_energie_libelle": "Hybride",
    "prix_visite": 78,
    "date_application_visite": "2020-09-09",
    "prix_contre_visite_min": 10,
    "prix_contre_visite_max": 15,
    "date_application_contre_visite": "2020-09-09",
    "cct_siret": 82448422400020,
    "latitude": 44.041889,
    "longitude": -0.320331,
    "coordgeo": {
      "lon": -0.320331,
      "lat": 44.041889
    },
    "cct_statut": "actif"
  },
  {
    "cct_code_dept": "Landes",
    "code_postal": "47310",
    "cct_code_commune": "Roquefort",
    "cct_denomination": "EURL LAURIE VERDIER",
    "cct_adresse": "145 CHE DE COUSSEILAT",
    "cct_tel": "558456038",
    "cct_url": "ct-autovision-verdier.fr",
    "cat_vehicule_id": "1",
    "cat_vehicule_libelle": "Voiture Particulière",
    "cat_energie_id": "2",
    "cat_energie_libelle": "Diesel",
    "prix_visite": 68,
    "date_application_visite": "2020-09-09",
    "prix_contre_visite_min": 10,
    "prix_contre_visite_max": 15,
    "date_application_contre_visite": "2020-09-09",
    "cct_siret": 82448422400020,
    "latitude": 44.041889,
    "longitude": -0.320331,
    "coordgeo": {
      "lon": -0.320331,
      "lat": 44.041889
    },
    "cct_statut": "actif"
  },
  {
    "cct_code_dept": "Landes",
    "code_postal": "47310",
    "cct_code_commune": "Roquefort",
    "cct_denomination": "EURL LAURIE VERDIER",
    "cct_adresse": "145 CHE DE COUSSEILAT",
    "cct_tel": "558456038",
    "cct_url": "ct-autovision-verdier.fr",
    "cat_vehicule_id": "1",
    "cat_vehicule_libelle": "Voiture Particulière",
    "cat_energie_id": "1",
    "cat_energie_libelle": "Essence",
    "prix_visite": 68,
    "date_application_visite": "2020-09-09",
    "prix_contre_visite_min": 10,
    "prix_contre_visite_max": 15,
    "date_application_contre_visite": "2020-09-09",
    "cct_siret": 82448422400020,
    "latitude": 44.041889,
    "longitude": -0.320331,
    "coordgeo": {
      "lon": -0.320331,
      "lat": 44.041889
    },
    "cct_statut": "actif"
  },
  {
    "cct_code_dept": "Landes",
    "code_postal": "47310",
    "cct_code_commune": "Roquefort",
    "cct_denomination": "EURL LAURIE VERDIER",
    "cct_adresse": "145 CHE DE COUSSEILAT",
    "cct_tel": "558456038",
    "cct_url": "ct-autovision-verdier.fr",
    "cat_vehicule_id": "3",
    "cat_vehicule_libelle": "Voiture de collection",
    "cat_energie_id": "5",
    "cat_energie_libelle": "Electrique",
    "prix_visite": 85,
    "date_application_visite": "2023-01-11",
    "prix_contre_visite_min": 10,
    "prix_contre_visite_max": 15,
    "date_application_contre_visite": "2020-09-09",
    "cct_siret": 82448422400020,
    "latitude": 44.041889,
    "longitude": -0.320331,
    "coordgeo": {
      "lon": -0.320331,
      "lat": 44.041889
    },
    "cct_statut": "actif"
  },
  {
    "cct_code_dept": "Landes",
    "code_postal": "40120",
    "cct_code_commune": "Roquefort",
    "cct_denomination": "EURL LAURIE VERDIER",
    "cct_adresse": "145 CHE DE COUSSEILAT",
    "cct_tel": "558456038",
    "cct_url": "ct-autovision-verdier.fr",
    "cat_vehicule_id": "3",
    "cat_vehicule_libelle": "Voiture de collection",
    "cat_energie_id": "1",
    "cat_energie_libelle": "Essence",
    "prix_visite": 68,
    "date_application_visite": "2020-09-09",
    "prix_contre_visite_min": 10,
    "prix_contre_visite_max": 15,
    "date_application_contre_visite": "2020-09-09",
    "cct_siret": 82448422400020,
    "latitude": 44.041889,
    "longitude": -0.320331,
    "coordgeo": {
      "lon": -0.320331,
      "lat": 44.041889
    },
    "cct_statut": "actif"
  },
  {
    "cct_code_dept": "Landes",
    "code_postal": null,
    "cct_code_commune": "Saint-Vincent-de-Paul",
    "cct_denomination": "CONTROLE AUTO SAINT VINCENT DE PAUL",
    "cct_adresse": "277 RTE DE CARRERE",
    "cct_tel": "558426464",
    "cct_url": null,
    "cat_vehicule_id": "5",
    "cat_vehicule_libelle": "Camping-car (moins de 3,5 tonnes)",
    "cat_energie_id": "2",
    "cat_energie_libelle": "Diesel",
    "prix_visite": 85,
    "date_application_visite": "2023-01-27",
    "prix_contre_visite_min": 15,
    "prix_contre_visite_max": 30,
    "date_application_contre_visite": "2023-01-27",
    "cct_siret": 90819944100019,
    "latitude": 43.7418,
    "longitude": -1.015201,
    "coordgeo": {
      "lon": -1.015201,
      "lat": 43.7418
    },
    "cct_statut": "actif"
  },
  {
    "cct_code_dept": "Landes",
    "code_postal": null,
    "cct_code_commune": "Mont-de-Marsan",
    "cct_denomination": "CONTROLE TECHNIQUE MONTOIS",
    "cct_adresse": "1600 AV DU MARECHAL JUIN",
    "cct_tel": "558069718",
    "cct_url": "558069718",
    "cat_vehicule_id": "1",
    "cat_vehicule_libelle": "Voiture Particulière",
    "cat_energie_id": "5",
    "cat_energie_libelle": "Electrique",
    "prix_visite": 90,
    "date_application_visite": "2020-09-01",
    "prix_contre_visite_min": 15,
    "prix_contre_visite_max": 25,
    "date_application_contre_visite": "2020-09-01",
    "cct_siret": 43241776400011,
    "latitude": 43.906588,
    "longitude": -0.472245,
    "coordgeo": {
      "lon": -0.472245,
      "lat": 43.906588
    },
    "cct_statut": "actif"
  },
  {
    "cct_code_dept": "Landes",
    "code_postal": "40700",
    "cct_code_commune": "Hagetmau",
    "cct_denomination": "LANDES AQUITAINE CONTROLE TECHINQUE POIDS LOURDS",
    "cct_adresse": null,
    "cct_tel": "558069305",
    "cct_url": null,
    "cat_vehicule_id": "5",
    "cat_vehicule_libelle": "Camping-car (moins de 3,5 tonnes)",
    "cat_energie_id": "3",
    "cat_energie_libelle": "Gaz",
    "prix_visite": 80,
    "date_application_visite": "2020-09-02",
    "prix_contre_visite_min": 10,
    "prix_contre_visite_max": 20,
    "date_application_contre_visite": "2020-09-02",
    "cct_siret": 50153702100013,
    "latitude": 43.654383,
    "longitude": -0.594966,
    "coordgeo": {
      "lon": -0.594966,
      "lat": 43.654383
    },
    "cct_statut": "actif"
  },
  {
    "cct_code_dept": "Landes",
    "code_postal": "40350",
    "cct_code_commune": "Pouillon",
    "cct_denomination": "CENTRE CONTROLE TECHNIQUE SECURITE AUTO",
    "cct_adresse": null,
    "cct_tel": "558983854",
    "cct_url": null,
    "cat_vehicule_id": "4",
    "cat_vehicule_libelle": "Camionnette",
    "cat_energie_id": "5",
    "cat_energie_libelle": "Electrique",
    "prix_visite": 79,
    "date_application_visite": "2020-09-15",
    "prix_contre_visite_min": 10,
    "prix_contre_visite_max": 25,
    "date_application_contre_visite": "2020-09-15",
    "cct_siret": 33353016000048,
    "latitude": 43.693759,
    "longitude": -1.328225,
    "coordgeo": {
      "lon": -1.328225,
      "lat": 43.693759
    },
    "cct_statut": "actif"
  },
  {
    "cct_code_dept": "Landes",
    "code_postal": null,
    "cct_code_commune": "Saint-Vincent-de-Tyrosse",
    "cct_denomination": "TYROSSE CONTROLE AUTO",
    "cct_adresse": "15 RUE DES COMPAGNONS",
    "cct_tel": "558770717",
    "cct_url": null,
    "cat_vehicule_id": "2",
    "cat_vehicule_libelle": "4 x 4",
    "cat_energie_id": "2",
    "cat_energie_libelle": "Diesel",
    "prix_visite": 78,
    "date_application_visite": "2020-09-01",
    "prix_contre_visite_min": 10,
    "prix_contre_visite_max": 15,
    "date_application_contre_visite": "2020-09-01",
    "cct_siret": 43871192100017,
    "latitude": 43.666857,
    "longitude": -1.281822,
    "coordgeo": {
      "lon": -1.281822,
      "lat": 43.666857
    },
    "cct_statut": "actif"
  },
  {
    "cct_code_dept": "Landes",
    "code_postal": null,
    "cct_code_commune": "Saint-Vincent-de-Tyrosse",
    "cct_denomination": "TYROSSE CONTROLE AUTO",
    "cct_adresse": "15 RUE DES COMPAGNONS",
    "cct_tel": "558770717",
    "cct_url": null,
    "cat_vehicule_id": "3",
    "cat_vehicule_libelle": "Voiture de collection",
    "cat_energie_id": "4",
    "cat_energie_libelle": "Hybride",
    "prix_visite": 78,
    "date_application_visite": "2020-09-01",
    "prix_contre_visite_min": 10,
    "prix_contre_visite_max": 15,
    "date_application_contre_visite": "2020-09-01",
    "cct_siret": 43871192100017,
    "latitude": 43.666857,
    "longitude": -1.281822,
    "coordgeo": {
      "lon": -1.281822,
      "lat": 43.666857
    },
    "cct_statut": "actif"
  },
  {
    "cct_code_dept": "Landes",
    "code_postal": null,
    "cct_code_commune": "Saint-Sever",
    "cct_denomination": "ADOUR AUTO CONTROLE",
    "cct_adresse": "RTE DE MONT DE MARSAN",
    "cct_tel": "558939393",
    "cct_url": "https://controle-technique-st-sever.securitest.fr/",
    "cat_vehicule_id": "3",
    "cat_vehicule_libelle": "Voiture de collection",
    "cat_energie_id": "3",
    "cat_energie_libelle": "Gaz",
    "prix_visite": 90,
    "date_application_visite": "2020-09-14",
    "prix_contre_visite_min": 0,
    "prix_contre_visite_max": 0,
    "date_application_contre_visite": "2020-09-14",
    "cct_siret": 51512304000021,
    "latitude": 43.771201,
    "longitude": -0.569794,
    "coordgeo": {
      "lon": -0.569794,
      "lat": 43.771201
    },
    "cct_statut": "actif"
  },
  {
    "cct_code_dept": "Landes",
    "code_postal": null,
    "cct_code_commune": "Pécorade",
    "cct_denomination": "CONTROLE TECHNIQUE AUTO TURSANAIS",
    "cct_adresse": "ZONE ARTISANALE",
    "cct_tel": "558445720",
    "cct_url": "autosecuritas.fr",
    "cat_vehicule_id": "2",
    "cat_vehicule_libelle": "4 x 4",
    "cat_energie_id": "3",
    "cat_energie_libelle": "Gaz",
    "prix_visite": 80,
    "date_application_visite": "2020-01-01",
    "prix_contre_visite_min": 5,
    "prix_contre_visite_max": 15,
    "date_application_contre_visite": "2020-01-01",
    "cct_siret": 42826857700015,
    "latitude": null,
    "longitude": null,
    "coordgeo": null,
    "cct_statut": "actif"
  },
  {
    "cct_code_dept": "Landes",
    "code_postal": "40510",
    "cct_code_commune": "Seignosse",
    "cct_denomination": "CTA DE LAUBIAN",
    "cct_adresse": "7 IMP DE LA LANDE",
    "cct_tel": "558439069",
    "cct_url": null,
    "cat_vehicule_id": "2",
    "cat_vehicule_libelle": "4 x 4",
    "cat_energie_id": "2",
    "cat_energie_libelle": "Diesel",
    "prix_visite": 75,
    "date_application_visite": "2020-10-12",
    "prix_contre_visite_min": 20,
    "prix_contre_visite_max": 20,
    "date_application_contre_visite": "2020-10-12",
    "cct_siret": 80859213300017,
    "latitude": 43.687615,
    "longitude": -1.349997,
    "coordgeo": {
      "lon": -1.349997,
      "lat": 43.687615
    },
    "cct_statut": "actif"
  },
  {
    "cct_code_dept": "Landes",
    "code_postal": "40510",
    "cct_code_commune": "Seignosse",
    "cct_denomination": "CTA DE LAUBIAN",
    "cct_adresse": "7 IMP DE LA LANDE",
    "cct_tel": "558439069",
    "cct_url": null,
    "cat_vehicule_id": "5",
    "cat_vehicule_libelle": "Camping-car (moins de 3,5 tonnes)",
    "cat_energie_id": "5",
    "cat_energie_libelle": "Electrique",
    "prix_visite": 75,
    "date_application_visite": "2020-10-12",
    "prix_contre_visite_min": 20,
    "prix_contre_visite_max": 20,
    "date_application_contre_visite": "2020-10-12",
    "cct_siret": 80859213300017,
    "latitude": 43.687615,
    "longitude": -1.349997,
    "coordgeo": {
      "lon": -1.349997,
      "lat": 43.687615
    },
    "cct_statut": "actif"
  },
  {
    "cct_code_dept": "Landes",
    "code_postal": "40510",
    "cct_code_commune": "Seignosse",
    "cct_denomination": "CTA DE LAUBIAN",
    "cct_adresse": "7 IMP DE LA LANDE",
    "cct_tel": "558439069",
    "cct_url": null,
    "cat_vehicule_id": "5",
    "cat_vehicule_libelle": "Camping-car (moins de 3,5 tonnes)",
    "cat_energie_id": "3",
    "cat_energie_libelle": "Gaz",
    "prix_visite": 0,
    "date_application_visite": "2020-10-12",
    "prix_contre_visite_min": 0,
    "prix_contre_visite_max": 0,
    "date_application_contre_visite": "2020-10-12",
    "cct_siret": 80859213300017,
    "latitude": 43.687615,
    "longitude": -1.349997,
    "coordgeo": {
      "lon": -1.349997,
      "lat": 43.687615
    },
    "cct_statut": "actif"
  },
  {
    "cct_code_dept": "Landes",
    "code_postal": "40510",
    "cct_code_commune": "Seignosse",
    "cct_denomination": "CTA DE LAUBIAN",
    "cct_adresse": "7 IMP DE LA LANDE",
    "cct_tel": "558439069",
    "cct_url": null,
    "cat_vehicule_id": "1",
    "cat_vehicule_libelle": "Voiture Particulière",
    "cat_energie_id": "3",
    "cat_energie_libelle": "Gaz",
    "prix_visite": 0,
    "date_application_visite": "2020-10-12",
    "prix_contre_visite_min": 20,
    "prix_contre_visite_max": 0,
    "date_application_contre_visite": "2020-10-12",
    "cct_siret": 80859213300017,
    "latitude": 43.687615,
    "longitude": -1.349997,
    "coordgeo": {
      "lon": -1.349997,
      "lat": 43.687615
    },
    "cct_statut": "actif"
  },
  {
    "cct_code_dept": "Landes",
    "code_postal": "40180",
    "cct_code_commune": "Narrosse",
    "cct_denomination": "JCB",
    "cct_adresse": "35 RTE DE SORT",
    "cct_tel": "787836373",
    "cct_url": null,
    "cat_vehicule_id": "3",
    "cat_vehicule_libelle": "Voiture de collection",
    "cat_energie_id": "5",
    "cat_energie_libelle": "Electrique",
    "prix_visite": 82,
    "date_application_visite": "2020-09-10",
    "prix_contre_visite_min": 0,
    "prix_contre_visite_max": 15,
    "date_application_contre_visite": "2020-09-10",
    "cct_siret": 80920477900015,
    "latitude": 43.692027,
    "longitude": -0.998573,
    "coordgeo": {
      "lon": -0.998573,
      "lat": 43.692027
    },
    "cct_statut": "actif"
  },
  {
    "cct_code_dept": "Landes",
    "code_postal": "40360",
    "cct_code_commune": "Pomarez",
    "cct_denomination": "CONTROLE TECHNIQUE POMAREZIEN",
    "cct_adresse": "197 AV DU STADE",
    "cct_tel": "558744852",
    "cct_url": "www.controletechniquepomarez.fr",
    "cat_vehicule_id": "4",
    "cat_vehicule_libelle": "Camionnette",
    "cat_energie_id": "5",
    "cat_energie_libelle": "Electrique",
    "prix_visite": 78,
    "date_application_visite": "2020-09-14",
    "prix_contre_visite_min": 10,
    "prix_contre_visite_max": 25,
    "date_application_contre_visite": "2020-09-14",
    "cct_siret": 85409333300011,
    "latitude": 43.625634,
    "longitude": -0.827619,
    "coordgeo": {
      "lon": -0.827619,
      "lat": 43.625634
    },
    "cct_statut": "actif"
  },
  {
    "cct_code_dept": "Landes",
    "code_postal": "47310",
    "cct_code_commune": "Roquefort",
    "cct_denomination": "CONTROLE TECHNIQUE VERIF AUTO 3",
    "cct_adresse": "4 IMP DE LA GRANDE LANDE",
    "cct_tel": "558759648",
    "cct_url": "www.verifauto40@orange.fr",
    "cat_vehicule_id": "4",
    "cat_vehicule_libelle": "Camionnette",
    "cat_energie_id": "1",
    "cat_energie_libelle": "Essence",
    "prix_visite": 67,
    "date_application_visite": "2020-12-16",
    "prix_contre_visite_min": 10,
    "prix_contre_visite_max": 15,
    "date_application_contre_visite": "2020-12-16",
    "cct_siret": 87824412800012,
    "latitude": 44.041366,
    "longitude": -0.346483,
    "coordgeo": {
      "lon": -0.346483,
      "lat": 44.041366
    },
    "cct_statut": "actif"
  },