[
  {
    "cct_code_dept": "Loire",
    "code_postal": null,
    "cct_code_commune": "Rive-de-Gier",
    "cct_denomination": "CENTRE TECHNIQUE AUTOMOBILE GERARD PAYRE",
    "cct_adresse": "RUE BARTHELEMY BRUNON",
    "cct_tel": "477838821",
    "cct_url": null,
    "cat_vehicule_id": "3",
    "cat_vehicule_libelle": "Voiture de collection",
    "cat_energie_id": "1",
    "cat_energie_libelle": "Essence",
    "prix_visite": 75,
    "date_application_visite": "2020-09-05",
    "prix_contre_visite_min": 20,
    "prix_contre_visite_max": 50,
    "date_application_contre_visite": "2020-09-05",
    "cct_siret": 33815565800036,
    "latitude": 45.527241,
    "longitude": 4.611859,
    "coordgeo": {
      "lon": 4.611859,
      "lat": 45.527241
    },
    "cct_statut": "actif"
  },
  {
    "cct_code_dept": "Loire",
    "code_postal": null,
    "cct_code_commune": "Andrézieux-Bouthéon",
    "cct_denomination": "CECAF CENTRE EXPERTISE CONTROL AUTO FORE",
    "cct_adresse": "AV BENOIT FOURNEYRON",
    "cct_tel": "477554979",
    "cct_url": "www.cecaf-andrezieux.autosecurite.com",
    "cat_vehicule_id": "4",
    "cat_vehicule_libelle": "Camionnette",
    "cat_energie_id": "5",
    "cat_energie_libelle": "Electrique",
    "prix_visite": 85,
    "date_application_visite": "2020-09-02",
    "prix_contre_visite_min": 10,
    "prix_contre_visite_max": 30,
    "date_application_contre_visite": "2020-09-02",
    "cct_siret": 33911463900026,
    "latitude": 45.521177,
    "longitude": 4.276781,
    "coordgeo": {
      "lon": 4.276781,
      "lat": 45.521177
    },
    "cct_statut": "actif"
  },
  {
    "cct_code_dept": "Loire",
    "code_postal": null,
    "cct_code_commune": "Noirétable",
    "cct_denomination": "CONTROLE TECHNIQUE AUTOMOBILE TASN",
    "cct_adresse": "ZA DE MONTIFAUX",
    "cct_tel": null,
    "cct_url": null,
    "cat_vehicule_id": "2",
    "cat_vehicule_libelle": "4 x 4",
    "cat_energie_id": "5",
    "cat_energie_libelle": "Electrique",
    "prix_visite": 65,
    "date_application_visite": "2020-09-22",
    "prix_contre_visite_min": 10,
    "prix_contre_visite_max": 15,
    "date_application_contre_visite": "2020-09-22",
    "cct_siret": 48088283600020,
    "latitude": 45.821126,
    "longitude": 3.758647,
    "coordgeo": {
      "lon": 3.758647,
      "lat": 45.821126
    },
    "cct_statut": "actif"
  },
  {
    "cct_code_dept": "Loire",
    "code_postal": null,
    "cct_code_commune": "Noirétable",
    "cct_denomination": "CONTROLE TECHNIQUE AUTOMOBILE TASN",
    "cct_adresse": "ZA DE MONTIFAUX",
    "cct_tel": null,
    "cct_url": null,
    "cat_vehicule_id": "2",
    "cat_vehicule_libelle": "4 x 4",
    "cat_energie_id": "3",
    "cat_energie_libelle": "Gaz",
    "prix_visite": 75,
    "date_application_visite": "2020-09-22",
    "prix_contre_visite_min": 10,
    "prix_contre_visite_max": 15,
    "date_application_contre_visite": "2020-09-22",
    "cct_siret": 48088283600020,
    "latitude": 45.821126,
    "longitude": 3.758647,
    "coordgeo": {
      "lon": 3.758647,
      "lat": 45.821126
    },
    "cct_statut": "actif"
  },
  {
    "cct_code_dept": "Loire",
    "code_postal": null,
    "cct_code_commune": "Noirétable",
    "cct_denomination": "CONTROLE TECHNIQUE AUTOMOBILE TASN",
    "cct_adresse": "ZA DE MONTIFAUX",
    "cct_tel": null,
    "cct_url": null,
    "cat_vehicule_id": "2",
    "cat_vehicule_libelle": "4 x 4",
    "cat_energie_id": "3",
    "cat_energie_libelle": "Gaz",
    "prix_visite": 70,
    "date_application_visite": "2020-09-22",
    "prix_contre_visite_min": 10,
    "prix_contre_visite_max": 15,
    "date_application_contre_visite": "2020-09-22",
    "cct_siret": 48088283600020,
    "latitude": 45.821126,
    "longitude": 3.758647,
    "coordgeo": {
      "lon": 3.758647,
      "lat": 45.821126
    },
    "cct_statut": "actif"
  },
  {
    "cct_code_dept": "Loire",
    "code_postal": null,
    "cct_code_commune": "Noirétable",
    "cct_denomination": "CONTROLE TECHNIQUE AUTOMOBILE TASN",
    "cct_adresse": "ZA DE MONTIFAUX",
    "cct_tel": null,
    "cct_url": null,
    "cat_vehicule_id": "4",
    "cat_vehicule_libelle": "Camionnette",
    "cat_energie_id": "3",
    "cat_energie_libelle": "Gaz",
    "prix_visite": 74,
    "date_application_visite": "2020-09-22",
    "prix_contre_visite_min": 10,
    "prix_contre_visite_max": 15,
    "date_application_contre_visite": "2020-09-22",
    "cct_siret": 48088283600020,
    "latitude": 45.821126,
    "longitude": 3.758647,
    "coordgeo": {
      "lon": 3.758647,
      "lat": 45.821126
    },
    "cct_statut": "actif"
  },
  {
    "cct_code_dept": "Loire",
    "code_postal": null,
    "cct_code_commune": "Noirétable",
    "cct_denomination": "CONTROLE TECHNIQUE AUTOMOBILE TASN",
    "cct_adresse": "ZA DE MONTIFAUX",
    "cct_tel": null,
    "cct_url": null,
    "cat_vehicule_id": "4",
    "cat_vehicule_libelle": "Camionnette",
    "cat_energie_id": "4",
    "cat_energie_libelle": "Hybride",
    "prix_visite": 65,
    "date_application_visite": "2020-09-22",
    "prix_contre_visite_min": 10,
    "prix_contre_visite_max": 15,
    "date_application_contre_visite": "2020-09-22",
    "cct_siret": 48088283600020,
    "latitude": 45.821126,
    "longitude": 3.758647,
    "coordgeo": {
      "lon": 3.758647,
      "lat": 45.821126
    },
    "cct_statut": "actif"
  },
  {
    "cct_code_dept": "Loire",
    "code_postal": null,
    "cct_code_commune": "Noirétable",
    "cct_denomination": "CONTROLE TECHNIQUE AUTOMOBILE TASN",
    "cct_adresse": "ZA DE MONTIFAUX",
    "cct_tel": null,
    "cct_url": null,
    "cat_vehicule_id": "5",
    "cat_vehicule_libelle": "Camping-car (moins de 3,5 tonnes)",
    "cat_energie_id": "4",
    "cat_energie_libelle": "Hybride",
    "prix_visite": 65,
    "date_application_visite": "2020-09-22",
    "prix_contre_visite_min": 10,
    "prix_contre_visite_max": 15,
    "date_application_contre_visite": "2020-09-22",
    "cct_siret": 48088283600020,
    "latitude": 45.821126,
    "longitude": 3.758647,
    "coordgeo": {
      "lon": 3.758647,
      "lat": 45.821126
    },
    "cct_statut": "actif"
  },
  {
    "cct_code_dept": "Loire",
    "code_postal": null,
    "cct_code_commune": "Noirétable",
    "cct_denomination": "CONTROLE TECHNIQUE AUTOMOBILE TASN",
    "cct_adresse": "ZA DE MONTIFAUX",
    "cct_tel": null,
    "cct_url": null,
    "cat_vehicule_id": "3",
    "cat_vehicule_libelle": "Voiture de collection",
    "cat_energie_id": "2",
    "cat_energie_libelle": "Diesel",
    "prix_visite": 68,
    "date_application_visite": "2020-09-22",
    "prix_contre_visite_min": 10,
    "prix_contre_visite_max": 15,
    "date_application_contre_visite": "2020-09-22",
    "cct_siret": 48088283600020,
    "latitude": 45.821126,
    "longitude": 3.758647,
    "coordgeo": {
      "lon": 3.758647,
      "lat": 45.821126
    },
    "cct_statut": "actif"
  },
  {
    "cct_code_dept": "Loire",
    "code_postal": "42300",
    "cct_code_commune": "Mably",
    "cct_denomination": "AUTO BILAN FRANCE",
    "cct_adresse": "RUE JEAN DE LA FONTAINE ZC Carrefour",
    "cct_tel": "477678227",
    "cct_url": "https://www.dekra-norisko.fr/centres-controle-technique/mably,42300/dekra-mably-zc-carrefour,s042d091",
    "cat_vehicule_id": "2",
    "cat_vehicule_libelle": "4 x 4",
    "cat_energie_id": "2",
    "cat_energie_libelle": "Diesel",
    "prix_visite": 79,
    "date_application_visite": "2020-09-22",
    "prix_contre_visite_min": 20,
    "prix_contre_visite_max": 30,
    "date_application_contre_visite": "2020-09-22",
    "cct_siret": 43780779501713,
    "latitude": 46.066148,
    "longitude": 4.056123,
    "coordgeo": {
      "lon": 4.056123,
      "lat": 46.066148
    },
    "cct_statut": "actif"
  },
  {
    "cct_code_dept": "Loire",
    "code_postal": null,
    "cct_code_commune": "Rive-de-Gier",
    "cct_denomination": "CATS RDG",
    "cct_adresse": "4 RUE MARTYRS DE LA RESISTANCE",
    "cct_tel": "477552931",
    "cct_url": null,
    "cat_vehicule_id": "4",
    "cat_vehicule_libelle": "Camionnette",
    "cat_energie_id": "2",
    "cat_energie_libelle": "Diesel",
    "prix_visite": 85,
    "date_application_visite": "2020-09-05",
    "prix_contre_visite_min": 15,
    "prix_contre_visite_max": 25,
    "date_application_contre_visite": "2020-09-05",
    "cct_siret": 52927506700013,
    "latitude": 45.536891,
    "longitude": 4.635155,
    "coordgeo": {
      "lon": 4.635155,
      "lat": 45.536891
    },
    "cct_statut": "actif"
  },
  {
    "cct_code_dept": "Loire",
    "code_postal": null,
    "cct_code_commune": "Saint-Étienne",
    "cct_denomination": "CONTROLE TECHNIQUE LA RIVIERE",
    "cct_adresse": "4 RUE DE DUNKERQUE",
    "cct_tel": "477592625",
    "cct_url": null,
    "cat_vehicule_id": "4",
    "cat_vehicule_libelle": "Camionnette",
    "cat_energie_id": "1",
    "cat_energie_libelle": "Essence",
    "prix_visite": 80,
    "date_application_visite": "2020-09-29",
    "prix_contre_visite_min": 10,
    "prix_contre_visite_max": 35,
    "date_application_contre_visite": "2020-09-29",
    "cct_siret": 82950464600011,
    "latitude": 45.415309,
    "longitude": 4.405081,
    "coordgeo": {
      "lon": 4.405081,
      "lat": 45.415309
    },
    "cct_statut": "actif"
  },
  {
    "cct_code_dept": "Loire",
    "code_postal": "42600",
    "cct_code_commune": "Montbrison",
    "cct_denomination": "CLEMENT AUTO CONTROLE",
    "cct_adresse": "1 RUE DE LAPLATTE",
    "cct_tel": "477961450",
    "cct_url": null,
    "cat_vehicule_id": "4",
    "cat_vehicule_libelle": "Camionnette",
    "cat_energie_id": "1",
    "cat_energie_libelle": "Essence",
    "prix_visite": 70,
    "date_application_visite": "2020-10-02",
    "prix_contre_visite_min": 10,
    "prix_contre_visite_max": 20,
    "date_application_contre_visite": "2020-10-02",
    "cct_siret": 48519136500025,
    "latitude": 45.597172,
    "longitude": 4.081415,
    "coordgeo": {
      "lon": 4.081415,
      "lat": 45.597172
    },
    "cct_statut": "actif"
  },
  {
    "cct_code_dept": "Loire",
    "code_postal": null,
    "cct_code_commune": "L'Horme",
    "cct_denomination": "CONTROLE TECHNIQUE AUTOMOBILE DU GIER",
    "cct_adresse": "63 AV PASTEUR",
    "cct_tel": "477225828",
    "cct_url": null,
    "cat_vehicule_id": "2",
    "cat_vehicule_libelle": "4 x 4",
    "cat_energie_id": "2",
    "cat_energie_libelle": "Diesel",
    "prix_visite": 80,
    "date_application_visite": "2020-12-07",
    "prix_contre_visite_min": 8,
    "prix_contre_visite_max": 30,
    "date_application_contre_visite": "2020-12-07",
    "cct_siret": 38428116800029,
    "latitude": 45.485068,
    "longitude": 4.53967,
    "coordgeo": {
      "lon": 4.53967,
      "lat": 45.485068
    },
    "cct_statut": "actif"
  },
  {
    "cct_code_dept": "Loire",
    "code_postal": null,
    "cct_code_commune": "Saint-Étienne",
    "cct_denomination": "AUTO CONTROLE DU PONT BLANC",
    "cct_adresse": "59 BD FAURIAT",
    "cct_tel": "477323028",
    "cct_url": "https://www.controle-technique-st-etienne.fr/",
    "cat_vehicule_id": "3",
    "cat_vehicule_libelle": "Voiture de collection",
    "cat_energie_id": "5",
    "cat_energie_libelle": "Electrique",
    "prix_visite": 86,
    "date_application_visite": "2020-10-26",
    "prix_contre_visite_min": 15,
    "prix_contre_visite_max": 39,
    "date_application_contre_visite": "2020-10-26",
    "cct_siret": 38815081500016,
    "latitude": 45.442764,
    "longitude": 4.40829,
    "coordgeo": {
      "lon": 4.40829,
      "lat": 45.442764
    },
    "cct_statut": "actif"
  },
  {
    "cct_code_dept": "Loire",
    "code_postal": null,
    "cct_code_commune": "Pouilly-sous-Charlieu",
    "cct_denomination": "C.T.A. FREDERIC DUZELET",
    "cct_adresse": "ZA LES BELUZES",
    "cct_tel": null,
    "cct_url": null,
    "cat_vehicule_id": "5",
    "cat_vehicule_libelle": "Camping-car (moins de 3,5 tonnes)",
    "cat_energie_id": "1",
    "cat_energie_libelle": "Essence",
    "prix_visite": 65,
    "date_application_visite": "2020-09-29",
    "prix_contre_visite_min": 12,
    "prix_contre_visite_max": 25,
    "date_application_contre_visite": "2020-09-29",
    "cct_siret": 41191972300022,
    "latitude": 46.137115,
    "longitude": 4.10673,
    "coordgeo": {
      "lon": 4.10673,
      "lat": 46.137115
    },
    "cct_statut": "actif"
  },
  {
    "cct_code_dept": "Loire",
    "code_postal": null,
    "cct_code_commune": "Pouilly-sous-Charlieu",
    "cct_denomination": "C.T.A. FREDERIC DUZELET",
    "cct_adresse": "ZA LES BELUZES",
    "cct_tel": null,
    "cct_url": null,
    "cat_vehicule_id": "1",
    "cat_vehicule_libelle": "Voiture Particulière",
    "cat_energie_id": "1",
    "cat_energie_libelle": "Essence",
    "prix_visite": 62,
    "date_application_visite": "2020-09-29",
    "prix_contre_visite_min": 12,
    "prix_contre_visite_max": 25,
    "date_application_contre_visite": "2020-09-29",
    "cct_siret": 41191972300022,
    "latitude": 46.137115,
    "longitude": 4.10673,
    "coordgeo": {
      "lon": 4.10673,
      "lat": 46.137115
    },
    "cct_statut": "actif"
  },
  {
    "cct_code_dept": "Loire",
    "code_postal": null,
    "cct_code_commune": "Saint-Étienne",
    "cct_denomination": "CONTROL'AUTO LA TERRASSE",
    "cct_adresse": "24 PL MASSENET",
    "cct_tel": "477925959",
    "cct_url": "https://controle-technique.autosur.fr/253-autosur-saint-etienne-bergson-la-terrasse",
    "cat_vehicule_id": "1",
    "cat_vehicule_libelle": "Voiture Particulière",
    "cat_energie_id": "3",
    "cat_energie_libelle": "Gaz",
    "prix_visite": 92,
    "date_application_visite": "2021-07-02",
    "prix_contre_visite_min": 10,
    "prix_contre_visite_max": 92,
    "date_application_contre_visite": "2021-07-02",
    "cct_siret": 38499412500019,
    "latitude": 45.467308,
    "longitude": 4.378385,
    "coordgeo": {
      "lon": 4.378385,
      "lat": 45.467308
    },
    "cct_statut": "actif"
  },
  {
    "cct_code_dept": "Loire",
    "code_postal": null,
    "cct_code_commune": "Saint-Étienne",
    "cct_denomination": "TUV DCTA SAS",
    "cct_adresse": "8 RUE GUSTAVE DELORY",
    "cct_tel": "477926990",
    "cct_url": "www.tuv-saintetiennemontreynaud.com",
    "cat_vehicule_id": "3",
    "cat_vehicule_libelle": "Voiture de collection",
    "cat_energie_id": "4",
    "cat_energie_libelle": "Hybride",
    "prix_visite": 90,
    "date_application_visite": "2020-09-01",
    "prix_contre_visite_min": 15,
    "prix_contre_visite_max": 45,
    "date_application_contre_visite": "2023-01-03",
    "cct_siret": 41465271900132,
    "latitude": 45.461213,
    "longitude": 4.404602,
    "coordgeo": {
      "lon": 4.404602,
      "lat": 45.461213
    },
    "cct_statut": "actif"
  },
  {
    "cct_code_dept": "Loire",
    "code_postal": null,
    "cct_code_commune": "Saint-Étienne",
    "cct_denomination": "TUV DCTA SAS",
    "cct_adresse": "44 RUE ROBESPIERRE",
    "cct_tel": "477926990",
    "cct_url": "tuv-saintetiennebellevue.com",
    "cat_vehicule_id": "4",
    "cat_vehicule_libelle": "Camionnette",
    "cat_energie_id": "4",
    "cat_energie_libelle": "Hybride",
    "prix_visite": 99,
    "date_application_visite": "2022-01-03",
    "prix_contre_visite_min": 15,
    "prix_contre_visite_max": 30,
    "date_application_contre_visite": "2020-09-01",
    "cct_siret": 41465271900124,
    "latitude": 45.412413,
    "longitude": 4.396861,
    "coordgeo": {
      "lon": 4.396861,
      "lat": 45.412413
    },
    "cct_statut": "actif"
  },
  {
    "cct_code_dept": "Loire",
    "code_postal": null,
    "cct_code_commune": "Saint-Étienne",
    "cct_denomination": "TUV DCTA SAS",
    "cct_adresse": "44 RUE ROBESPIERRE",
    "cct_tel": "477926990",
    "cct_url": "tuv-saintetiennebellevue.com",
    "cat_vehicule_id": "1",
    "cat_vehicule_libelle": "Voiture Particulière",
    "cat_energie_id": "2",
    "cat_energie_libelle": "Diesel",
    "prix_visite": 74,
    "date_application_visite": "2022-01-03",
    "prix_contre_visite_min": 15,
    "prix_contre_visite_max": 25,
    "date_application_contre_visite": "2020-09-01",
    "cct_siret": 41465271900124,
    "latitude": 45.412413,
    "longitude": 4.396861,
    "coordgeo": {
      "lon": 4.396861,
      "lat": 45.412413
    },
    "cct_statut": "actif"
  },
  {
    "cct_code_dept": "Loire",
    "code_postal": null,
    "cct_code_commune": "Saint-Étienne",
    "cct_denomination": "TUV DCTA SAS",
    "cct_adresse": "44 RUE ROBESPIERRE",
    "cct_tel": "477926990",
    "cct_url": "tuv-saintetiennebellevue.com",
    "cat_vehicule_id": "1",
    "cat_vehicule_libelle": "Voiture Particulière",
    "cat_energie_id": "4",
    "cat_energie_libelle": "Hybride",
    "prix_visite": 99,
    "date_application_visite": "2022-01-03",
    "prix_contre_visite_min": 15,
    "prix_contre_visite_max": 30,
    "date_application_contre_visite": "2020-09-01",
    "cct_siret": 41465271900124,
    "latitude": 45.412413,
    "longitude": 4.396861,
    "coordgeo": {
      "lon": 4.396861,
      "lat": 45.412413
    },
    "cct_statut": "actif"
  },
  {
    "cct_code_dept": "Loire",
    "code_postal": null,
    "cct_code_commune": "Saint-Étienne",
    "cct_denomination": "TUV DCTA SAS",
    "cct_adresse": "44 RUE ROBESPIERRE",
    "cct_tel": "477926990",
    "cct_url": "tuv-saintetiennebellevue.com",
    "cat_vehicule_id": "3",
    "cat_vehicule_libelle": "Voiture de collection",
    "cat_energie_id": "4",
    "cat_energie_libelle": "Hybride",
    "prix_visite": 99,
    "date_application_visite": "2022-01-03",
    "prix_contre_visite_min": 15,
    "prix_contre_visite_max": 25,
    "date_application_contre_visite": "2020-09-01",
    "cct_siret": 41465271900124,
    "latitude": 45.412413,
    "longitude": 4.396861,
    "coordgeo": {
      "lon": 4.396861,
      "lat": 45.412413
    },
    "cct_statut": "actif"
  },
  {
    "cct_code_dept": "Loire",
    "code_postal": "42160",
    "cct_code_commune": "Bonson",
    "cct_denomination": "AUTO CONTROLE BONSONNAIS",
    "cct_adresse": "2 AV DE SAINT RAMBERT",
    "cct_tel": "477550955",
    "cct_url": null,
    "cat_vehicule_id": "5",
    "cat_vehicule_libelle": "Camping-car (moins de 3,5 tonnes)",
    "cat_energie_id": "3",
    "cat_energie_libelle": "Gaz",
    "prix_visite": 91,
    "date_application_visite": "2023-01-01",
    "prix_contre_visite_min": 20,
    "prix_contre_visite_max": 30,
    "date_application_contre_visite": "2023-01-01",
    "cct_siret": 52862094100013,
    "latitude": 45.521984,
    "longitude": 4.215328,
    "coordgeo": {
      "lon": 4.215328,
      "lat": 45.521984
    },
    "cct_statut": "actif"
  },
  {
    "cct_code_dept": "Loire",
    "code_postal": "42160",
    "cct_code_commune": "Bonson",
    "cct_denomination": "AUTO CONTROLE BONSONNAIS",
    "cct_adresse": "2 AV DE SAINT RAMBERT",
    "cct_tel": "477550955",
    "cct_url": null,
    "cat_vehicule_id": "1",
    "cat_vehicule_libelle": "Voiture Particulière",
    "cat_energie_id": "4",
    "cat_energie_libelle": "Hybride",
    "prix_visite": 69,
    "date_application_visite": "2020-09-15",
    "prix_contre_visite_min": 15,
    "prix_contre_visite_max": 20,
    "date_application_contre_visite": "2020-09-15",
    "cct_siret": 52862094100013,
    "latitude": 45.521984,
    "longitude": 4.215328,
    "coordgeo": {
      "lon": 4.215328,
      "lat": 45.521984
    },
    "cct_statut": "actif"
  },
  {
    "cct_code_dept": "Loire",
    "code_postal": null,
    "cct_code_commune": "Saint-Just-la-Pendue",
    "cct_denomination": "CTA NICOLAS COQUARD",
    "cct_adresse": "AV DU 8 MAI",
    "cct_tel": "477637816",
    "cct_url": null,
    "cat_vehicule_id": "3",
    "cat_vehicule_libelle": "Voiture de collection",
    "cat_energie_id": "4",
    "cat_energie_libelle": "Hybride",
    "prix_visite": 69,
    "date_application_visite": "2020-01-01",
    "prix_contre_visite_min": 15,
    "prix_contre_visite_max": 20,
    "date_application_contre_visite": "2020-01-01",
    "cct_siret": 53126078400016,
    "latitude": 45.891939,
    "longitude": 4.236426,
    "coordgeo": {
      "lon": 4.236426,
      "lat": 45.891939
    },
    "cct_statut": "actif"
  },
  {
    "cct_code_dept": "Loire",
    "code_postal": "42600",
    "cct_code_commune": "Savigneux",
    "cct_denomination": "AUTO CONTROLE TECHNIQUE MONTBRISON",
    "cct_adresse": "AV CHARLES DE GAULLE",
    "cct_tel": "477580203",
    "cct_url": null,
    "cat_vehicule_id": "2",
    "cat_vehicule_libelle": "4 x 4",
    "cat_energie_id": "3",
    "cat_energie_libelle": "Gaz",
    "prix_visite": 92,
    "date_application_visite": "2020-10-09",
    "prix_contre_visite_min": 92,
    "prix_contre_visite_max": 92,
    "date_application_contre_visite": "2020-10-09",
    "cct_siret": 79148519600012,
    "latitude": 45.610716,
    "longitude": 4.067624,
    "coordgeo": {
      "lon": 4.067624,
      "lat": 45.610716
    },
    "cct_statut": "actif"
  },
  {
    "cct_code_dept": "Loire",
    "code_postal": "01480",
    "cct_code_commune": "Savigneux",
    "cct_denomination": "AUTO CONTROLE TECHNIQUE MONTBRISON",
    "cct_adresse": "AV CHARLES DE GAULLE",
    "cct_tel": "477580203",
    "cct_url": null,
    "cat_vehicule_id": "4",
    "cat_vehicule_libelle": "Camionnette",
    "cat_energie_id": "3",
    "cat_energie_libelle": "Gaz",
    "prix_visite": 92,
    "date_application_visite": "2020-10-09",
    "prix_contre_visite_min": 5,
    "prix_contre_visite_max": 20,
    "date_application_contre_visite": "2020-10-09",
    "cct_siret": 79148519600012,
    "latitude": 45.610716,
    "longitude": 4.067624,
    "coordgeo": {
      "lon": 4.067624,
      "lat": 45.610716
    },
    "cct_statut": "actif"
  },
  {
    "cct_code_dept": "Loire",
    "code_postal": "01480",
    "cct_code_commune": "Savigneux",
    "cct_denomination": "AUTO CONTROLE TECHNIQUE MONTBRISON",
    "cct_adresse": "AV CHARLES DE GAULLE",
    "cct_tel": "477580203",
    "cct_url": null,
    "cat_vehicule_id": "5",
    "cat_vehicule_libelle": "Camping-car (moins de 3,5 tonnes)",
    "cat_energie_id": "1",
    "cat_energie_libelle": "Essence",
    "prix_visite": 80,
    "date_application_visite": "2020-10-09",
    "prix_contre_visite_min": 80,
    "prix_contre_visite_max": 80,
    "date_application_contre_visite": "2020-10-09",
    "cct_siret": 79148519600012,
    "latitude": 45.610716,
    "longitude": 4.067624,
    "coordgeo": {
      "lon": 4.067624,
      "lat": 45.610716
    },
    "cct_statut": "actif"
  },
  {
    "cct_code_dept": "Loire",
    "code_postal": "42600",
    "cct_code_commune": "Savigneux",
    "cct_denomination": "AUTO CONTROLE TECHNIQUE MONTBRISON",
    "cct_adresse": "AV CHARLES DE GAULLE",
    "cct_tel": "477580203",
    "cct_url": null,
    "cat_vehicule_id": "5",
    "cat_vehicule_libelle": "Camping-car (moins de 3,5 tonnes)",
    "cat_energie_id": "1",
    "cat_energie_libelle": "Essence",
    "prix_visite": 80,
    "date_application_visite": "2020-10-09",
    "prix_contre_visite_min": 80,
    "prix_contre_visite_max": 80,
    "date_application_contre_visite": "2020-10-09",
    "cct_siret": 79148519600012,
    "latitude": 45.610716,
    "longitude": 4.067624,
    "coordgeo": {
      "lon": 4.067624,
      "lat": 45.610716
    },
    "cct_statut": "actif"
  },
  {
    "cct_code_dept": "Loire",
    "code_postal": null,
    "cct_code_commune": "Montrond-les-Bains",
    "cct_denomination": "CONTROLE TECHNIQUE DE MONTROND",
    "cct_adresse": "280 RUE ADAMAS",
    "cct_tel": "477545353",
    "cct_url": null,
    "cat_vehicule_id": "1",
    "cat_vehicule_libelle": "Voiture Particulière",
    "cat_energie_id": "5",
    "cat_energie_libelle": "Electrique",
    "prix_visite": 75,
    "date_application_visite": "2020-09-01",
    "prix_contre_visite_min": 10,
    "prix_contre_visite_max": 40,
    "date_application_contre_visite": "2020-09-01",
    "cct_siret": 81425495900012,
    "latitude": 45.651758,
    "longitude": 4.229863,
    "coordgeo": {
      "lon": 4.229863,
      "lat": 45.651758
    },
    "cct_statut": "actif"
  },
  {
    "cct_code_dept": "Loire",
    "code_postal": "42600",
    "cct_code_commune": "Savigneux",
    "cct_denomination": "GROUPEMENT DES PROFESSIONNELS DE L'AUTOMOBILE DU FOREZ",
    "cct_adresse": "RTE DE LYON",
    "cct_tel": "477585455",
    "cct_url": "https://controle-technique-savigneux.securitest.fr/",
    "cat_vehicule_id": "5",
    "cat_vehicule_libelle": "Camping-car (moins de 3,5 tonnes)",
    "cat_energie_id": "4",
    "cat_energie_libelle": "Hybride",
    "prix_visite": 79,
    "date_application_visite": "2020-09-29",
    "prix_contre_visite_min": 0,
    "prix_contre_visite_max": 65,
    "date_application_contre_visite": "2020-09-29",
    "cct_siret": 33398555400026,
    "latitude": 45.606305,
    "longitude": 4.077297,
    "coordgeo": {
      "lon": 4.077297,
      "lat": 45.606305
    },
    "cct_statut": "actif"
  },
  {
    "cct_code_dept": "Loire",
    "code_postal": null,
    "cct_code_commune": "Boën-sur-Lignon",
    "cct_denomination": "CENTRE DE CONTROLE AUTOMOBILE DE BOEN",
    "cct_adresse": "ZI DE GIRAUD",
    "cct_tel": "477240135",
    "cct_url": "https://controle-technique-boen.securitest.fr/",
    "cat_vehicule_id": "5",
    "cat_vehicule_libelle": "Camping-car (moins de 3,5 tonnes)",
    "cat_energie_id": "1",
    "cat_energie_libelle": "Essence",
    "prix_visite": 64,
    "date_application_visite": "2020-09-01",
    "prix_contre_visite_min": 0,
    "prix_contre_visite_max": 15,
    "date_application_contre_visite": "2020-09-01",
    "cct_siret": 38432441400018,
    "latitude": 45.737657,
    "longitude": 4.010057,
    "coordgeo": {
      "lon": 4.010057,
      "lat": 45.737657
    },
    "cct_statut": "actif"
  },
  {
    "cct_code_dept": "Loire",
    "code_postal": null,
    "cct_code_commune": "Boën-sur-Lignon",
    "cct_denomination": "CENTRE DE CONTROLE AUTOMOBILE DE BOEN",
    "cct_adresse": "ZI DE GIRAUD",
    "cct_tel": "477240135",
    "cct_url": "https://controle-technique-boen.securitest.fr/",
    "cat_vehicule_id": "1",
    "cat_vehicule_libelle": "Voiture Particulière",
    "cat_energie_id": "4",
    "cat_energie_libelle": "Hybride",
    "prix_visite": 65,
    "date_application_visite": "2020-09-01",
    "prix_contre_visite_min": 0,
    "prix_contre_visite_max": 15,
    "date_application_contre_visite": "2020-09-01",
    "cct_siret": 38432441400018,
    "latitude": 45.737657,
    "longitude": 4.010057,
    "coordgeo": {
      "lon": 4.010057,
      "lat": 45.737657
    },
    "cct_statut": "actif"
  },
  {
    "cct_code_dept": "Loire",
    "code_postal": "42420",
    "cct_code_commune": "Lorette",
    "cct_denomination": "CENTRE LORETTOIS DE CONTROLE TECHNIQUE",
    "cct_adresse": "3  PLAINE DE GREZIEUX",
    "cct_tel": "477839631",
    "cct_url": null,
    "cat_vehicule_id": "4",
    "cat_vehicule_libelle": "Camionnette",
    "cat_energie_id": "3",
    "cat_energie_libelle": "Gaz",
    "prix_visite": 75,
    "date_application_visite": "2020-09-03",
    "prix_contre_visite_min": 5,
    "prix_contre_visite_max": 24,
    "date_application_contre_visite": "2020-09-03",
    "cct_siret": 38904120300016,
    "latitude": 45.518197,
    "longitude": 4.593717,
    "coordgeo": {
      "lon": 4.593717,
      "lat": 45.518197
    },
    "cct_statut": "actif"
  },
  {
    "cct_code_dept": "Loire",
    "code_postal": "42380",
    "cct_code_commune": "La Tourette",
    "cct_denomination": "PICARD EMMANUEL",
    "cct_adresse": "VAUX",
    "cct_tel": "477507660",
    "cct_url": null,
    "cat_vehicule_id": "5",
    "cat_vehicule_libelle": "Camping-car (moins de 3,5 tonnes)",
    "cat_energie_id": "3",
    "cat_energie_libelle": "Gaz",
    "prix_visite": 92,
    "date_application_visite": "2020-10-08",
    "prix_contre_visite_min": 12,
    "prix_contre_visite_max": 40,
    "date_application_contre_visite": "2020-10-08",
    "cct_siret": 43532801800039,
    "latitude": 45.432412,
    "longitude": 4.072896,
    "coordgeo": {
      "lon": 4.072896,
      "lat": 45.432412
    },
    "cct_statut": "actif"
  },
  {
    "cct_code_dept": "Loire",
    "code_postal": "42120",
    "cct_code_commune": "Le Coteau",
    "cct_denomination": "CTLC",
    "cct_adresse": "27 BD CHARLES DE GAULLE",
    "cct_tel": "477626522",
    "cct_url": null,
    "cat_vehicule_id": "2",
    "cat_vehicule_libelle": "4 x 4",
    "cat_energie_id": "4",
    "cat_energie_libelle": "Hybride",
    "prix_visite": 68,
    "date_application_visite": "2020-08-31",
    "prix_contre_visite_min": 20,
    "prix_contre_visite_max": 30,
    "date_application_contre_visite": "2020-08-31",
    "cct_siret": 51499655200014,
    "latitude": 46.016203,
    "longitude": 4.096338,
    "coordgeo": {
      "lon": 4.096338,
      "lat": 46.016203
    },
    "cct_statut": "actif"
  },
  {
    "cct_code_dept": "Loire",
    "code_postal": "42510",
    "cct_code_commune": "Balbigny",
    "cct_denomination": "CENTRE DE CONTROLE AUTOMOBILE DE BOEN",
    "cct_adresse": "ZAC DE CHANLAT",
    "cct_tel": "477261051",
    "cct_url": "https://controle-technique-balbigny.securitest.fr",
    "cat_vehicule_id": "5",
    "cat_vehicule_libelle": "Camping-car (moins de 3,5 tonnes)",
    "cat_energie_id": "3",
    "cat_energie_libelle": "Gaz",
    "prix_visite": 75,
    "date_application_visite": "2020-09-13",
    "prix_contre_visite_min": 25,
    "prix_contre_visite_max": 45,
    "date_application_contre_visite": "2020-09-13",
    "cct_siret": 38432441400026,
    "latitude": 45.825848,
    "longitude": 4.17758,
    "coordgeo": {
      "lon": 4.17758,
      "lat": 45.825848
    },
    "cct_statut": "actif"
  },
  {
    "cct_code_dept": "Loire",
    "code_postal": "42510",
    "cct_code_commune": "Balbigny",
    "cct_denomination": "CENTRE DE CONTROLE AUTOMOBILE DE BOEN",
    "cct_adresse": "ZAC DE CHANLAT",
    "cct_tel": "477261051",
    "cct_url": "https://controle-technique-balbigny.securitest.fr",
    "cat_vehicule_id": "1",
    "cat_vehicule_libelle": "Voiture Particulière",
    "cat_energie_id": "3",
    "cat_energie_libelle": "Gaz",
    "prix_visite": 75,
    "date_application_visite": "2020-09-13",
    "prix_contre_visite_min": 25,
    "prix_contre_visite_max": 45,
    "date_application_contre_visite": "2020-09-13",
    "cct_siret": 38432441400026,
    "latitude": 45.825848,
    "longitude": 4.17758,
    "coordgeo": {
      "lon": 4.17758,
      "lat": 45.825848
    },
    "cct_statut": "actif"
  },
  {
    "cct_code_dept": "Loire",
    "code_postal": "42510",
    "cct_code_commune": "Balbigny",
    "cct_denomination": "CENTRE DE CONTROLE AUTOMOBILE DE BOEN",
    "cct_adresse": "ZAC DE CHANLAT",
    "cct_tel": "477261051",
    "cct_url": "https://controle-technique-balbigny.securitest.fr",
    "cat_vehicule_id": "3",
    "cat_vehicule_libelle": "Voiture de collection",
    "cat_energie_id": "4",
    "cat_energie_libelle": "Hybride",
    "prix_visite": 69,
    "date_application_visite": "2020-09-13",
    "prix_contre_visite_min": 0,
    "prix_contre_visite_max": 15,
    "date_application_contre_visite": "2020-09-13",
    "cct_siret": 38432441400026,
    "latitude": 45.825848,
    "longitude": 4.17758,
    "coordgeo": {
      "lon": 4.17758,
      "lat": 45.825848
    },
    "cct_statut": "actif"
  },
  {
    "cct_code_dept": "Loire",
    "code_postal": null,
    "cct_code_commune": "Saint-Étienne",
    "cct_denomination": "SLAOUI CONTROLE",
    "cct_adresse": "37 RUE DENIS EPITALON",
    "cct_tel": "477417660",
    "cct_url": "www.controle-technique-st-etienne.verifautos.fr",
    "cat_vehicule_id": "1",
    "cat_vehicule_libelle": "Voiture Particulière",
    "cat_energie_id": "1",
    "cat_energie_libelle": "Essence",
    "prix_visite": 75,
    "date_application_visite": "2021-11-22",
    "prix_contre_visite_min": 15,
    "prix_contre_visite_max": 25,
    "date_application_contre_visite": "2021-11-22",
    "cct_siret": 53482556700017,
    "latitude": 45.429246,
    "longitude": 4.380421,
    "coordgeo": {
      "lon": 4.380421,
      "lat": 45.429246
    },
    "cct_statut": "actif"
  },
  {
    "cct_code_dept": "Loire",
    "code_postal": null,
    "cct_code_commune": "Saint-Étienne",
    "cct_denomination": "BC AUTO CONTROLE",
    "cct_adresse": "2 BD DE L ETIVALLIERE",
    "cct_tel": "477932559",
    "cct_url": null,
    "cat_vehicule_id": "3",
    "cat_vehicule_libelle": "Voiture de collection",
    "cat_energie_id": "5",
    "cat_energie_libelle": "Electrique",
    "prix_visite": 70,
    "date_application_visite": "2020-09-15",
    "prix_contre_visite_min": 10,
    "prix_contre_visite_max": 25,
    "date_application_contre_visite": "2018-05-20",
    "cct_siret": 80125079600035,
    "latitude": 45.460222,
    "longitude": 4.39693,
    "coordgeo": {
      "lon": 4.39693,
      "lat": 45.460222
    },
    "cct_statut": "actif"
  },
  {
    "cct_code_dept": "Loire",
    "code_postal": "42153",
    "cct_code_commune": "Riorges",
    "cct_denomination": "ACTIV CONTROLE",
    "cct_adresse": "274 AV GALLIENI",
    "cct_tel": "477782903",
    "cct_url": "www.controle-technique-riorges.verifautos.fr",
    "cat_vehicule_id": "3",
    "cat_vehicule_libelle": "Voiture de collection",
    "cat_energie_id": "5",
    "cat_energie_libelle": "Electrique",
    "prix_visite": 75,
    "date_application_visite": "2020-09-04",
    "prix_contre_visite_min": 20,
    "prix_contre_visite_max": 30,
    "date_application_contre_visite": "2020-09-04",
    "cct_siret": 88247094100015,
    "latitude": 46.04484,
    "longitude": 4.055579,
    "coordgeo": {
      "lon": 4.055579,
      "lat": 46.04484
    },
    "cct_statut": "actif"
  },
  {
    "cct_code_dept": "Loire",
    "code_postal": "42153",
    "cct_code_commune": "Riorges",
    "cct_denomination": "ACTIV CONTROLE",
    "cct_adresse": "274 AV GALLIENI",
    "cct_tel": "477782903",
    "cct_url": "www.controle-technique-riorges.verifautos.fr",
    "cat_vehicule_id": "3",
    "cat_vehicule_libelle": "Voiture de collection",
    "cat_energie_id": "1",
    "cat_energie_libelle": "Essence",
    "prix_visite": 75,
    "date_application_visite": "2020-09-04",
    "prix_contre_visite_min": 20,
    "prix_contre_visite_max": 30,
    "date_application_contre_visite": "2020-09-04",
    "cct_siret": 88247094100015,
    "latitude": 46.04484,
    "longitude": 4.055579,
    "coordgeo": {
      "lon": 4.055579,
      "lat": 46.04484
    },
    "cct_statut": "actif"
  },
  {
    "cct_code_dept": "Loire",
    "code_postal": "42490",
    "cct_code_commune": "Fraisses",
    "cct_denomination": "CENTRE CONTROLE FRAISSES",
    "cct_adresse": "null",
    "cct_tel": "477554671",
    "cct_url": "https://centre-controle-technique.securitest.fr/auvergne-rhone-alpes/loire/fraisses/za-du-parc",
    "cat_vehicule_id": "4",
    "cat_vehicule_libelle": "Camionnette",
    "cat_energie_id": "2",
    "cat_energie_libelle": "Diesel",
    "prix_visite": 65,
    "date_application_visite": "2022-12-18",
    "prix_contre_visite_min": 10,
    "prix_contre_visite_max": 40,
    "date_application_contre_visite": "2022-12-18",
    "cct_siret": 52237317400013,
    "latitude": 45.386718,
    "longitude": 4.265154,
    "coordgeo": {
      "lon": 4.265154,
      "lat": 45.386718
    },
    "cct_statut": "actif"
  },
  {
    "cct_code_dept": "Loire",
    "code_postal": "42300",
    "cct_code_commune": "Roanne",
    "cct_denomination": "CONTROLE TECHNIQUE AUTO",
    "cct_adresse": "54 QUAI COMMANDANT LHERMINIER",
    "cct_tel": "477701208",
    "cct_url": "https://cta.controle-technique.com",
    "cat_vehicule_id": "1",
    "cat_vehicule_libelle": "Voiture Particulière",
    "cat_energie_id": "5",
    "cat_energie_libelle": "Electrique",
    "prix_visite": 90,
    "date_application_visite": "2020-10-09",
    "prix_contre_visite_min": 15,
    "prix_contre_visite_max": 20,
    "date_application_contre_visite": "2020-10-09",
    "cct_siret": 34065072000014,
    "latitude": 46.037703,
    "longitude": 4.080942,
    "coordgeo": {
      "lon": 4.080942,
      "lat": 46.037703
    },
    "cct_statut": "actif"
  },
  {
    "cct_code_dept": "Loire",
    "code_postal": "42370",
    "cct_code_commune": "Renaison",
    "cct_denomination": "CONTROLE TECHNIQUE AUTOMOBILE RENAISON",
    "cct_adresse": "29 RTE DE ST ROMAIN",
    "cct_tel": "477664966",
    "cct_url": "controle-technique-renaison.fr",
    "cat_vehicule_id": "1",
    "cat_vehicule_libelle": "Voiture Particulière",
    "cat_energie_id": "5",
    "cat_energie_libelle": "Electrique",
    "prix_visite": 68,
    "date_application_visite": "2020-09-10",
    "prix_contre_visite_min": 0,
    "prix_contre_visite_max": 32,
    "date_application_contre_visite": "2020-09-10",
    "cct_siret": 41449693500019,
    "latitude": 46.055089,
    "longitude": 3.932391,
    "coordgeo": {
      "lon": 3.932391,
      "lat": 46.055089
    },
    "cct_statut": "actif"
  },
  {
    "cct_code_dept": "Loire",
    "code_postal": "42120",
    "cct_code_commune": "Perreux",
    "cct_denomination": "TACTIL",
    "cct_adresse": "ZAC LES PLAINES",
    "cct_tel": "477620888",
    "cct_url": "https://perreux.controle-technique.com/",
    "cat_vehicule_id": "2",
    "cat_vehicule_libelle": "4 x 4",
    "cat_energie_id": "3",
    "cat_energie_libelle": "Gaz",
    "prix_visite": 90,
    "date_application_visite": "2021-01-13",
    "prix_contre_visite_min": 15,
    "prix_contre_visite_max": 20,
    "date_application_contre_visite": "2021-01-13",
    "cct_siret": 39222934000022,
    "latitude": 46.031871,
    "longitude": 4.098407,
    "coordgeo": {
      "lon": 4.098407,
      "lat": 46.031871
    },
    "cct_statut": "actif"
  },
  {
    "cct_code_dept": "Loire",
    "code_postal": "42120",
    "cct_code_commune": "Perreux",
    "cct_denomination": "TACTIL",
    "cct_adresse": "ZAC LES PLAINES",
    "cct_tel": "477620888",
    "cct_url": "https://perreux.controle-technique.com/",
    "cat_vehicule_id": "4",
    "cat_vehicule_libelle": "Camionnette",
    "cat_energie_id": "2",
    "cat_energie_libelle": "Diesel",
    "prix_visite": 65,
    "date_application_visite": "2021-01-13",
    "prix_contre_visite_min": 15,
    "prix_contre_visite_max": 20,
    "date_application_contre_visite": "2021-01-13",
    "cct_siret": 39222934000022,
    "latitude": 46.031871,
    "longitude": 4.098407,
    "coordgeo": {
      "lon": 4.098407,
      "lat": 46.031871
    },
    "cct_statut": "actif"
  },
  {
    "cct_code_dept": "Loire",
    "code_postal": null,
    "cct_code_commune": "Saint-Just-Saint-Rambert",
    "cct_denomination": "SARL VICTOIRE",
    "cct_adresse": "67 RUE SAINT NICOLAS",
    "cct_tel": "477369073",
    "cct_url": null,
    "cat_vehicule_id": "2",
    "cat_vehicule_libelle": "4 x 4",
    "cat_energie_id": "4",
    "cat_energie_libelle": "Hybride",
    "prix_visite": 75,
    "date_application_visite": "2022-10-01",
    "prix_contre_visite_min": 0,
    "prix_contre_visite_max": 0,
    "date_application_contre_visite": "2020-09-11",
    "cct_siret": 79314098900013,
    "latitude": 45.515338,
    "longitude": 4.264603,
    "coordgeo": {
      "lon": 4.264603,
      "lat": 45.515338
    },
    "cct_statut": "actif"
  },
  {
    "cct_code_dept": "Loire",
    "code_postal": null,
    "cct_code_commune": "Saint-Just-Saint-Rambert",
    "cct_denomination": "SARL VICTOIRE",
    "cct_adresse": "67 RUE SAINT NICOLAS",
    "cct_tel": "477369073",
    "cct_url": null,
    "cat_vehicule_id": "4",
    "cat_vehicule_libelle": "Camionnette",
    "cat_energie_id": "4",
    "cat_energie_libelle": "Hybride",
    "prix_visite": 77,
    "date_application_visite": "2022-10-01",
    "prix_contre_visite_min": 0,
    "prix_contre_visite_max": 40,
    "date_application_contre_visite": "2020-09-11",
    "cct_siret": 79314098900013,
    "latitude": 45.515338,
    "longitude": 4.264603,
    "coordgeo": {
      "lon": 4.264603,
      "lat": 45.515338
    },
    "cct_statut": "actif"
  },
  {
    "cct_code_dept": "Loire",
    "code_postal": null,
    "cct_code_commune": "Saint-Just-Saint-Rambert",
    "cct_denomination": "SARL VICTOIRE",
    "cct_adresse": "67 RUE SAINT NICOLAS",
    "cct_tel": "477369073",
    "cct_url": null,
    "cat_vehicule_id": "5",
    "cat_vehicule_libelle": "Camping-car (moins de 3,5 tonnes)",
    "cat_energie_id": "1",
    "cat_energie_libelle": "Essence",
    "prix_visite": 70,
    "date_application_visite": "2020-09-11",
    "prix_contre_visite_min": 0,
    "prix_contre_visite_max": 0,
    "date_application_contre_visite": "2020-09-11",
    "cct_siret": 79314098900013,
    "latitude": 45.515338,
    "longitude": 4.264603,
    "coordgeo": {
      "lon": 4.264603,
      "lat": 45.515338
    },
    "cct_statut": "actif"
  },
  {
    "cct_code_dept": "Loire",
    "code_postal": null,
    "cct_code_commune": "Saint-Just-Saint-Rambert",
    "cct_denomination": "SARL VICTOIRE",
    "cct_adresse": "67 RUE SAINT NICOLAS",
    "cct_tel": "477369073",
    "cct_url": null,
    "cat_vehicule_id": "3",
    "cat_vehicule_libelle": "Voiture de collection",
    "cat_energie_id": "4",
    "cat_energie_libelle": "Hybride",
    "prix_visite": 77,
    "date_application_visite": "2022-10-01",
    "prix_contre_visite_min": 0,
    "prix_contre_visite_max": 40,
    "date_application_contre_visite": "2020-09-11",
    "cct_siret": 79314098900013,
    "latitude": 45.515338,
    "longitude": 4.264603,
    "coordgeo": {
      "lon": 4.264603,
      "lat": 45.515338
    },
    "cct_statut": "actif"
  },
  {
    "cct_code_dept": "Loire",
    "code_postal": "42700",
    "cct_code_commune": "Firminy",
    "cct_denomination": "AUTOBILAN 42 / ETS CIZERON",
    "cct_adresse": "1 RUE DE L ONDAINE",
    "cct_tel": "477565970",
    "cct_url": "firminy.controle-technique.com",
    "cat_vehicule_id": "2",
    "cat_vehicule_libelle": "4 x 4",
    "cat_energie_id": "1",
    "cat_energie_libelle": "Essence",
    "prix_visite": 55,
    "date_application_visite": "2020-09-11",
    "prix_contre_visite_min": 0,
    "prix_contre_visite_max": 30,
    "date_application_contre_visite": "2020-09-11",
    "cct_siret": 79373333800016,
    "latitude": 45.396926,
    "longitude": 4.291801,
    "coordgeo": {
      "lon": 4.291801,
      "lat": 45.396926
    },
    "cct_statut": "actif"
  },
  {
    "cct_code_dept": "Loire",
    "code_postal": "42700",
    "cct_code_commune": "Firminy",
    "cct_denomination": "AUTOBILAN 42 / ETS CIZERON",
    "cct_adresse": "1 RUE DE L ONDAINE",
    "cct_tel": "477565970",
    "cct_url": "firminy.controle-technique.com",
    "cat_vehicule_id": "5",
    "cat_vehicule_libelle": "Camping-car (moins de 3,5 tonnes)",
    "cat_energie_id": "3",
    "cat_energie_libelle": "Gaz",
    "prix_visite": 55,
    "date_application_visite": "2020-09-11",
    "prix_contre_visite_min": 0,
    "prix_contre_visite_max": 30,
    "date_application_contre_visite": "2020-09-11",
    "cct_siret": 79373333800016,
    "latitude": 45.396926,
    "longitude": 4.291801,
    "coordgeo": {
      "lon": 4.291801,
      "lat": 45.396926
    },
    "cct_statut": "actif"
  },
  {
    "cct_code_dept": "Loire",
    "code_postal": "42700",
    "cct_code_commune": "Firminy",
    "cct_denomination": "AUTOBILAN 42 / ETS CIZERON",
    "cct_adresse": "1 RUE DE L ONDAINE",
    "cct_tel": "477565970",
    "cct_url": "firminy.controle-technique.com",
    "cat_vehicule_id": "1",
    "cat_vehicule_libelle": "Voiture Particulière",
    "cat_energie_id": "1",
    "cat_energie_libelle": "Essence",
    "prix_visite": 55,
    "date_application_visite": "2020-09-11",
    "prix_contre_visite_min": 0,
    "prix_contre_visite_max": 30,
    "date_application_contre_visite": "2020-09-11",
    "cct_siret": 79373333800016,
    "latitude": 45.396926,
    "longitude": 4.291801,
    "coordgeo": {
      "lon": 4.291801,
      "lat": 45.396926
    },
    "cct_statut": "actif"
  },
  {
    "cct_code_dept": "Loire",
    "code_postal": "42700",
    "cct_code_commune": "Firminy",
    "cct_denomination": "AUTOBILAN 42 / ETS CIZERON",
    "cct_adresse": "1 RUE DE L ONDAINE",
    "cct_tel": "477565970",
    "cct_url": "firminy.controle-technique.com",
    "cat_vehicule_id": "1",
    "cat_vehicule_libelle": "Voiture Particulière",
    "cat_energie_id": "4",
    "cat_energie_libelle": "Hybride",
    "prix_visite": 55,
    "date_application_visite": "2020-09-11",
    "prix_contre_visite_min": 0,
    "prix_contre_visite_max": 30,
    "date_application_contre_visite": "2020-09-11",
    "cct_siret": 79373333800016,
    "latitude": 45.396926,
    "longitude": 4.291801,
    "coordgeo": {
      "lon": 4.291801,
      "lat": 45.396926
    },
    "cct_statut": "actif"
  },
  {
    "cct_code_dept": "Loire",
    "code_postal": "42300",
    "cct_code_commune": "Roanne",
    "cct_denomination": "VERIFICA AUTO",
    "cct_adresse": "93 RUE DE CLERMONT",
    "cct_tel": "954304617",
    "cct_url": "www.verifica-auto.fr",
    "cat_vehicule_id": "4",
    "cat_vehicule_libelle": "Camionnette",
    "cat_energie_id": "2",
    "cat_energie_libelle": "Diesel",
    "prix_visite": 66,
    "date_application_visite": "2020-09-10",
    "prix_contre_visite_min": 15,
    "prix_contre_visite_max": 20,
    "date_application_contre_visite": "2020-09-10",
    "cct_siret": 87797740500019,
    "latitude": 46.027775,
    "longitude": 4.064272,
    "coordgeo": {
      "lon": 4.064272,
      "lat": 46.027775
    },
    "cct_statut": "actif"
  },
  {
    "cct_code_dept": "Loire",
    "code_postal": "42300",
    "cct_code_commune": "Roanne",
    "cct_denomination": "VERIFICA AUTO",
    "cct_adresse": "93 RUE DE CLERMONT",
    "cct_tel": "954304617",
    "cct_url": "www.verifica-auto.fr",
    "cat_vehicule_id": "3",
    "cat_vehicule_libelle": "Voiture de collection",
    "cat_energie_id": "1",
    "cat_energie_libelle": "Essence",
    "prix_visite": 66,
    "date_application_visite": "2020-09-10",
    "prix_contre_visite_min": 15,
    "prix_contre_visite_max": 25,
    "date_application_contre_visite": "2020-09-10",
    "cct_siret": 87797740500019,
    "latitude": 46.027775,
    "longitude": 4.064272,
    "coordgeo": {
      "lon": 4.064272,
      "lat": 46.027775
    },
    "cct_statut": "actif"
  },
  {
    "cct_code_dept": "Loire",
    "code_postal": "42490",
    "cct_code_commune": "Fraisses",
    "cct_denomination": "CONTROLE TECHNIQUE DU BOURG DE FRAISSES",
    "cct_adresse": "18 RUE DE LA GARE",
    "cct_tel": "477563423",
    "cct_url": "https://www.controletechniquedubourgdefraisses.fr/",
    "cat_vehicule_id": "5",
    "cat_vehicule_libelle": "Camping-car (moins de 3,5 tonnes)",
    "cat_energie_id": "2",
    "cat_energie_libelle": "Diesel",
    "prix_visite": 60,
    "date_application_visite": "2022-08-25",
    "prix_contre_visite_min": 12,
    "prix_contre_visite_max": 12,
    "date_application_contre_visite": "2022-08-25",
    "cct_siret": 49532969000012,
    "latitude": 45.39075,
    "longitude": 4.265482,
    "coordgeo": {
      "lon": 4.265482,
      "lat": 45.39075
    },
    "cct_statut": "actif"
  },
  {
    "cct_code_dept": "Loire",
    "code_postal": "42600",
    "cct_code_commune": "Montbrison",
    "cct_denomination": "COBEGO",
    "cct_adresse": "64 RUE DES VIGNES",
    "cct_tel": "477764182",
    "cct_url": "kugarauto.fr",
    "cat_vehicule_id": "1",
    "cat_vehicule_libelle": "Voiture Particulière",
    "cat_energie_id": "2",
    "cat_energie_libelle": "Diesel",
    "prix_visite": 75,
    "date_application_visite": "2022-11-21",
    "prix_contre_visite_min": 75,
    "prix_contre_visite_max": 75,
    "date_application_contre_visite": "2022-11-21",
    "cct_siret": 91943428200019,
    "latitude": 45.621498,
    "longitude": 4.062716,
    "coordgeo": {
      "lon": 4.062716,
      "lat": 45.621498
    },
    "cct_statut": "actif"
  },
  {
    "cct_code_dept": "Loire",
    "code_postal": "42190",
    "cct_code_commune": "Charlieu",
    "cct_denomination": "C.T.A. FREDERIC DUZELET",
    "cct_adresse": "33 RUE DORIAN",
    "cct_tel": null,
    "cct_url": null,
    "cat_vehicule_id": "3",
    "cat_vehicule_libelle": "Voiture de collection",
    "cat_energie_id": "5",
    "cat_energie_libelle": "Electrique",
    "prix_visite": 68,
    "date_application_visite": "2020-09-11",
    "prix_contre_visite_min": 12,
    "prix_contre_visite_max": 30,
    "date_application_contre_visite": "2020-09-11",
    "cct_siret": 41191972300030,
    "latitude": 46.1551,
    "longitude": 4.164123,
    "coordgeo": {
      "lon": 4.164123,
      "lat": 46.1551
    },
    "cct_statut": "actif"
  },
  {
    "cct_code_dept": "Loire",
    "code_postal": "42120",
    "cct_code_commune": "Le Coteau",
    "cct_denomination": "C.T.A. FREDERIC DUZELET",
    "cct_adresse": "5 BD CHARLES DE GAULLE",
    "cct_tel": null,
    "cct_url": null,
    "cat_vehicule_id": "2",
    "cat_vehicule_libelle": "4 x 4",
    "cat_energie_id": "1",
    "cat_energie_libelle": "Essence",
    "prix_visite": 68,
    "date_application_visite": "2020-09-11",
    "prix_contre_visite_min": 12,
    "prix_contre_visite_max": 25,
    "date_application_contre_visite": "2020-09-11",
    "cct_siret": 41191972300048,
    "latitude": 46.022226,
    "longitude": 4.096528,
    "coordgeo": {
      "lon": 4.096528,
      "lat": 46.022226
    },
    "cct_statut": "actif"
  },
  {
    "cct_code_dept": "Loire",
    "code_postal": "42120",
    "cct_code_commune": "Le Coteau",
    "cct_denomination": "C.T.A. FREDERIC DUZELET",
    "cct_adresse": "5 BD CHARLES DE GAULLE",
    "cct_tel": null,
    "cct_url": null,
    "cat_vehicule_id": "2",
    "cat_vehicule_libelle": "4 x 4",
    "cat_energie_id": "1",
    "cat_energie_libelle": "Essence",
    "prix_visite": 65,
    "date_application_visite": "2020-09-11",
    "prix_contre_visite_min": 12,
    "prix_contre_visite_max": 25,
    "date_application_contre_visite": "2020-09-11",
    "cct_siret": 41191972300048,
    "latitude": 46.022226,
    "longitude": 4.096528,
    "coordgeo": {
      "lon": 4.096528,
      "lat": 46.022226
    },
    "cct_statut": "actif"
  },
  {
    "cct_code_dept": "Loire",
    "code_postal": "42120",
    "cct_code_commune": "Le Coteau",
    "cct_denomination": "C.T.A. FREDERIC DUZELET",
    "cct_adresse": "5 BD CHARLES DE GAULLE",
    "cct_tel": null,
    "cct_url": null,
    "cat_vehicule_id": "5",
    "cat_vehicule_libelle": "Camping-car (moins de 3,5 tonnes)",
    "cat_energie_id": "3",
    "cat_energie_libelle": "Gaz",
    "prix_visite": 90,
    "date_application_visite": "2020-09-11",
    "prix_contre_visite_min": 12,
    "prix_contre_visite_max": 30,
    "date_application_contre_visite": "2020-09-11",
    "cct_siret": 41191972300048,
    "latitude": 46.022226,
    "longitude": 4.096528,
    "coordgeo": {
      "lon": 4.096528,
      "lat": 46.022226
    },
    "cct_statut": "actif"
  },
  {
    "cct_code_dept": "Loire",
    "code_postal": "42120",
    "cct_code_commune": "Le Coteau",
    "cct_denomination": "C.T.A. FREDERIC DUZELET",
    "cct_adresse": "5 BD CHARLES DE GAULLE",
    "cct_tel": null,
    "cct_url": null,
    "cat_vehicule_id": "3",
    "cat_vehicule_libelle": "Voiture de collection",
    "cat_energie_id": "3",
    "cat_energie_libelle": "Gaz",
    "prix_visite": 90,
    "date_application_visite": "2020-09-11",
    "prix_contre_visite_min": 12,
    "prix_contre_visite_max": 30,
    "date_application_contre_visite": "2020-09-11",
    "cct_siret": 41191972300048,
    "latitude": 46.022226,
    "longitude": 4.096528,
    "coordgeo": {
      "lon": 4.096528,
      "lat": 46.022226
    },
    "cct_statut": "actif"
  },
  {
    "cct_code_dept": "Loire",
    "code_postal": "42153",
    "cct_code_commune": "Riorges",
    "cct_denomination": "CADOT CONTROL'AUTO",
    "cct_adresse": "249 RUE MICHEL RONDET",
    "cct_tel": "477780437",
    "cct_url": null,
    "cat_vehicule_id": "1",
    "cat_vehicule_libelle": "Voiture Particulière",
    "cat_energie_id": "1",
    "cat_energie_libelle": "Essence",
    "prix_visite": 59,
    "date_application_visite": "2020-09-04",
    "prix_contre_visite_min": 10,
    "prix_contre_visite_max": 20,
    "date_application_contre_visite": "2020-09-04",
    "cct_siret": 50511888500027,
    "latitude": 46.056316,
    "longitude": 4.044618,
    "coordgeo": {
      "lon": 4.044618,
      "lat": 46.056316
    },
    "cct_statut": "actif"
  },
  {
    "cct_code_dept": "Loire",
    "code_postal": null,
    "cct_code_commune": "La Grand-Croix",
    "cct_denomination": "STEF AUTO CONTROLE",
    "cct_adresse": "6 RUE LOUIS PASTEUR",
    "cct_tel": "619812461",
    "cct_url": "https://controle-technique.autosur.fr/271-autosur-grand-croix",
    "cat_vehicule_id": "4",
    "cat_vehicule_libelle": "Camionnette",
    "cat_energie_id": "3",
    "cat_energie_libelle": "Gaz",
    "prix_visite": 90,
    "date_application_visite": "2021-04-12",
    "prix_contre_visite_min": 10,
    "prix_contre_visite_max": 50,
    "date_application_contre_visite": "2020-09-10",
    "cct_siret": 81805203700012,
    "latitude": 45.50143,
    "longitude": 4.567259,
    "coordgeo": {
      "lon": 4.567259,
      "lat": 45.50143
    },
    "cct_statut": "actif"
  },
  {
    "cct_code_dept": "Loire",
    "code_postal": null,
    "cct_code_commune": "Saint-Hilaire-sous-Charlieu",
    "cct_denomination": "AUTO CONTROLE SOUTRENON",
    "cct_adresse": "LE POTEAU",
    "cct_tel": "477600012",
    "cct_url": null,
    "cat_vehicule_id": "3",
    "cat_vehicule_libelle": "Voiture de collection",
    "cat_energie_id": "2",
    "cat_energie_libelle": "Diesel",
    "prix_visite": 68,
    "date_application_visite": "2020-10-09",
    "prix_contre_visite_min": 10,
    "prix_contre_visite_max": 25,
    "date_application_contre_visite": "2020-10-09",
    "cct_siret": 78903460000013,
    "latitude": 46.113238,
    "longitude": 4.196777,
    "coordgeo": {
      "lon": 4.196777,
      "lat": 46.113238
    },
    "cct_statut": "actif"
  },
  {
    "cct_code_dept": "Loire",
    "code_postal": null,
    "cct_code_commune": "Saint-Étienne",
    "cct_denomination": "AUTO CONTROLE LOIRE",
    "cct_adresse": "10 RUE DES FRERES CHAPPE",
    "cct_tel": "477479373",
    "cct_url": "www.acl.securitest.fr",
    "cat_vehicule_id": "2",
    "cat_vehicule_libelle": "4 x 4",
    "cat_energie_id": "4",
    "cat_energie_libelle": "Hybride",
    "prix_visite": 81,
    "date_application_visite": "2020-09-01",
    "prix_contre_visite_min": 30,
    "prix_contre_visite_max": 30,
    "date_application_contre_visite": "2020-09-01",
    "cct_siret": 53180857400010,
    "latitude": 45.439749,
    "longitude": 4.392058,
    "coordgeo": {
      "lon": 4.392058,
      "lat": 45.439749
    },
    "cct_statut": "actif"
  },
  {
    "cct_code_dept": "Loire",
    "code_postal": null,
    "cct_code_commune": "Saint-Étienne",
    "cct_denomination": "AUTO CONTROLE LOIRE",
    "cct_adresse": "10 RUE DES FRERES CHAPPE",
    "cct_tel": "477479373",
    "cct_url": "www.acl.securitest.fr",
    "cat_vehicule_id": "4",
    "cat_vehicule_libelle": "Camionnette",
    "cat_energie_id": "4",
    "cat_energie_libelle": "Hybride",
    "prix_visite": 81,
    "date_application_visite": "2020-09-01",
    "prix_contre_visite_min": 30,
    "prix_contre_visite_max": 30,
    "date_application_contre_visite": "2020-09-01",
    "cct_siret": 53180857400010,
    "latitude": 45.439749,
    "longitude": 4.392058,
    "coordgeo": {
      "lon": 4.392058,
      "lat": 45.439749
    },
    "cct_statut": "actif"
  },
  {
    "cct_code_dept": "Loire",
    "code_postal": null,
    "cct_code_commune": "Saint-Romain-le-Puy",
    "cct_denomination": "CENTRE DE CONTROLE TECHNIQUE MONBRISONNAIS",
    "cct_adresse": "Z A DE CHEZIEUX",
    "cct_tel": "620803435",
    "cct_url": "https://www.controleautomobilemontbrisonnais.com/",
    "cat_vehicule_id": "4",
    "cat_vehicule_libelle": "Camionnette",
    "cat_energie_id": "1",
    "cat_energie_libelle": "Essence",
    "prix_visite": 65,
    "date_application_visite": "2020-10-10",
    "prix_contre_visite_min": 5,
    "prix_contre_visite_max": 10,
    "date_application_contre_visite": "2020-10-10",
    "cct_siret": 52314294100013,
    "latitude": 45.575321,
    "longitude": 4.105323,
    "coordgeo": {
      "lon": 4.105323,
      "lat": 45.575321
    },
    "cct_statut": "actif"
  },
  {
    "cct_code_dept": "Loire",
    "code_postal": null,
    "cct_code_commune": "Saint-Romain-le-Puy",
    "cct_denomination": "CENTRE DE CONTROLE TECHNIQUE MONBRISONNAIS",
    "cct_adresse": "Z A DE CHEZIEUX",
    "cct_tel": "620803435",
    "cct_url": "https://www.controleautomobilemontbrisonnais.com/",
    "cat_vehicule_id": "5",
    "cat_vehicule_libelle": "Camping-car (moins de 3,5 tonnes)",
    "cat_energie_id": "2",
    "cat_energie_libelle": "Diesel",
    "prix_visite": 70,
    "date_application_visite": "2022-01-08",
    "prix_contre_visite_min": 10,
    "prix_contre_visite_max": 30,
    "date_application_contre_visite": "2022-01-08",
    "cct_siret": 52314294100013,
    "latitude": 45.575321,
    "longitude": 4.105323,
    "coordgeo": {
      "lon": 4.105323,
      "lat": 45.575321
    },
    "cct_statut": "actif"
  },
  {
    "cct_code_dept": "Loire",
    "code_postal": null,
    "cct_code_commune": "Saint-Genest-Lerpt",
    "cct_denomination": "AUTO CONTROLE SAINT GENEST",
    "cct_adresse": "ZA DU PUITS DU CRET",
    "cct_tel": "477901426",
    "cct_url": "autocontrolesgl.fr",
    "cat_vehicule_id": "5",
    "cat_vehicule_libelle": "Camping-car (moins de 3,5 tonnes)",
    "cat_energie_id": "3",
    "cat_energie_libelle": "Gaz",
    "prix_visite": 60,
    "date_application_visite": "2020-09-12",
    "prix_contre_visite_min": 10,
    "prix_contre_visite_max": 30,
    "date_application_contre_visite": "2020-09-12",
    "cct_siret": 79791359700010,
    "latitude": 45.442854,
    "longitude": 4.338611,
    "coordgeo": {
      "lon": 4.338611,
      "lat": 45.442854
    },
    "cct_statut": "actif"
  },
  {
    "cct_code_dept": "Loire",
    "code_postal": null,
    "cct_code_commune": "Saint-Genest-Lerpt",
    "cct_denomination": "AUTO CONTROLE SAINT GENEST",
    "cct_adresse": "ZA DU PUITS DU CRET",
    "cct_tel": "477901426",
    "cct_url": "autocontrolesgl.fr",
    "cat_vehicule_id": "5",
    "cat_vehicule_libelle": "Camping-car (moins de 3,5 tonnes)",
    "cat_energie_id": "4",
    "cat_energie_libelle": "Hybride",
    "prix_visite": 70,
    "date_application_visite": "2020-09-12",
    "prix_contre_visite_min": 10,
    "prix_contre_visite_max": 30,
    "date_application_contre_visite": "2020-09-12",
    "cct_siret": 79791359700010,
    "latitude": 45.442854,
    "longitude": 4.338611,
    "coordgeo": {
      "lon": 4.338611,
      "lat": 45.442854
    },
    "cct_statut": "actif"
  },
  {
    "cct_code_dept": "Loire",
    "code_postal": null,
    "cct_code_commune": "Chazelles-sur-Lyon",
    "cct_denomination": "ACT CHAZELLOIS",
    "cct_adresse": "5 IMP CLAUDE BROSSE",
    "cct_tel": "477545756",
    "cct_url": null,
    "cat_vehicule_id": "2",
    "cat_vehicule_libelle": "4 x 4",
    "cat_energie_id": "2",
    "cat_energie_libelle": "Diesel",
    "prix_visite": 76,
    "date_application_visite": "2023-01-03",
    "prix_contre_visite_min": 10,
    "prix_contre_visite_max": 40,
    "date_application_contre_visite": "2023-01-03",
    "cct_siret": 80197494000018,
    "latitude": 45.636498,
    "longitude": 4.374468,
    "coordgeo": {
      "lon": 4.374468,
      "lat": 45.636498
    },
    "cct_statut": "actif"
  },
  {
    "cct_code_dept": "Loire",
    "code_postal": null,
    "cct_code_commune": "Chazelles-sur-Lyon",
    "cct_denomination": "ACT CHAZELLOIS",
    "cct_adresse": "5 IMP CLAUDE BROSSE",
    "cct_tel": "477545756",
    "cct_url": null,
    "cat_vehicule_id": "5",
    "cat_vehicule_libelle": "Camping-car (moins de 3,5 tonnes)",
    "cat_energie_id": "5",
    "cat_energie_libelle": "Electrique",
    "prix_visite": 75,
    "date_application_visite": "2020-09-10",
    "prix_contre_visite_min": 10,
    "prix_contre_visite_max": 30,
    "date_application_contre_visite": "2020-09-10",
    "cct_siret": 80197494000018,
    "latitude": 45.636498,
    "longitude": 4.374468,
    "coordgeo": {
      "lon": 4.374468,
      "lat": 45.636498
    },
    "cct_statut": "actif"
  },
  {
    "cct_code_dept": "Loire",
    "code_postal": null,
    "cct_code_commune": "Chazelles-sur-Lyon",
    "cct_denomination": "ACT CHAZELLOIS",
    "cct_adresse": "5 IMP CLAUDE BROSSE",
    "cct_tel": "477545756",
    "cct_url": null,
    "cat_vehicule_id": "5",
    "cat_vehicule_libelle": "Camping-car (moins de 3,5 tonnes)",
    "cat_energie_id": "1",
    "cat_energie_libelle": "Essence",
    "prix_visite": 75,
    "date_application_visite": "2020-09-10",
    "prix_contre_visite_min": 10,
    "prix_contre_visite_max": 30,
    "date_application_contre_visite": "2020-09-10",
    "cct_siret": 80197494000018,
    "latitude": 45.636498,
    "longitude": 4.374468,
    "coordgeo": {
      "lon": 4.374468,
      "lat": 45.636498
    },
    "cct_statut": "actif"
  },
  {
    "cct_code_dept": "Loire",
    "code_postal": "42290",
    "cct_code_commune": "Sorbiers",
    "cct_denomination": "AUTO CONTROLE SORBIERS",
    "cct_adresse": "16 RUE DE L INDUSTRIE",
    "cct_tel": "477338011",
    "cct_url": null,
    "cat_vehicule_id": "4",
    "cat_vehicule_libelle": "Camionnette",
    "cat_energie_id": "4",
    "cat_energie_libelle": "Hybride",
    "prix_visite": 130,
    "date_application_visite": "2021-04-13",
    "prix_contre_visite_min": 10,
    "prix_contre_visite_max": 30,
    "date_application_contre_visite": "2021-04-13",
    "cct_siret": 89152864800019,
    "latitude": 45.483655,
    "longitude": 4.441688,
    "coordgeo": {
      "lon": 4.441688,
      "lat": 45.483655
    },
    "cct_statut": "actif"
  },
  {
    "cct_code_dept": "Loire",
    "code_postal": null,
    "cct_code_commune": "Saint-Priest-en-Jarez",
    "cct_denomination": "SOMAPAL",
    "cct_adresse": "30 RTE DE L ETRAT",
    "cct_tel": null,
    "cct_url": null,
    "cat_vehicule_id": "5",
    "cat_vehicule_libelle": "Camping-car (moins de 3,5 tonnes)",
    "cat_energie_id": "4",
    "cat_energie_libelle": "Hybride",
    "prix_visite": 79,
    "date_application_visite": "2018-09-01",
    "prix_contre_visite_min": 10,
    "prix_contre_visite_max": 30,
    "date_application_contre_visite": "2018-09-01",
    "cct_siret": 43427210000018,
    "latitude": 45.473234,
    "longitude": 4.383124,
    "coordgeo": {
      "lon": 4.383124,
      "lat": 45.473234
    },
    "cct_statut": "actif"
  },
  {
    "cct_code_dept": "Loire",
    "code_postal": null,
    "cct_code_commune": "Saint-Chamond",
    "cct_denomination": "CONTROLE TECHNIQUE SAINT-CHAMONAIS",
    "cct_adresse": "21 RTE DE LANGONAND",
    "cct_tel": "477220535",
    "cct_url": "https://controle-technique-saint-chamond.autosecurite.com/",
    "cat_vehicule_id": "4",
    "cat_vehicule_libelle": "Camionnette",
    "cat_energie_id": "2",
    "cat_energie_libelle": "Diesel",
    "prix_visite": 90,
    "date_application_visite": "2020-08-31",
    "prix_contre_visite_min": 15,
    "prix_contre_visite_max": 45,
    "date_application_contre_visite": "2020-08-31",
    "cct_siret": 84071061000014,
    "latitude": 45.471769,
    "longitude": 4.499474,
    "coordgeo": {
      "lon": 4.499474,
      "lat": 45.471769
    },
    "cct_statut": "actif"
  },
  {
    "cct_code_dept": "Loire",
    "code_postal": "42120",
    "cct_code_commune": "Le Coteau",
    "cct_denomination": "C.T.A. FREDERIC DUZELET",
    "cct_adresse": "5 BD CHARLES DE GAULLE",
    "cct_tel": null,
    "cct_url": null,
    "cat_vehicule_id": "2",
    "cat_vehicule_libelle": "4 x 4",
    "cat_energie_id": "3",
    "cat_energie_libelle": "Gaz",
    "prix_visite": 90,
    "date_application_visite": "2020-09-11",
    "prix_contre_visite_min": 12,
    "prix_contre_visite_max": 30,
    "date_application_contre_visite": "2020-09-11",
    "cct_siret": 41191972300048,
    "latitude": 46.022226,
    "longitude": 4.096528,
    "coordgeo": {
      "lon": 4.096528,
      "lat": 46.022226
    },
    "cct_statut": "actif"
  },
  {
    "cct_code_dept": "Loire",
    "code_postal": "42120",
    "cct_code_commune": "Le Coteau",
    "cct_denomination": "C.T.A. FREDERIC DUZELET",
    "cct_adresse": "5 BD CHARLES DE GAULLE",
    "cct_tel": null,
    "cct_url": null,
    "cat_vehicule_id": "1",
    "cat_vehicule_libelle": "Voiture Particulière",
    "cat_energie_id": "4",
    "cat_energie_libelle": "Hybride",
    "prix_visite": 68,
    "date_application_visite": "2020-09-11",
    "prix_contre_visite_min": 12,
    "prix_contre_visite_max": 30,
    "date_application_contre_visite": "2020-09-11",
    "cct_siret": 41191972300048,
    "latitude": 46.022226,
    "longitude": 4.096528,
    "coordgeo": {
      "lon": 4.096528,
      "lat": 46.022226
    },
    "cct_statut": "actif"
  },
  {
    "cct_code_dept": "Loire",
    "code_postal": "42300",
    "cct_code_commune": "Roanne",
    "cct_denomination": "C.T.A. FREDERIC DUZELET",
    "cct_adresse": "168 RUE DE CHARLIEU",
    "cct_tel": "477715199",
    "cct_url": null,
    "cat_vehicule_id": "5",
    "cat_vehicule_libelle": "Camping-car (moins de 3,5 tonnes)",
    "cat_energie_id": "2",
    "cat_energie_libelle": "Diesel",
    "prix_visite": 68,
    "date_application_visite": "2023-03-28",
    "prix_contre_visite_min": 12,
    "prix_contre_visite_max": 30,
    "date_application_contre_visite": "2023-03-28",
    "cct_siret": 41191972300055,
    "latitude": 46.05196,
    "longitude": 4.085306,
    "coordgeo": {
      "lon": 4.085306,
      "lat": 46.05196
    },
    "cct_statut": "actif"
  },
  {
    "cct_code_dept": "Loire",
    "code_postal": "42110",
    "cct_code_commune": "Civens",
    "cct_denomination": "CCT DELORME",
    "cct_adresse": "LES PLACES",
    "cct_tel": "477271027",
    "cct_url": null,
    "cat_vehicule_id": "5",
    "cat_vehicule_libelle": "Camping-car (moins de 3,5 tonnes)",
    "cat_energie_id": "2",
    "cat_energie_libelle": "Diesel",
    "prix_visite": 72,
    "date_application_visite": "2020-09-01",
    "prix_contre_visite_min": 10,
    "prix_contre_visite_max": 30,
    "date_application_contre_visite": "2020-09-01",
    "cct_siret": 42353696000010,
    "latitude": 45.771278,
    "longitude": 4.216178,
    "coordgeo": {
      "lon": 4.216178,
      "lat": 45.771278
    },
    "cct_statut": "actif"
  },
  {
    "cct_code_dept": "Loire",
    "code_postal": "42110",
    "cct_code_commune": "Civens",
    "cct_denomination": "CCT DELORME",
    "cct_adresse": "LES PLACES",
    "cct_tel": "477271027",
    "cct_url": null,
    "cat_vehicule_id": "5",
    "cat_vehicule_libelle": "Camping-car (moins de 3,5 tonnes)",
    "cat_energie_id": "5",
    "cat_energie_libelle": "Electrique",
    "prix_visite": 80,
    "date_application_visite": "2020-09-01",
    "prix_contre_visite_min": 10,
    "prix_contre_visite_max": 30,
    "date_application_contre_visite": "2020-09-01",
    "cct_siret": 42353696000010,
    "latitude": 45.771278,
    "longitude": 4.216178,
    "coordgeo": {
      "lon": 4.216178,
      "lat": 45.771278
    },
    "cct_statut": "actif"
  },
  {
    "cct_code_dept": "Loire",
    "code_postal": "42110",
    "cct_code_commune": "Civens",
    "cct_denomination": "CCT DELORME",
    "cct_adresse": "LES PLACES",
    "cct_tel": "477271027",
    "cct_url": null,
    "cat_vehicule_id": "5",
    "cat_vehicule_libelle": "Camping-car (moins de 3,5 tonnes)",
    "cat_energie_id": "3",
    "cat_energie_libelle": "Gaz",
    "prix_visite": 80,
    "date_application_visite": "2020-09-01",
    "prix_contre_visite_min": 10,
    "prix_contre_visite_max": 30,
    "date_application_contre_visite": "2020-09-01",
    "cct_siret": 42353696000010,
    "latitude": 45.771278,
    "longitude": 4.216178,
    "coordgeo": {
      "lon": 4.216178,
      "lat": 45.771278
    },
    "cct_statut": "actif"
  },
  {
    "cct_code_dept": "Loire",
    "code_postal": "42153",
    "cct_code_commune": "Riorges",
    "cct_denomination": "CADOT CONTROL'AUTO",
    "cct_adresse": "249 RUE MICHEL RONDET",
    "cct_tel": "477780437",
    "cct_url": null,
    "cat_vehicule_id": "3",
    "cat_vehicule_libelle": "Voiture de collection",
    "cat_energie_id": "5",
    "cat_energie_libelle": "Electrique",
    "prix_visite": 65,
    "date_application_visite": "2020-09-04",
    "prix_contre_visite_min": 10,
    "prix_contre_visite_max": 20,
    "date_application_contre_visite": "2020-09-04",
    "cct_siret": 50511888500027,
    "latitude": 46.056316,
    "longitude": 4.044618,
    "coordgeo": {
      "lon": 4.044618,
      "lat": 46.056316
    },
    "cct_statut": "actif"
  },
  {
    "cct_code_dept": "Loire",
    "code_postal": null,
    "cct_code_commune": "La Grand-Croix",
    "cct_denomination": "STEF AUTO CONTROLE",
    "cct_adresse": "6 RUE LOUIS PASTEUR",
    "cct_tel": "619812461",
    "cct_url": "https://controle-technique.autosur.fr/271-autosur-grand-croix",
    "cat_vehicule_id": "3",
    "cat_vehicule_libelle": "Voiture de collection",
    "cat_energie_id": "3",
    "cat_energie_libelle": "Gaz",
    "prix_visite": 90,
    "date_application_visite": "2021-04-12",
    "prix_contre_visite_min": 10,
    "prix_contre_visite_max": 50,
    "date_application_contre_visite": "2020-09-10",
    "cct_siret": 81805203700012,
    "latitude": 45.50143,
    "longitude": 4.567259,
    "coordgeo": {
      "lon": 4.567259,
      "lat": 45.50143
    },
    "cct_statut": "actif"
  },
  {
    "cct_code_dept": "Loire",
    "code_postal": null,
    "cct_code_commune": "Saint-Hilaire-sous-Charlieu",
    "cct_denomination": "AUTO CONTROLE SOUTRENON",
    "cct_adresse": "LE POTEAU",
    "cct_tel": "477600012",
    "cct_url": null,
    "cat_vehicule_id": "3",
    "cat_vehicule_libelle": "Voiture de collection",
    "cat_energie_id": "5",
    "cat_energie_libelle": "Electrique",
    "prix_visite": 68,
    "date_application_visite": "2020-10-09",
    "prix_contre_visite_min": 10,
    "prix_contre_visite_max": 25,
    "date_application_contre_visite": "2020-10-09",
    "cct_siret": 78903460000013,
    "latitude": 46.113238,
    "longitude": 4.196777,
    "coordgeo": {
      "lon": 4.196777,
      "lat": 46.113238
    },
    "cct_statut": "actif"
  },
  {
    "cct_code_dept": "Loire",
    "code_postal": null,
    "cct_code_commune": "Saint-Étienne",
    "cct_denomination": "AUTO CONTROLE LOIRE",
    "cct_adresse": "10 RUE DES FRERES CHAPPE",
    "cct_tel": "477479373",
    "cct_url": "www.acl.securitest.fr",
    "cat_vehicule_id": "2",
    "cat_vehicule_libelle": "4 x 4",
    "cat_energie_id": "2",
    "cat_energie_libelle": "Diesel",
    "prix_visite": 81,
    "date_application_visite": "2020-09-01",
    "prix_contre_visite_min": 30,
    "prix_contre_visite_max": 30,
    "date_application_contre_visite": "2020-09-01",
    "cct_siret": 53180857400010,
    "latitude": 45.439749,
    "longitude": 4.392058,
    "coordgeo": {
      "lon": 4.392058,
      "lat": 45.439749
    },
    "cct_statut": "actif"
  },
  {
    "cct_code_dept": "Loire",
    "code_postal": null,
    "cct_code_commune": "Saint-Étienne",
    "cct_denomination": "AUTO CONTROLE LOIRE",
    "cct_adresse": "10 RUE DES FRERES CHAPPE",
    "cct_tel": "477479373",
    "cct_url": "www.acl.securitest.fr",
    "cat_vehicule_id": "2",
    "cat_vehicule_libelle": "4 x 4",
    "cat_energie_id": "3",
    "cat_energie_libelle": "Gaz",
    "prix_visite": 0,
    "date_application_visite": "2020-09-01",
    "prix_contre_visite_min": 0,
    "prix_contre_visite_max": 0,
    "date_application_contre_visite": "2020-09-01",
    "cct_siret": 53180857400010,
    "latitude": 45.439749,
    "longitude": 4.392058,
    "coordgeo": {
      "lon": 4.392058,
      "lat": 45.439749
    },
    "cct_statut": "actif"
  },
  {
    "cct_code_dept": "Loire",
    "code_postal": null,
    "cct_code_commune": "Saint-Étienne",
    "cct_denomination": "AUTO CONTROLE LOIRE",
    "cct_adresse": "10 RUE DES FRERES CHAPPE",
    "cct_tel": "477479373",
    "cct_url": "www.acl.securitest.fr",
    "cat_vehicule_id": "4",
    "cat_vehicule_libelle": "Camionnette",
    "cat_energie_id": "5",
    "cat_energie_libelle": "Electrique",
    "prix_visite": 81,
    "date_application_visite": "2020-09-01",
    "prix_contre_visite_min": 81,
    "prix_contre_visite_max": 81,
    "date_application_contre_visite": "2020-09-01",
    "cct_siret": 53180857400010,
    "latitude": 45.439749,
    "longitude": 4.392058,
    "coordgeo": {
      "lon": 4.392058,
      "lat": 45.439749
    },
    "cct_statut": "actif"
  },
  {
    "cct_code_dept": "Loire",
    "code_postal": null,
    "cct_code_commune": "Saint-Étienne",
    "cct_denomination": "AUTO CONTROLE LOIRE",
    "cct_adresse": "10 RUE DES FRERES CHAPPE",
    "cct_tel": "477479373",
    "cct_url": "www.acl.securitest.fr",
    "cat_vehicule_id": "1",
    "cat_vehicule_libelle": "Voiture Particulière",
    "cat_energie_id": "4",
    "cat_energie_libelle": "Hybride",
    "prix_visite": 75,
    "date_application_visite": "2020-09-01",
    "prix_contre_visite_min": 30,
    "prix_contre_visite_max": 30,
    "date_application_contre_visite": "2020-09-01",
    "cct_siret": 53180857400010,
    "latitude": 45.439749,
    "longitude": 4.392058,
    "coordgeo": {
      "lon": 4.392058,
      "lat": 45.439749
    },
    "cct_statut": "actif"
  },
  {
    "cct_code_dept": "Loire",
    "code_postal": null,
    "cct_code_commune": "Saint-Romain-le-Puy",
    "cct_denomination": "CENTRE DE CONTROLE TECHNIQUE MONBRISONNAIS",
    "cct_adresse": "Z A DE CHEZIEUX",
    "cct_tel": "620803435",
    "cct_url": "https://www.controleautomobilemontbrisonnais.com/",
    "cat_vehicule_id": "4",
    "cat_vehicule_libelle": "Camionnette",
    "cat_energie_id": "5",
    "cat_energie_libelle": "Electrique",
    "prix_visite": 70,
    "date_application_visite": "2020-10-10",
    "prix_contre_visite_min": 5,
    "prix_contre_visite_max": 10,
    "date_application_contre_visite": "2020-10-10",
    "cct_siret": 52314294100013,
    "latitude": 45.575321,
    "longitude": 4.105323,
    "coordgeo": {
      "lon": 4.105323,
      "lat": 45.575321
    },
    "cct_statut": "actif"
  },
  {
    "cct_code_dept": "Loire",
    "code_postal": null,
    "cct_code_commune": "Saint-Romain-le-Puy",
    "cct_denomination": "CENTRE DE CONTROLE TECHNIQUE MONBRISONNAIS",
    "cct_adresse": "Z A DE CHEZIEUX",
    "cct_tel": "620803435",
    "cct_url": "https://www.controleautomobilemontbrisonnais.com/",
    "cat_vehicule_id": "1",
    "cat_vehicule_libelle": "Voiture Particulière",
    "cat_energie_id": "4",
    "cat_energie_libelle": "Hybride",
    "prix_visite": 75,
    "date_application_visite": "2022-01-08",
    "prix_contre_visite_min": 10,
    "prix_contre_visite_max": 30,
    "date_application_contre_visite": "2022-01-08",
    "cct_siret": 52314294100013,
    "latitude": 45.575321,
    "longitude": 4.105323,
    "coordgeo": {
      "lon": 4.105323,
      "lat": 45.575321
    },
    "cct_statut": "actif"
  },
  {
    "cct_code_dept": "Loire",
    "code_postal": null,
    "cct_code_commune": "Saint-Genest-Lerpt",
    "cct_denomination": "AUTO CONTROLE SAINT GENEST",
    "cct_adresse": "ZA DU PUITS DU CRET",
    "cct_tel": "477901426",
    "cct_url": "autocontrolesgl.fr",
    "cat_vehicule_id": "4",
    "cat_vehicule_libelle": "Camionnette",
    "cat_energie_id": "1",
    "cat_energie_libelle": "Essence",
    "prix_visite": 60,
    "date_application_visite": "2020-09-12",
    "prix_contre_visite_min": 10,
    "prix_contre_visite_max": 35,
    "date_application_contre_visite": "2020-09-12",
    "cct_siret": 79791359700010,
    "latitude": 45.442854,
    "longitude": 4.338611,
    "coordgeo": {
      "lon": 4.338611,
      "lat": 45.442854
    },
    "cct_statut": "actif"
  },
  {
    "cct_code_dept": "Loire",
    "code_postal": "05150",
    "cct_code_commune": "Sorbiers",
    "cct_denomination": "AUTO CONTROLE SORBIERS",
    "cct_adresse": "16 RUE DE L INDUSTRIE",
    "cct_tel": "477338011",
    "cct_url": null,
    "cat_vehicule_id": "4",
    "cat_vehicule_libelle": "Camionnette",
    "cat_energie_id": "5",
    "cat_energie_libelle": "Electrique",
    "prix_visite": 130,
    "date_application_visite": "2021-04-13",
    "prix_contre_visite_min": 10,
    "prix_contre_visite_max": 30,
    "date_application_contre_visite": "2021-04-13",
    "cct_siret": 89152864800019,
    "latitude": 45.483655,
    "longitude": 4.441688,
    "coordgeo": {
      "lon": 4.441688,
      "lat": 45.483655
    },
    "cct_statut": "actif"
  },
  {
    "cct_code_dept": "Loire",
    "code_postal": null,
    "cct_code_commune": "Rive-de-Gier",
    "cct_denomination": "CENTRE TECHNIQUE AUTOMOBILE GERARD PAYRE",
    "cct_adresse": "RUE BARTHELEMY BRUNON",
    "cct_tel": "477838821",
    "cct_url": null,
    "cat_vehicule_id": "5",
    "cat_vehicule_libelle": "Camping-car (moins de 3,5 tonnes)",
    "cat_energie_id": "5",
    "cat_energie_libelle": "Electrique",
    "prix_visite": 115,
    "date_application_visite": "2020-09-05",
    "prix_contre_visite_min": 20,
    "prix_contre_visite_max": 50,
    "date_application_contre_visite": "2020-09-05",
    "cct_siret": 33815565800036,
    "latitude": 45.527241,
    "longitude": 4.611859,
    "coordgeo": {
      "lon": 4.611859,
      "lat": 45.527241
    },
    "cct_statut": "actif"
  },
  {
    "cct_code_dept": "Loire",
    "code_postal": null,
    "cct_code_commune": "Saint-Étienne",
    "cct_denomination": "AUTO CONTROLE BALAY",
    "cct_adresse": "4 RUE VIAL",
    "cct_tel": "477324639",
    "cct_url": "https://acb.autosecurite.com",
    "cat_vehicule_id": "1",
    "cat_vehicule_libelle": "Voiture Particulière",
    "cat_energie_id": "4",
    "cat_energie_libelle": "Hybride",
    "prix_visite": 69,
    "date_application_visite": "2020-09-02",
    "prix_contre_visite_min": 15,
    "prix_contre_visite_max": 35,
    "date_application_contre_visite": "2020-09-02",
    "cct_siret": 41817456100021,
    "latitude": 45.439481,
    "longitude": 4.40431,
    "coordgeo": {
      "lon": 4.40431,
      "lat": 45.439481
    },
    "cct_statut": "actif"
  },
  {
    "cct_code_dept": "Loire",
    "code_postal": null,
    "cct_code_commune": "Saint-Étienne",
    "cct_denomination": "AUTO CONTROLE BALAY",
    "cct_adresse": "4 RUE VIAL",
    "cct_tel": "477324639",
    "cct_url": "https://acb.autosecurite.com",
    "cat_vehicule_id": "3",
    "cat_vehicule_libelle": "Voiture de collection",
    "cat_energie_id": "2",
    "cat_energie_libelle": "Diesel",
    "prix_visite": 69,
    "date_application_visite": "2020-09-02",
    "prix_contre_visite_min": 15,
    "prix_contre_visite_max": 35,
    "date_application_contre_visite": "2020-09-02",
    "cct_siret": 41817456100021,
    "latitude": 45.439481,
    "longitude": 4.40431,
    "coordgeo": {
      "lon": 4.40431,
      "lat": 45.439481
    },
    "cct_statut": "actif"
  },
  {
    "cct_code_dept": "Loire",
    "code_postal": null,
    "cct_code_commune": "Andrézieux-Bouthéon",
    "cct_denomination": "CECAF CENTRE EXPERTISE CONTROL AUTO FORE",
    "cct_adresse": "AV BENOIT FOURNEYRON",
    "cct_tel": "477554979",
    "cct_url": "www.cecaf-andrezieux.autosecurite.com",
    "cat_vehicule_id": "5",
    "cat_vehicule_libelle": "Camping-car (moins de 3,5 tonnes)",
    "cat_energie_id": "1",
    "cat_energie_libelle": "Essence",
    "prix_visite": 85,
    "date_application_visite": "2020-09-02",
    "prix_contre_visite_min": 10,
    "prix_contre_visite_max": 30,
    "date_application_contre_visite": "2020-09-02",
    "cct_siret": 33911463900026,
    "latitude": 45.521177,
    "longitude": 4.276781,
    "coordgeo": {
      "lon": 4.276781,
      "lat": 45.521177
    },
    "cct_statut": "actif"
  },
  {
    "cct_code_dept": "Loire",
    "code_postal": null,
    "cct_code_commune": "Andrézieux-Bouthéon",
    "cct_denomination": "CECAF CENTRE EXPERTISE CONTROL AUTO FORE",
    "cct_adresse": "AV BENOIT FOURNEYRON",
    "cct_tel": "477554979",
    "cct_url": "www.cecaf-andrezieux.autosecurite.com",
    "cat_vehicule_id": "1",
    "cat_vehicule_libelle": "Voiture Particulière",
    "cat_energie_id": "2",
    "cat_energie_libelle": "Diesel",
    "prix_visite": 78,
    "date_application_visite": "2020-09-02",
    "prix_contre_visite_min": 10,
    "prix_contre_visite_max": 30,
    "date_application_contre_visite": "2020-09-02",
    "cct_siret": 33911463900026,
    "latitude": 45.521177,
    "longitude": 4.276781,
    "coordgeo": {
      "lon": 4.276781,
      "lat": 45.521177
    },
    "cct_statut": "actif"
  },
  {
    "cct_code_dept": "Loire",
    "code_postal": "42700",
    "cct_code_commune": "Firminy",
    "cct_denomination": "BC AUTO CONTROLE",
    "cct_adresse": "68 BD FAYOL",
    "cct_tel": "477402015",
    "cct_url": null,
    "cat_vehicule_id": "2",
    "cat_vehicule_libelle": "4 x 4",
    "cat_energie_id": "5",
    "cat_energie_libelle": "Electrique",
    "prix_visite": 55,
    "date_application_visite": "2020-10-09",
    "prix_contre_visite_min": 10,
    "prix_contre_visite_max": 25,
    "date_application_contre_visite": "2020-10-09",
    "cct_siret": 80125079600019,
    "latitude": 45.386852,
    "longitude": 4.297756,
    "coordgeo": {
      "lon": 4.297756,
      "lat": 45.386852
    },
    "cct_statut": "actif"
  },
  {
    "cct_code_dept": "Loire",
    "code_postal": "42700",
    "cct_code_commune": "Firminy",
    "cct_denomination": "BC AUTO CONTROLE",
    "cct_adresse": "68 BD FAYOL",
    "cct_tel": "477402015",
    "cct_url": null,
    "cat_vehicule_id": "5",
    "cat_vehicule_libelle": "Camping-car (moins de 3,5 tonnes)",
    "cat_energie_id": "2",
    "cat_energie_libelle": "Diesel",
    "prix_visite": 70,
    "date_application_visite": "2020-10-09",
    "prix_contre_visite_min": 10,
    "prix_contre_visite_max": 25,
    "date_application_contre_visite": "2020-10-09",
    "cct_siret": 80125079600019,
    "latitude": 45.386852,
    "longitude": 4.297756,
    "coordgeo": {
      "lon": 4.297756,
      "lat": 45.386852
    },
    "cct_statut": "actif"
  },
  {
    "cct_code_dept": "Loire",
    "code_postal": "42700",
    "cct_code_commune": "Firminy",
    "cct_denomination": "BC AUTO CONTROLE",
    "cct_adresse": "68 BD FAYOL",
    "cct_tel": "477402015",
    "cct_url": null,
    "cat_vehicule_id": "3",
    "cat_vehicule_libelle": "Voiture de collection",
    "cat_energie_id": "2",
    "cat_energie_libelle": "Diesel",
    "prix_visite": 55,
    "date_application_visite": "2020-10-09",
    "prix_contre_visite_min": 10,
    "prix_contre_visite_max": 25,
    "date_application_contre_visite": "2020-10-09",
    "cct_siret": 80125079600019,
    "latitude": 45.386852,
    "longitude": 4.297756,
    "coordgeo": {
      "lon": 4.297756,
      "lat": 45.386852
    },
    "cct_statut": "actif"
  },
  {
    "cct_code_dept": "Loire",
    "code_postal": "42300",
    "cct_code_commune": "Roanne",
    "cct_denomination": "ACTIV CONTROLE",
    "cct_adresse": "3 RUE MARCEL EIZENBERG",
    "cct_tel": "477721397",
    "cct_url": "www.controle-technique-roanne.autosecurite.com",
    "cat_vehicule_id": "2",
    "cat_vehicule_libelle": "4 x 4",
    "cat_energie_id": "1",
    "cat_energie_libelle": "Essence",
    "prix_visite": 80,
    "date_application_visite": "2020-09-04",
    "prix_contre_visite_min": 20,
    "prix_contre_visite_max": 30,
    "date_application_contre_visite": "2020-09-04",
    "cct_siret": 88247094100023,
    "latitude": 46.055253,
    "longitude": 4.095585,
    "coordgeo": {
      "lon": 4.095585,
      "lat": 46.055253
    },
    "cct_statut": "actif"
  },
  {
    "cct_code_dept": "Loire",
    "code_postal": "42300",
    "cct_code_commune": "Roanne",
    "cct_denomination": "ACTIV CONTROLE",
    "cct_adresse": "3 RUE MARCEL EIZENBERG",
    "cct_tel": "477721397",
    "cct_url": "www.controle-technique-roanne.autosecurite.com",
    "cat_vehicule_id": "1",
    "cat_vehicule_libelle": "Voiture Particulière",
    "cat_energie_id": "5",
    "cat_energie_libelle": "Electrique",
    "prix_visite": 75,
    "date_application_visite": "2020-09-04",
    "prix_contre_visite_min": 20,
    "prix_contre_visite_max": 30,
    "date_application_contre_visite": "2020-09-04",
    "cct_siret": 88247094100023,
    "latitude": 46.055253,
    "longitude": 4.095585,
    "coordgeo": {
      "lon": 4.095585,
      "lat": 46.055253
    },
    "cct_statut": "actif"
  },
  {
    "cct_code_dept": "Loire",
    "code_postal": "42340",
    "cct_code_commune": "Veauche",
    "cct_denomination": "GENON FLORENT",
    "cct_adresse": "VC ZA LA PRAIRIE",
    "cct_tel": "477941740",
    "cct_url": null,
    "cat_vehicule_id": "3",
    "cat_vehicule_libelle": "Voiture de collection",
    "cat_energie_id": "4",
    "cat_energie_libelle": "Hybride",
    "prix_visite": 105,
    "date_application_visite": "2020-10-08",
    "prix_contre_visite_min": 15,
    "prix_contre_visite_max": 35,
    "date_application_contre_visite": "2020-10-08",
    "cct_siret": 48408769700013,
    "latitude": 45.55207,
    "longitude": 4.292796,
    "coordgeo": {
      "lon": 4.292796,
      "lat": 45.55207
    },
    "cct_statut": "actif"
  },
  {
    "cct_code_dept": "Loire",
    "code_postal": null,
    "cct_code_commune": "Bourg-Argental",
    "cct_denomination": "FANGET BENJAMIN",
    "cct_adresse": "45 AV DE LA RESISTANCE",
    "cct_tel": "477396753",
    "cct_url": null,
    "cat_vehicule_id": "2",
    "cat_vehicule_libelle": "4 x 4",
    "cat_energie_id": "4",
    "cat_energie_libelle": "Hybride",
    "prix_visite": 77,
    "date_application_visite": "2020-09-08",
    "prix_contre_visite_min": 7,
    "prix_contre_visite_max": 20,
    "date_application_contre_visite": "2020-09-08",
    "cct_siret": 82924111600013,
    "latitude": 45.296057,
    "longitude": 4.564943,
    "coordgeo": {
      "lon": 4.564943,
      "lat": 45.296057
    },
    "cct_statut": "actif"
  },
  {
    "cct_code_dept": "Loire",
    "code_postal": null,
    "cct_code_commune": "Bourg-Argental",
    "cct_denomination": "FANGET BENJAMIN",
    "cct_adresse": "45 AV DE LA RESISTANCE",
    "cct_tel": "477396753",
    "cct_url": null,
    "cat_vehicule_id": "1",
    "cat_vehicule_libelle": "Voiture Particulière",
    "cat_energie_id": "2",
    "cat_energie_libelle": "Diesel",
    "prix_visite": 77,
    "date_application_visite": "2020-09-08",
    "prix_contre_visite_min": 7,
    "prix_contre_visite_max": 12,
    "date_application_contre_visite": "2020-09-08",
    "cct_siret": 82924111600013,
    "latitude": 45.296057,
    "longitude": 4.564943,
    "coordgeo": {
      "lon": 4.564943,
      "lat": 45.296057
    },
    "cct_statut": "actif"
  },
  {
    "cct_code_dept": "Loire",
    "code_postal": null,
    "cct_code_commune": "Saint-Étienne",
    "cct_denomination": "CONTROLE TECHNIQUE LA RIVIERE",
    "cct_adresse": "4 RUE DE DUNKERQUE",
    "cct_tel": "477592625",
    "cct_url": null,
    "cat_vehicule_id": "5",
    "cat_vehicule_libelle": "Camping-car (moins de 3,5 tonnes)",
    "cat_energie_id": "5",
    "cat_energie_libelle": "Electrique",
    "prix_visite": 130,
    "date_application_visite": "2020-09-29",
    "prix_contre_visite_min": 10,
    "prix_contre_visite_max": 35,
    "date_application_contre_visite": "2020-09-29",
    "cct_siret": 82950464600011,
    "latitude": 45.415309,
    "longitude": 4.405081,
    "coordgeo": {
      "lon": 4.405081,
      "lat": 45.415309
    },
    "cct_statut": "actif"
  },
  {
    "cct_code_dept": "Loire",
    "code_postal": null,
    "cct_code_commune": "Saint-Étienne",
    "cct_denomination": "MSC",
    "cct_adresse": "3 BD PASTEUR",
    "cct_tel": null,
    "cct_url": null,
    "cat_vehicule_id": "5",
    "cat_vehicule_libelle": "Camping-car (moins de 3,5 tonnes)",
    "cat_energie_id": "2",
    "cat_energie_libelle": "Diesel",
    "prix_visite": 75,
    "date_application_visite": "2020-12-04",
    "prix_contre_visite_min": 30,
    "prix_contre_visite_max": 30,
    "date_application_contre_visite": "2020-12-04",
    "cct_siret": 83118424700011,
    "latitude": 45.413565,
    "longitude": 4.395482,
    "coordgeo": {
      "lon": 4.395482,
      "lat": 45.413565
    },
    "cct_statut": "actif"
  },
  {
    "cct_code_dept": "Loire",
    "code_postal": "42600",
    "cct_code_commune": "Montbrison",
    "cct_denomination": "CLEMENT AUTO CONTROLE",
    "cct_adresse": "1 RUE DE LAPLATTE",
    "cct_tel": "477961450",
    "cct_url": null,
    "cat_vehicule_id": "5",
    "cat_vehicule_libelle": "Camping-car (moins de 3,5 tonnes)",
    "cat_energie_id": "2",
    "cat_energie_libelle": "Diesel",
    "prix_visite": 75,
    "date_application_visite": "2020-10-02",
    "prix_contre_visite_min": 10,
    "prix_contre_visite_max": 20,
    "date_application_contre_visite": "2020-10-02",
    "cct_siret": 48519136500025,
    "latitude": 45.597172,
    "longitude": 4.081415,
    "coordgeo": {
      "lon": 4.081415,
      "lat": 45.597172
    },
    "cct_statut": "actif"
  },
  {
    "cct_code_dept": "Loire",
    "code_postal": null,
    "cct_code_commune": "Boën-sur-Lignon",
    "cct_denomination": "CONTROLE TECHNIQUE CREUTZWALD",
    "cct_adresse": "1 CHE NEUF",
    "cct_tel": "477245799",
    "cct_url": "dekra-norisko.fr",
    "cat_vehicule_id": "2",
    "cat_vehicule_libelle": "4 x 4",
    "cat_energie_id": "3",
    "cat_energie_libelle": "Gaz",
    "prix_visite": 85,
    "date_application_visite": "2022-11-23",
    "prix_contre_visite_min": 0,
    "prix_contre_visite_max": 20,
    "date_application_contre_visite": "2022-11-23",
    "cct_siret": 48765615900109,
    "latitude": 45.753252,
    "longitude": 3.987016,
    "coordgeo": {
      "lon": 3.987016,
      "lat": 45.753252
    },
    "cct_statut": "actif"
  },
  {
    "cct_code_dept": "Loire",
    "code_postal": null,
    "cct_code_commune": "Boën-sur-Lignon",
    "cct_denomination": "CONTROLE TECHNIQUE CREUTZWALD",
    "cct_adresse": "1 CHE NEUF",
    "cct_tel": "477245799",
    "cct_url": "dekra-norisko.fr",
    "cat_vehicule_id": "4",
    "cat_vehicule_libelle": "Camionnette",
    "cat_energie_id": "5",
    "cat_energie_libelle": "Electrique",
    "prix_visite": 67,
    "date_application_visite": "2022-11-23",
    "prix_contre_visite_min": 0,
    "prix_contre_visite_max": 20,
    "date_application_contre_visite": "2022-11-23",
    "cct_siret": 48765615900109,
    "latitude": 45.753252,
    "longitude": 3.987016,
    "coordgeo": {
      "lon": 3.987016,
      "lat": 45.753252
    },
    "cct_statut": "actif"
  },
  {
    "cct_code_dept": "Loire",
    "code_postal": null,
    "cct_code_commune": "L'Horme",
    "cct_denomination": "CONTROLE TECHNIQUE AUTOMOBILE DU GIER",
    "cct_adresse": "63 AV PASTEUR",
    "cct_tel": "477225828",
    "cct_url": null,
    "cat_vehicule_id": "5",
    "cat_vehicule_libelle": "Camping-car (moins de 3,5 tonnes)",
    "cat_energie_id": "3",
    "cat_energie_libelle": "Gaz",
    "prix_visite": 80,
    "date_application_visite": "2020-12-07",
    "prix_contre_visite_min": 8,
    "prix_contre_visite_max": 30,
    "date_application_contre_visite": "2020-12-07",
    "cct_siret": 38428116800029,
    "latitude": 45.485068,
    "longitude": 4.53967,
    "coordgeo": {
      "lon": 4.53967,
      "lat": 45.485068
    },
    "cct_statut": "actif"
  },
  {
    "cct_code_dept": "Loire",
    "code_postal": null,
    "cct_code_commune": "Pouilly-sous-Charlieu",
    "cct_denomination": "C.T.A. FREDERIC DUZELET",
    "cct_adresse": "ZA LES BELUZES",
    "cct_tel": null,
    "cct_url": null,
    "cat_vehicule_id": "2",
    "cat_vehicule_libelle": "4 x 4",
    "cat_energie_id": "5",
    "cat_energie_libelle": "Electrique",
    "prix_visite": 68,
    "date_application_visite": "2020-09-29",
    "prix_contre_visite_min": 12,
    "prix_contre_visite_max": 25,
    "date_application_contre_visite": "2020-09-29",
    "cct_siret": 41191972300022,
    "latitude": 46.137115,
    "longitude": 4.10673,
    "coordgeo": {
      "lon": 4.10673,
      "lat": 46.137115
    },
    "cct_statut": "actif"
  },
  {
    "cct_code_dept": "Loire",
    "code_postal": null,
    "cct_code_commune": "Pouilly-sous-Charlieu",
    "cct_denomination": "C.T.A. FREDERIC DUZELET",
    "cct_adresse": "ZA LES BELUZES",
    "cct_tel": null,
    "cct_url": null,
    "cat_vehicule_id": "5",
    "cat_vehicule_libelle": "Camping-car (moins de 3,5 tonnes)",
    "cat_energie_id": "5",
    "cat_energie_libelle": "Electrique",
    "prix_visite": 68,
    "date_application_visite": "2020-09-29",
    "prix_contre_visite_min": 12,
    "prix_contre_visite_max": 30,
    "date_application_contre_visite": "2020-09-29",
    "cct_siret": 41191972300022,
    "latitude": 46.137115,
    "longitude": 4.10673,
    "coordgeo": {
      "lon": 4.10673,
      "lat": 46.137115
    },
    "cct_statut": "actif"
  },
  {
    "cct_code_dept": "Loire",
    "code_postal": null,
    "cct_code_commune": "Pouilly-sous-Charlieu",
    "cct_denomination": "C.T.A. FREDERIC DUZELET",
    "cct_adresse": "ZA LES BELUZES",
    "cct_tel": null,
    "cct_url": null,
    "cat_vehicule_id": "1",
    "cat_vehicule_libelle": "Voiture Particulière",
    "cat_energie_id": "2",
    "cat_energie_libelle": "Diesel",
    "prix_visite": 62,
    "date_application_visite": "2020-09-29",
    "prix_contre_visite_min": 12,
    "prix_contre_visite_max": 25,
    "date_application_contre_visite": "2020-09-29",
    "cct_siret": 41191972300022,
    "latitude": 46.137115,
    "longitude": 4.10673,
    "coordgeo": {
      "lon": 4.10673,
      "lat": 46.137115
    },
    "cct_statut": "actif"
  },
  {
    "cct_code_dept": "Loire",
    "code_postal": null,
    "cct_code_commune": "Pouilly-sous-Charlieu",
    "cct_denomination": "C.T.A. FREDERIC DUZELET",
    "cct_adresse": "ZA LES BELUZES",
    "cct_tel": null,
    "cct_url": null,
    "cat_vehicule_id": "3",
    "cat_vehicule_libelle": "Voiture de collection",
    "cat_energie_id": "3",
    "cat_energie_libelle": "Gaz",
    "prix_visite": 90,
    "date_application_visite": "2020-09-29",
    "prix_contre_visite_min": 12,
    "prix_contre_visite_max": 25,
    "date_application_contre_visite": "2020-09-29",
    "cct_siret": 41191972300022,
    "latitude": 46.137115,
    "longitude": 4.10673,
    "coordgeo": {
      "lon": 4.10673,
      "lat": 46.137115
    },
    "cct_statut": "actif"
  },
  {
    "cct_code_dept": "Loire",
    "code_postal": null,
    "cct_code_commune": "Le Chambon-Feugerolles",
    "cct_denomination": "AUTO POINT CONTROLE",
    "cct_adresse": "140 RUE DE LA REPUBLIQUE",
    "cct_tel": "477564033",
    "cct_url": null,
    "cat_vehicule_id": "5",
    "cat_vehicule_libelle": "Camping-car (moins de 3,5 tonnes)",
    "cat_energie_id": "2",
    "cat_energie_libelle": "Diesel",
    "prix_visite": 75,
    "date_application_visite": "2021-03-31",
    "prix_contre_visite_min": 10,
    "prix_contre_visite_max": 20,
    "date_application_contre_visite": "2021-03-31",
    "cct_siret": 79300746900018,
    "latitude": 45.394441,
    "longitude": 4.305204,
    "coordgeo": {
      "lon": 4.305204,
      "lat": 45.394441
    },
    "cct_statut": "actif"
  },
  {
    "cct_code_dept": "Loire",
    "code_postal": "42520",
    "cct_code_commune": "Maclas",
    "cct_denomination": "null",
    "cct_adresse": "ZA DE GUILLAURON",
    "cct_tel": "474206014",
    "cct_url": null,
    "cat_vehicule_id": "1",
    "cat_vehicule_libelle": "Voiture Particulière",
    "cat_energie_id": "1",
    "cat_energie_libelle": "Essence",
    "prix_visite": 80,
    "date_application_visite": "2020-11-09",
    "prix_contre_visite_min": 10,
    "prix_contre_visite_max": 28,
    "date_application_contre_visite": "2020-11-09",
    "cct_siret": 48119840600029,
    "latitude": 45.355195,
    "longitude": 4.672472,
    "coordgeo": {
      "lon": 4.672472,
      "lat": 45.355195
    },
    "cct_statut": "actif"
  },
  {
    "cct_code_dept": "Loire",
    "code_postal": "42520",
    "cct_code_commune": "Maclas",
    "cct_denomination": "null",
    "cct_adresse": "ZA DE GUILLAURON",
    "cct_tel": "474206014",
    "cct_url": null,
    "cat_vehicule_id": "3",
    "cat_vehicule_libelle": "Voiture de collection",
    "cat_energie_id": "4",
    "cat_energie_libelle": "Hybride",
    "prix_visite": 80,
    "date_application_visite": "2020-11-09",
    "prix_contre_visite_min": 10,
    "prix_contre_visite_max": 28,
    "date_application_contre_visite": "2020-11-09",
    "cct_siret": 48119840600029,
    "latitude": 45.355195,
    "longitude": 4.672472,
    "coordgeo": {
      "lon": 4.672472,
      "lat": 45.355195
    },
    "cct_statut": "actif"
  },
  {
    "cct_code_dept": "Loire",
    "code_postal": null,
    "cct_code_commune": "Saint-Étienne",
    "cct_denomination": "CONTROL'AUTO LA TERRASSE",
    "cct_adresse": "24 PL MASSENET",
    "cct_tel": "477925959",
    "cct_url": "https://controle-technique.autosur.fr/253-autosur-saint-etienne-bergson-la-terrasse",
    "cat_vehicule_id": "3",
    "cat_vehicule_libelle": "Voiture de collection",
    "cat_energie_id": "3",
    "cat_energie_libelle": "Gaz",
    "prix_visite": 92,
    "date_application_visite": "2021-07-02",
    "prix_contre_visite_min": 10,
    "prix_contre_visite_max": 92,
    "date_application_contre_visite": "2021-07-02",
    "cct_siret": 38499412500019,
    "latitude": 45.467308,
    "longitude": 4.378385,
    "coordgeo": {
      "lon": 4.378385,
      "lat": 45.467308
    },
    "cct_statut": "actif"
  },
  {
    "cct_code_dept": "Loire",
    "code_postal": null,
    "cct_code_commune": "Saint-Étienne",
    "cct_denomination": "CONTROL'AUTO LA TERRASSE",
    "cct_adresse": "24 PL MASSENET",
    "cct_tel": "477925959",
    "cct_url": "https://controle-technique.autosur.fr/253-autosur-saint-etienne-bergson-la-terrasse",
    "cat_vehicule_id": "3",
    "cat_vehicule_libelle": "Voiture de collection",
    "cat_energie_id": "3",
    "cat_energie_libelle": "Gaz",
    "prix_visite": 98,
    "date_application_visite": "2020-09-14",
    "prix_contre_visite_min": 10,
    "prix_contre_visite_max": 98,
    "date_application_contre_visite": "2020-09-14",
    "cct_siret": 38499412500019,
    "latitude": 45.467308,
    "longitude": 4.378385,
    "coordgeo": {
      "lon": 4.378385,
      "lat": 45.467308
    },
    "cct_statut": "actif"
  },
  {
    "cct_code_dept": "Loire",
    "code_postal": null,
    "cct_code_commune": "Saint-Étienne",
    "cct_denomination": "TUV DCTA SAS",
    "cct_adresse": "8 RUE GUSTAVE DELORY",
    "cct_tel": "477926990",
    "cct_url": "www.tuv-saintetiennemontreynaud.com",
    "cat_vehicule_id": "2",
    "cat_vehicule_libelle": "4 x 4",
    "cat_energie_id": "1",
    "cat_energie_libelle": "Essence",
    "prix_visite": 80,
    "date_application_visite": "2020-09-01",
    "prix_contre_visite_min": 15,
    "prix_contre_visite_max": 45,
    "date_application_contre_visite": "2023-01-03",
    "cct_siret": 41465271900132,
    "latitude": 45.461213,
    "longitude": 4.404602,
    "coordgeo": {
      "lon": 4.404602,
      "lat": 45.461213
    },
    "cct_statut": "actif"
  },
  {
    "cct_code_dept": "Loire",
    "code_postal": null,
    "cct_code_commune": "Saint-Étienne",
    "cct_denomination": "TUV DCTA SAS",
    "cct_adresse": "8 RUE GUSTAVE DELORY",
    "cct_tel": "477926990",
    "cct_url": "www.tuv-saintetiennemontreynaud.com",
    "cat_vehicule_id": "1",
    "cat_vehicule_libelle": "Voiture Particulière",
    "cat_energie_id": "4",
    "cat_energie_libelle": "Hybride",
    "prix_visite": 90,
    "date_application_visite": "2020-09-01",
    "prix_contre_visite_min": 15,
    "prix_contre_visite_max": 45,
    "date_application_contre_visite": "2023-01-03",
    "cct_siret": 41465271900132,
    "latitude": 45.461213,
    "longitude": 4.404602,
    "coordgeo": {
      "lon": 4.404602,
      "lat": 45.461213
    },
    "cct_statut": "actif"
  },