[
  {
    "cct_code_dept": "Pyrénées-Atlantiques",
    "code_postal": null,
    "cct_code_commune": "Saint-Jean-Pied-de-Port",
    "cct_denomination": "CONTROLE AUTO DONIBANE",
    "cct_adresse": "CHE DE LA NASSE",
    "cct_tel": "559373465",
    "cct_url": null,
    "cat_vehicule_id": "1",
    "cat_vehicule_libelle": "Voiture Particulière",
    "cat_energie_id": "4",
    "cat_energie_libelle": "Hybride",
    "prix_visite": 70,
    "date_application_visite": "2020-09-30",
    "prix_contre_visite_min": 10,
    "prix_contre_visite_max": 30,
    "date_application_contre_visite": "2020-09-30",
    "cct_siret": 38345921100017,
    "latitude": 43.164571,
    "longitude": -1.232465,
    "coordgeo": {
      "lon": -1.232465,
      "lat": 43.164571
    },
    "cct_statut": "actif"
  },
  {
    "cct_code_dept": "Pyrénées-Atlantiques",
    "code_postal": "64100",
    "cct_code_commune": "Bayonne",
    "cct_denomination": "CENTRE DE CONTROLE TECHNIQUE AUTO",
    "cct_adresse": "AV CPT RESPLANDY",
    "cct_tel": "559316970",
    "cct_url": "https://www.controletechniquemoncade.fr",
    "cat_vehicule_id": "4",
    "cat_vehicule_libelle": "Camionnette",
    "cat_energie_id": "3",
    "cat_energie_libelle": "Gaz",
    "prix_visite": 112,
    "date_application_visite": "2020-09-10",
    "prix_contre_visite_min": 15,
    "prix_contre_visite_max": 35,
    "date_application_contre_visite": "2020-09-10",
    "cct_siret": 35310553900079,
    "latitude": 43.490141,
    "longitude": -1.467443,
    "coordgeo": {
      "lon": -1.467443,
      "lat": 43.490141
    },
    "cct_statut": "actif"
  },
  {
    "cct_code_dept": "Pyrénées-Atlantiques",
    "code_postal": "64100",
    "cct_code_commune": "Bayonne",
    "cct_denomination": "CENTRE DE CONTROLE TECHNIQUE AUTO",
    "cct_adresse": "AV CPT RESPLANDY",
    "cct_tel": "559316970",
    "cct_url": "https://www.controletechniquemoncade.fr",
    "cat_vehicule_id": "5",
    "cat_vehicule_libelle": "Camping-car (moins de 3,5 tonnes)",
    "cat_energie_id": "4",
    "cat_energie_libelle": "Hybride",
    "prix_visite": 95,
    "date_application_visite": "2020-09-10",
    "prix_contre_visite_min": 15,
    "prix_contre_visite_max": 35,
    "date_application_contre_visite": "2020-09-10",
    "cct_siret": 35310553900079,
    "latitude": 43.490141,
    "longitude": -1.467443,
    "coordgeo": {
      "lon": -1.467443,
      "lat": 43.490141
    },
    "cct_statut": "actif"
  },
  {
    "cct_code_dept": "Pyrénées-Atlantiques",
    "code_postal": "64100",
    "cct_code_commune": "Bayonne",
    "cct_denomination": "CENTRE DE CONTROLE TECHNIQUE AUTO",
    "cct_adresse": "ALL DE BIARNES",
    "cct_tel": "559500306",
    "cct_url": "www.controletechniquemoncade.fr",
    "cat_vehicule_id": "2",
    "cat_vehicule_libelle": "4 x 4",
    "cat_energie_id": "3",
    "cat_energie_libelle": "Gaz",
    "prix_visite": 112,
    "date_application_visite": "2020-09-01",
    "prix_contre_visite_min": 15,
    "prix_contre_visite_max": 35,
    "date_application_contre_visite": "2020-09-01",
    "cct_siret": 35310553900087,
    "latitude": 43.502251,
    "longitude": -1.44734,
    "coordgeo": {
      "lon": -1.44734,
      "lat": 43.502251
    },
    "cct_statut": "actif"
  },
  {
    "cct_code_dept": "Pyrénées-Atlantiques",
    "code_postal": "64100",
    "cct_code_commune": "Bayonne",
    "cct_denomination": "CENTRE DE CONTROLE TECHNIQUE AUTO",
    "cct_adresse": "ALL DE BIARNES",
    "cct_tel": "559500306",
    "cct_url": "www.controletechniquemoncade.fr",
    "cat_vehicule_id": "4",
    "cat_vehicule_libelle": "Camionnette",
    "cat_energie_id": "1",
    "cat_energie_libelle": "Essence",
    "prix_visite": 95,
    "date_application_visite": "2020-09-01",
    "prix_contre_visite_min": 15,
    "prix_contre_visite_max": 35,
    "date_application_contre_visite": "2020-09-01",
    "cct_siret": 35310553900087,
    "latitude": 43.502251,
    "longitude": -1.44734,
    "coordgeo": {
      "lon": -1.44734,
      "lat": 43.502251
    },
    "cct_statut": "actif"
  },
  {
    "cct_code_dept": "Pyrénées-Atlantiques",
    "code_postal": "64270",
    "cct_code_commune": "Ramous",
    "cct_denomination": "CONTROLE TECHNIQUE PETRIAT",
    "cct_adresse": "141 RUE SANS SOUCI",
    "cct_tel": "559651249",
    "cct_url": "https://ramous.autosecurite.com/",
    "cat_vehicule_id": "5",
    "cat_vehicule_libelle": "Camping-car (moins de 3,5 tonnes)",
    "cat_energie_id": "3",
    "cat_energie_libelle": "Gaz",
    "prix_visite": 83,
    "date_application_visite": "2020-09-14",
    "prix_contre_visite_min": 10,
    "prix_contre_visite_max": 30,
    "date_application_contre_visite": "2020-09-14",
    "cct_siret": 53773214100024,
    "latitude": 43.522444,
    "longitude": -0.896867,
    "coordgeo": {
      "lon": -0.896867,
      "lat": 43.522444
    },
    "cct_statut": "actif"
  },
  {
    "cct_code_dept": "Pyrénées-Atlantiques",
    "code_postal": null,
    "cct_code_commune": "Mazères-Lezons",
    "cct_denomination": "CENTRE DE CONTROLE TECHNIQUE LAPORTE HAURET",
    "cct_adresse": "LOT 12",
    "cct_tel": "800100118",
    "cct_url": null,
    "cat_vehicule_id": "4",
    "cat_vehicule_libelle": "Camionnette",
    "cat_energie_id": "1",
    "cat_energie_libelle": "Essence",
    "prix_visite": 75,
    "date_application_visite": "2020-09-30",
    "prix_contre_visite_min": 20,
    "prix_contre_visite_max": 20,
    "date_application_contre_visite": "2020-09-30",
    "cct_siret": 75106435300038,
    "latitude": 43.269781,
    "longitude": -0.355582,
    "coordgeo": {
      "lon": -0.355582,
      "lat": 43.269781
    },
    "cct_statut": "actif"
  },
  {
    "cct_code_dept": "Pyrénées-Atlantiques",
    "code_postal": "64480",
    "cct_code_commune": "Ustaritz",
    "cct_denomination": "CENTRE DE CONTROLE AUTO DU LABOURD",
    "cct_adresse": "QUARTIER DU BOURG",
    "cct_tel": "559932929",
    "cct_url": null,
    "cat_vehicule_id": "2",
    "cat_vehicule_libelle": "4 x 4",
    "cat_energie_id": "5",
    "cat_energie_libelle": "Electrique",
    "prix_visite": 75,
    "date_application_visite": "2018-09-01",
    "prix_contre_visite_min": 10,
    "prix_contre_visite_max": 30,
    "date_application_contre_visite": "2018-09-01",
    "cct_siret": 38522914100010,
    "latitude": 43.395266,
    "longitude": -1.452874,
    "coordgeo": {
      "lon": -1.452874,
      "lat": 43.395266
    },
    "cct_statut": "actif"
  },
  {
    "cct_code_dept": "Pyrénées-Atlantiques",
    "code_postal": "64700",
    "cct_code_commune": "Hendaye",
    "cct_denomination": "TOP CONTROLE",
    "cct_adresse": "76 RTE DE BEHOBIE",
    "cct_tel": "559481995",
    "cct_url": "https://www.dekra-norisko.fr/centres-controle-technique/hendaye,64700/top-controle,s064d065",
    "cat_vehicule_id": "2",
    "cat_vehicule_libelle": "4 x 4",
    "cat_energie_id": "5",
    "cat_energie_libelle": "Electrique",
    "prix_visite": 95,
    "date_application_visite": "2020-09-15",
    "prix_contre_visite_min": 95,
    "prix_contre_visite_max": 95,
    "date_application_contre_visite": "2020-09-15",
    "cct_siret": 43129959300019,
    "latitude": 43.349718,
    "longitude": -1.772795,
    "coordgeo": {
      "lon": -1.772795,
      "lat": 43.349718
    },
    "cct_statut": "actif"
  },
  {
    "cct_code_dept": "Pyrénées-Atlantiques",
    "code_postal": "64100",
    "cct_code_commune": "Bayonne",
    "cct_denomination": "CONTROLES TECHNIQUES BASQUES",
    "cct_adresse": "10 RUE DE LA GALUPE",
    "cct_tel": "559553269",
    "cct_url": null,
    "cat_vehicule_id": "4",
    "cat_vehicule_libelle": "Camionnette",
    "cat_energie_id": "2",
    "cat_energie_libelle": "Diesel",
    "prix_visite": 112,
    "date_application_visite": "2020-09-22",
    "prix_contre_visite_min": 19,
    "prix_contre_visite_max": 34,
    "date_application_contre_visite": "2020-09-22",
    "cct_siret": 44445030800010,
    "latitude": 43.488103,
    "longitude": -1.455149,
    "coordgeo": {
      "lon": -1.455149,
      "lat": 43.488103
    },
    "cct_statut": "actif"
  },
  {
    "cct_code_dept": "Pyrénées-Atlantiques",
    "code_postal": "64100",
    "cct_code_commune": "Bayonne",
    "cct_denomination": "CONTROLES TECHNIQUES BASQUES",
    "cct_adresse": "10 RUE DE LA GALUPE",
    "cct_tel": "559553269",
    "cct_url": null,
    "cat_vehicule_id": "5",
    "cat_vehicule_libelle": "Camping-car (moins de 3,5 tonnes)",
    "cat_energie_id": "5",
    "cat_energie_libelle": "Electrique",
    "prix_visite": 112,
    "date_application_visite": "2023-03-02",
    "prix_contre_visite_min": 19,
    "prix_contre_visite_max": 34,
    "date_application_contre_visite": "2023-03-02",
    "cct_siret": 44445030800010,
    "latitude": 43.488103,
    "longitude": -1.455149,
    "coordgeo": {
      "lon": -1.455149,
      "lat": 43.488103
    },
    "cct_statut": "actif"
  },
  {
    "cct_code_dept": "Pyrénées-Atlantiques",
    "code_postal": "64240",
    "cct_code_commune": "Hasparren",
    "cct_denomination": "CONTROLES TECHNIQUES BASQUES",
    "cct_adresse": "QUA HASQUETTE",
    "cct_tel": "559291433",
    "cct_url": null,
    "cat_vehicule_id": "4",
    "cat_vehicule_libelle": "Camionnette",
    "cat_energie_id": "2",
    "cat_energie_libelle": "Diesel",
    "prix_visite": 91,
    "date_application_visite": "2020-09-14",
    "prix_contre_visite_min": 15,
    "prix_contre_visite_max": 35,
    "date_application_contre_visite": "2020-09-14",
    "cct_siret": 44445030800036,
    "latitude": 43.39189,
    "longitude": -1.307041,
    "coordgeo": {
      "lon": -1.307041,
      "lat": 43.39189
    },
    "cct_statut": "actif"
  },
  {
    "cct_code_dept": "Pyrénées-Atlantiques",
    "code_postal": "64240",
    "cct_code_commune": "Hasparren",
    "cct_denomination": "CONTROLES TECHNIQUES BASQUES",
    "cct_adresse": "QUA HASQUETTE",
    "cct_tel": "559291433",
    "cct_url": null,
    "cat_vehicule_id": "4",
    "cat_vehicule_libelle": "Camionnette",
    "cat_energie_id": "4",
    "cat_energie_libelle": "Hybride",
    "prix_visite": 112,
    "date_application_visite": "2020-09-14",
    "prix_contre_visite_min": 15,
    "prix_contre_visite_max": 40,
    "date_application_contre_visite": "2020-09-14",
    "cct_siret": 44445030800036,
    "latitude": 43.39189,
    "longitude": -1.307041,
    "coordgeo": {
      "lon": -1.307041,
      "lat": 43.39189
    },
    "cct_statut": "actif"
  },
  {
    "cct_code_dept": "Pyrénées-Atlantiques",
    "code_postal": "64100",
    "cct_code_commune": "Bayonne",
    "cct_denomination": "CONTROLES TECHNIQUES BASQUES",
    "cct_adresse": "41 ALL MARINES",
    "cct_tel": "559461559",
    "cct_url": null,
    "cat_vehicule_id": "4",
    "cat_vehicule_libelle": "Camionnette",
    "cat_energie_id": "5",
    "cat_energie_libelle": "Electrique",
    "prix_visite": 96,
    "date_application_visite": "2020-09-22",
    "prix_contre_visite_min": 16,
    "prix_contre_visite_max": 31,
    "date_application_contre_visite": "2020-09-22",
    "cct_siret": 44445030800028,
    "latitude": 43.498245,
    "longitude": -1.48741,
    "coordgeo": {
      "lon": -1.48741,
      "lat": 43.498245
    },
    "cct_statut": "actif"
  },
  {
    "cct_code_dept": "Pyrénées-Atlantiques",
    "code_postal": null,
    "cct_code_commune": "Irouléguy",
    "cct_denomination": "CONTROLE AUTOS IROULEGUY",
    "cct_adresse": "Z A EYHERRA BURU",
    "cct_tel": "559491659",
    "cct_url": null,
    "cat_vehicule_id": "2",
    "cat_vehicule_libelle": "4 x 4",
    "cat_energie_id": "2",
    "cat_energie_libelle": "Diesel",
    "prix_visite": 75,
    "date_application_visite": "2020-09-15",
    "prix_contre_visite_min": 10,
    "prix_contre_visite_max": 30,
    "date_application_contre_visite": "2020-09-15",
    "cct_siret": 49126965000025,
    "latitude": 43.174138,
    "longitude": -1.280128,
    "coordgeo": {
      "lon": -1.280128,
      "lat": 43.174138
    },
    "cct_statut": "actif"
  },
  {
    "cct_code_dept": "Pyrénées-Atlantiques",
    "code_postal": null,
    "cct_code_commune": "Irouléguy",
    "cct_denomination": "CONTROLE AUTOS IROULEGUY",
    "cct_adresse": "Z A EYHERRA BURU",
    "cct_tel": "559491659",
    "cct_url": null,
    "cat_vehicule_id": "1",
    "cat_vehicule_libelle": "Voiture Particulière",
    "cat_energie_id": "5",
    "cat_energie_libelle": "Electrique",
    "prix_visite": 85,
    "date_application_visite": "2020-09-15",
    "prix_contre_visite_min": 10,
    "prix_contre_visite_max": 30,
    "date_application_contre_visite": "2020-09-15",
    "cct_siret": 49126965000025,
    "latitude": 43.174138,
    "longitude": -1.280128,
    "coordgeo": {
      "lon": -1.280128,
      "lat": 43.174138
    },
    "cct_statut": "actif"
  },
  {
    "cct_code_dept": "Pyrénées-Atlantiques",
    "code_postal": "64200",
    "cct_code_commune": "Bassussarry",
    "cct_denomination": "CONTROLES TECHNIQUES BASQUES",
    "cct_adresse": "IMP OIHANA LOT N° 6",
    "cct_tel": "559423925",
    "cct_url": null,
    "cat_vehicule_id": "5",
    "cat_vehicule_libelle": "Camping-car (moins de 3,5 tonnes)",
    "cat_energie_id": "4",
    "cat_energie_libelle": "Hybride",
    "prix_visite": 113,
    "date_application_visite": "2020-09-23",
    "prix_contre_visite_min": 16,
    "prix_contre_visite_max": 31,
    "date_application_contre_visite": "2020-09-23",
    "cct_siret": 44445030800069,
    "latitude": 43.44541,
    "longitude": -1.485903,
    "coordgeo": {
      "lon": -1.485903,
      "lat": 43.44541
    },
    "cct_statut": "actif"
  },
  {
    "cct_code_dept": "Pyrénées-Atlantiques",
    "code_postal": "64150",
    "cct_code_commune": "Mourenx",
    "cct_denomination": "MOURENX AUTO CONTROLE",
    "cct_adresse": "29 AV CHARLES MOUREU",
    "cct_tel": "559601011",
    "cct_url": null,
    "cat_vehicule_id": "2",
    "cat_vehicule_libelle": "4 x 4",
    "cat_energie_id": "4",
    "cat_energie_libelle": "Hybride",
    "prix_visite": 76,
    "date_application_visite": "2020-09-22",
    "prix_contre_visite_min": 10,
    "prix_contre_visite_max": 20,
    "date_application_contre_visite": "2020-09-22",
    "cct_siret": 43270039100027,
    "latitude": 43.382205,
    "longitude": -0.613998,
    "coordgeo": {
      "lon": -0.613998,
      "lat": 43.382205
    },
    "cct_statut": "actif"
  },
  {
    "cct_code_dept": "Pyrénées-Atlantiques",
    "code_postal": "64000",
    "cct_code_commune": "Pau",
    "cct_denomination": "CONTROLE TECHNIQUE PAU PYRENEES",
    "cct_adresse": "9 RUE DE BORDEU",
    "cct_tel": "559846767",
    "cct_url": "DEKRA.FR",
    "cat_vehicule_id": "2",
    "cat_vehicule_libelle": "4 x 4",
    "cat_energie_id": "2",
    "cat_energie_libelle": "Diesel",
    "prix_visite": 75,
    "date_application_visite": "2020-09-14",
    "prix_contre_visite_min": 1.88,
    "prix_contre_visite_max": 20,
    "date_application_contre_visite": "2020-09-14",
    "cct_siret": 79250409400014,
    "latitude": 43.303729,
    "longitude": -0.370955,
    "coordgeo": {
      "lon": -0.370955,
      "lat": 43.303729
    },
    "cct_statut": "actif"
  },
  {
    "cct_code_dept": "Pyrénées-Atlantiques",
    "code_postal": "64000",
    "cct_code_commune": "Pau",
    "cct_denomination": "CONTROLE TECHNIQUE PAU PYRENEES",
    "cct_adresse": "9 RUE DE BORDEU",
    "cct_tel": "559846767",
    "cct_url": "DEKRA.FR",
    "cat_vehicule_id": "2",
    "cat_vehicule_libelle": "4 x 4",
    "cat_energie_id": "3",
    "cat_energie_libelle": "Gaz",
    "prix_visite": 85,
    "date_application_visite": "2020-09-14",
    "prix_contre_visite_min": 2.13,
    "prix_contre_visite_max": 20,
    "date_application_contre_visite": "2020-09-14",
    "cct_siret": 79250409400014,
    "latitude": 43.303729,
    "longitude": -0.370955,
    "coordgeo": {
      "lon": -0.370955,
      "lat": 43.303729
    },
    "cct_statut": "actif"
  },
  {
    "cct_code_dept": "Pyrénées-Atlantiques",
    "code_postal": "64000",
    "cct_code_commune": "Pau",
    "cct_denomination": "CONTROLE TECHNIQUE PAU PYRENEES",
    "cct_adresse": "9 RUE DE BORDEU",
    "cct_tel": "559846767",
    "cct_url": "DEKRA.FR",
    "cat_vehicule_id": "4",
    "cat_vehicule_libelle": "Camionnette",
    "cat_energie_id": "5",
    "cat_energie_libelle": "Electrique",
    "prix_visite": 85,
    "date_application_visite": "2020-09-14",
    "prix_contre_visite_min": 2.13,
    "prix_contre_visite_max": 20,
    "date_application_contre_visite": "2020-09-14",
    "cct_siret": 79250409400014,
    "latitude": 43.303729,
    "longitude": -0.370955,
    "coordgeo": {
      "lon": -0.370955,
      "lat": 43.303729
    },
    "cct_statut": "actif"
  },
  {
    "cct_code_dept": "Pyrénées-Atlantiques",
    "code_postal": "64000",
    "cct_code_commune": "Pau",
    "cct_denomination": "CONTROLE TECHNIQUE PAU PYRENEES",
    "cct_adresse": "9 RUE DE BORDEU",
    "cct_tel": "559846767",
    "cct_url": "DEKRA.FR",
    "cat_vehicule_id": "3",
    "cat_vehicule_libelle": "Voiture de collection",
    "cat_energie_id": "4",
    "cat_energie_libelle": "Hybride",
    "prix_visite": 85,
    "date_application_visite": "2020-09-14",
    "prix_contre_visite_min": 2.13,
    "prix_contre_visite_max": 20,
    "date_application_contre_visite": "2020-09-14",
    "cct_siret": 79250409400014,
    "latitude": 43.303729,
    "longitude": -0.370955,
    "coordgeo": {
      "lon": -0.370955,
      "lat": 43.303729
    },
    "cct_statut": "actif"
  },
  {
    "cct_code_dept": "Pyrénées-Atlantiques",
    "code_postal": "64420",
    "cct_code_commune": "Nousty",
    "cct_denomination": "L.G. CONTROLE AUTO",
    "cct_adresse": "1 RUE DE LA ZONE ARTISANALE",
    "cct_tel": "559041783",
    "cct_url": "www.dekra-norisko.fr",
    "cat_vehicule_id": "3",
    "cat_vehicule_libelle": "Voiture de collection",
    "cat_energie_id": "5",
    "cat_energie_libelle": "Electrique",
    "prix_visite": 74,
    "date_application_visite": "2020-09-03",
    "prix_contre_visite_min": 25,
    "prix_contre_visite_max": 35,
    "date_application_contre_visite": "2020-09-03",
    "cct_siret": 81948328000015,
    "latitude": 43.273601,
    "longitude": -0.211689,
    "coordgeo": {
      "lon": -0.211689,
      "lat": 43.273601
    },
    "cct_statut": "actif"
  },
  {
    "cct_code_dept": "Pyrénées-Atlantiques",
    "code_postal": "64140",
    "cct_code_commune": "Lons",
    "cct_denomination": "TECHNICONTROL",
    "cct_adresse": "11 AV ERCKMANN CHATRIAN",
    "cct_tel": "559327218",
    "cct_url": "https://ct.rdv-online.fr/282-Lons/rendez-vous",
    "cat_vehicule_id": "5",
    "cat_vehicule_libelle": "Camping-car (moins de 3,5 tonnes)",
    "cat_energie_id": "5",
    "cat_energie_libelle": "Electrique",
    "prix_visite": 74,
    "date_application_visite": "2020-09-15",
    "prix_contre_visite_min": 7,
    "prix_contre_visite_max": 23,
    "date_application_contre_visite": "2020-09-15",
    "cct_siret": 33834747900044,
    "latitude": 43.324857,
    "longitude": -0.381847,
    "coordgeo": {
      "lon": -0.381847,
      "lat": 43.324857
    },
    "cct_statut": "actif"
  },
  {
    "cct_code_dept": "Pyrénées-Atlantiques",
    "code_postal": "64170",
    "cct_code_commune": "Artix",
    "cct_denomination": "CONTROLE TECHNIQUE AUTOMOBILE ARTISIEN",
    "cct_adresse": null,
    "cct_tel": "559539029",
    "cct_url": "autovision.fr",
    "cat_vehicule_id": "5",
    "cat_vehicule_libelle": "Camping-car (moins de 3,5 tonnes)",
    "cat_energie_id": "4",
    "cat_energie_libelle": "Hybride",
    "prix_visite": 75,
    "date_application_visite": "2020-09-02",
    "prix_contre_visite_min": 10,
    "prix_contre_visite_max": 20,
    "date_application_contre_visite": "2020-09-02",
    "cct_siret": 48352865900012,
    "latitude": null,
    "longitude": null,
    "coordgeo": null,
    "cct_statut": "actif"
  },
  {
    "cct_code_dept": "Pyrénées-Atlantiques",
    "code_postal": "09120",
    "cct_code_commune": "Artix",
    "cct_denomination": "CONTROLE TECHNIQUE AUTOMOBILE ARTISIEN",
    "cct_adresse": null,
    "cct_tel": "559539029",
    "cct_url": "autovision.fr",
    "cat_vehicule_id": "3",
    "cat_vehicule_libelle": "Voiture de collection",
    "cat_energie_id": "5",
    "cat_energie_libelle": "Electrique",
    "prix_visite": 75,
    "date_application_visite": "2020-09-02",
    "prix_contre_visite_min": 10,
    "prix_contre_visite_max": 20,
    "date_application_contre_visite": "2020-09-02",
    "cct_siret": 48352865900012,
    "latitude": null,
    "longitude": null,
    "coordgeo": null,
    "cct_statut": "actif"
  },
  {
    "cct_code_dept": "Pyrénées-Atlantiques",
    "code_postal": null,
    "cct_code_commune": "Arzacq-Arraziguet",
    "cct_denomination": "CONTROLE TECHNIQUE ARZACQUOIS",
    "cct_adresse": "ZONE ARTISANALE",
    "cct_tel": "559000150",
    "cct_url": null,
    "cat_vehicule_id": "4",
    "cat_vehicule_libelle": "Camionnette",
    "cat_energie_id": "5",
    "cat_energie_libelle": "Electrique",
    "prix_visite": 72,
    "date_application_visite": "2023-01-03",
    "prix_contre_visite_min": 5,
    "prix_contre_visite_max": 26,
    "date_application_contre_visite": "2020-09-17",
    "cct_siret": 52794001900013,
    "latitude": null,
    "longitude": null,
    "coordgeo": null,
    "cct_statut": "actif"
  },
  {
    "cct_code_dept": "Pyrénées-Atlantiques",
    "code_postal": null,
    "cct_code_commune": "Arzacq-Arraziguet",
    "cct_denomination": "CONTROLE TECHNIQUE ARZACQUOIS",
    "cct_adresse": "ZONE ARTISANALE",
    "cct_tel": "559000150",
    "cct_url": null,
    "cat_vehicule_id": "5",
    "cat_vehicule_libelle": "Camping-car (moins de 3,5 tonnes)",
    "cat_energie_id": "2",
    "cat_energie_libelle": "Diesel",
    "prix_visite": 70,
    "date_application_visite": "2020-09-17",
    "prix_contre_visite_min": 5,
    "prix_contre_visite_max": 26,
    "date_application_contre_visite": "2020-09-17",
    "cct_siret": 52794001900013,
    "latitude": null,
    "longitude": null,
    "coordgeo": null,
    "cct_statut": "actif"
  },
  {
    "cct_code_dept": "Pyrénées-Atlantiques",
    "code_postal": "64520",
    "cct_code_commune": "Bardos",
    "cct_denomination": "CONTROLES TECHNIQUES BASQUES",
    "cct_adresse": "RTE DE BIDACHE LE BOURG",
    "cct_tel": "559568480",
    "cct_url": null,
    "cat_vehicule_id": "1",
    "cat_vehicule_libelle": "Voiture Particulière",
    "cat_energie_id": "1",
    "cat_energie_libelle": "Essence",
    "prix_visite": 80,
    "date_application_visite": "2020-09-17",
    "prix_contre_visite_min": 15,
    "prix_contre_visite_max": 40,
    "date_application_contre_visite": "2020-09-17",
    "cct_siret": 44445030800077,
    "latitude": null,
    "longitude": null,
    "coordgeo": null,
    "cct_statut": "actif"
  },
  {
    "cct_code_dept": "Pyrénées-Atlantiques",
    "code_postal": "65100",
    "cct_code_commune": "Ger",
    "cct_denomination": "CONTROLE TECHNIQUE GEROIS - CTG",
    "cct_adresse": "120 RTE DE MARCOTTE CAPSUS",
    "cct_tel": "562315402",
    "cct_url": null,
    "cat_vehicule_id": "5",
    "cat_vehicule_libelle": "Camping-car (moins de 3,5 tonnes)",
    "cat_energie_id": "4",
    "cat_energie_libelle": "Hybride",
    "prix_visite": 80,
    "date_application_visite": "2020-09-10",
    "prix_contre_visite_min": 30,
    "prix_contre_visite_max": 40,
    "date_application_contre_visite": "2020-09-10",
    "cct_siret": 50362492600013,
    "latitude": 43.247056,
    "longitude": -0.056897,
    "coordgeo": {
      "lon": -0.056897,
      "lat": 43.247056
    },
    "cct_statut": "actif"
  },
  {
    "cct_code_dept": "Pyrénées-Atlantiques",
    "code_postal": "64300",
    "cct_code_commune": "Orthez",
    "cct_denomination": "CONTROLE TECHNIQUE ORTHEZIEN",
    "cct_adresse": "49 RTE DE BAYONNE",
    "cct_tel": "559699932",
    "cct_url": "www.autosur.fr",
    "cat_vehicule_id": "3",
    "cat_vehicule_libelle": "Voiture de collection",
    "cat_energie_id": "4",
    "cat_energie_libelle": "Hybride",
    "prix_visite": 73,
    "date_application_visite": "2018-07-01",
    "prix_contre_visite_min": 8,
    "prix_contre_visite_max": 20,
    "date_application_contre_visite": "2018-07-01",
    "cct_siret": 38400674800022,
    "latitude": 43.48918,
    "longitude": -0.800493,
    "coordgeo": {
      "lon": -0.800493,
      "lat": 43.48918
    },
    "cct_statut": "actif"
  },
  {
    "cct_code_dept": "Pyrénées-Atlantiques",
    "code_postal": "64700",
    "cct_code_commune": "Urrugne",
    "cct_denomination": "CT IRASTORZA",
    "cct_adresse": "1405 RTE D IBARDIN",
    "cct_tel": "610933799",
    "cct_url": null,
    "cat_vehicule_id": "2",
    "cat_vehicule_libelle": "4 x 4",
    "cat_energie_id": "3",
    "cat_energie_libelle": "Gaz",
    "prix_visite": 90,
    "date_application_visite": "2020-10-22",
    "prix_contre_visite_min": 20,
    "prix_contre_visite_max": 40,
    "date_application_contre_visite": "2020-10-22",
    "cct_siret": 85268083400011,
    "latitude": 43.350932,
    "longitude": -1.688708,
    "coordgeo": {
      "lon": -1.688708,
      "lat": 43.350932
    },
    "cct_statut": "actif"
  },
  {
    "cct_code_dept": "Pyrénées-Atlantiques",
    "code_postal": "64800",
    "cct_code_commune": "Coarraze",
    "cct_denomination": "CENTRE DE CONTROLE TECHNIQUE NAYAIS",
    "cct_adresse": "AV DE LA GARE",
    "cct_tel": "559929107",
    "cct_url": null,
    "cat_vehicule_id": "4",
    "cat_vehicule_libelle": "Camionnette",
    "cat_energie_id": "1",
    "cat_energie_libelle": "Essence",
    "prix_visite": 75,
    "date_application_visite": "2020-09-30",
    "prix_contre_visite_min": 20,
    "prix_contre_visite_max": 20,
    "date_application_contre_visite": "2020-09-30",
    "cct_siret": 34288728800021,
    "latitude": 43.181768,
    "longitude": -0.242952,
    "coordgeo": {
      "lon": -0.242952,
      "lat": 43.181768
    },
    "cct_statut": "actif"
  },
  {
    "cct_code_dept": "Pyrénées-Atlantiques",
    "code_postal": "64800",
    "cct_code_commune": "Coarraze",
    "cct_denomination": "CENTRE DE CONTROLE TECHNIQUE NAYAIS",
    "cct_adresse": "AV DE LA GARE",
    "cct_tel": "559929107",
    "cct_url": null,
    "cat_vehicule_id": "3",
    "cat_vehicule_libelle": "Voiture de collection",
    "cat_energie_id": "4",
    "cat_energie_libelle": "Hybride",
    "prix_visite": 75,
    "date_application_visite": "2020-09-30",
    "prix_contre_visite_min": 20,
    "prix_contre_visite_max": 20,
    "date_application_contre_visite": "2020-09-30",
    "cct_siret": 34288728800021,
    "latitude": 43.181768,
    "longitude": -0.242952,
    "coordgeo": {
      "lon": -0.242952,
      "lat": 43.181768
    },
    "cct_statut": "actif"
  },
  {
    "cct_code_dept": "Pyrénées-Atlantiques",
    "code_postal": null,
    "cct_code_commune": "Saint-Pée-sur-Nivelle",
    "cct_denomination": "ETCHEKOA",
    "cct_adresse": "RTE DU LAC",
    "cct_tel": "559545459",
    "cct_url": "06410@securitest.org",
    "cat_vehicule_id": "2",
    "cat_vehicule_libelle": "4 x 4",
    "cat_energie_id": "5",
    "cat_energie_libelle": "Electrique",
    "prix_visite": 85,
    "date_application_visite": "2020-09-16",
    "prix_contre_visite_min": 20,
    "prix_contre_visite_max": 40,
    "date_application_contre_visite": "2020-09-16",
    "cct_siret": 38795646900010,
    "latitude": 43.351003,
    "longitude": -1.549343,
    "coordgeo": {
      "lon": -1.549343,
      "lat": 43.351003
    },
    "cct_statut": "actif"
  },
  {
    "cct_code_dept": "Pyrénées-Atlantiques",
    "code_postal": null,
    "cct_code_commune": "Saint-Pée-sur-Nivelle",
    "cct_denomination": "ETCHEKOA",
    "cct_adresse": "RTE DU LAC",
    "cct_tel": "559545459",
    "cct_url": "06410@securitest.org",
    "cat_vehicule_id": "4",
    "cat_vehicule_libelle": "Camionnette",
    "cat_energie_id": "2",
    "cat_energie_libelle": "Diesel",
    "prix_visite": 80,
    "date_application_visite": "2020-09-16",
    "prix_contre_visite_min": 20,
    "prix_contre_visite_max": 40,
    "date_application_contre_visite": "2020-09-16",
    "cct_siret": 38795646900010,
    "latitude": 43.351003,
    "longitude": -1.549343,
    "coordgeo": {
      "lon": -1.549343,
      "lat": 43.351003
    },
    "cct_statut": "actif"
  },
  {
    "cct_code_dept": "Pyrénées-Atlantiques",
    "code_postal": "64700",
    "cct_code_commune": "Urrugne",
    "cct_denomination": "ARGI BERRI",
    "cct_adresse": "LOT ARTIS MARTIN-ZAHARENIA",
    "cct_tel": "559260206",
    "cct_url": "www.urrugne.securitest.fr",
    "cat_vehicule_id": "1",
    "cat_vehicule_libelle": "Voiture Particulière",
    "cat_energie_id": "5",
    "cat_energie_libelle": "Electrique",
    "prix_visite": 95,
    "date_application_visite": "2020-09-02",
    "prix_contre_visite_min": 25,
    "prix_contre_visite_max": 35,
    "date_application_contre_visite": "2020-09-02",
    "cct_siret": 49036628300029,
    "latitude": null,
    "longitude": null,
    "coordgeo": null,
    "cct_statut": "actif"
  },
  {
    "cct_code_dept": "Pyrénées-Atlantiques",
    "code_postal": "64700",
    "cct_code_commune": "Urrugne",
    "cct_denomination": "ARGI BERRI",
    "cct_adresse": "LOT ARTIS MARTIN-ZAHARENIA",
    "cct_tel": "559260206",
    "cct_url": "www.urrugne.securitest.fr",
    "cat_vehicule_id": "1",
    "cat_vehicule_libelle": "Voiture Particulière",
    "cat_energie_id": "3",
    "cat_energie_libelle": "Gaz",
    "prix_visite": 95,
    "date_application_visite": "2020-09-02",
    "prix_contre_visite_min": 25,
    "prix_contre_visite_max": 35,
    "date_application_contre_visite": "2020-09-02",
    "cct_siret": 49036628300029,
    "latitude": null,
    "longitude": null,
    "coordgeo": null,
    "cct_statut": "actif"
  },
  {
    "cct_code_dept": "Pyrénées-Atlantiques",
    "code_postal": "64700",
    "cct_code_commune": "Urrugne",
    "cct_denomination": "ARGI BERRI",
    "cct_adresse": "LOT ARTIS MARTIN-ZAHARENIA",
    "cct_tel": "559260206",
    "cct_url": "www.urrugne.securitest.fr",
    "cat_vehicule_id": "3",
    "cat_vehicule_libelle": "Voiture de collection",
    "cat_energie_id": "2",
    "cat_energie_libelle": "Diesel",
    "prix_visite": 78,
    "date_application_visite": "2020-09-02",
    "prix_contre_visite_min": 25,
    "prix_contre_visite_max": 35,
    "date_application_contre_visite": "2020-09-02",
    "cct_siret": 49036628300029,
    "latitude": null,
    "longitude": null,
    "coordgeo": null,
    "cct_statut": "actif"
  },
  {
    "cct_code_dept": "Pyrénées-Atlantiques",
    "code_postal": null,
    "cct_code_commune": "Serres-Castet",
    "cct_denomination": "AUTO CONTROLE SERRES CASTET",
    "cct_adresse": "3449 RTE DE BORDEAUX",
    "cct_tel": "559900872",
    "cct_url": null,
    "cat_vehicule_id": "2",
    "cat_vehicule_libelle": "4 x 4",
    "cat_energie_id": "4",
    "cat_energie_libelle": "Hybride",
    "prix_visite": 81,
    "date_application_visite": "2023-02-01",
    "prix_contre_visite_min": 5,
    "prix_contre_visite_max": 20,
    "date_application_contre_visite": "2020-09-24",
    "cct_siret": 52087476900018,
    "latitude": 43.388962,
    "longitude": -0.380617,
    "coordgeo": {
      "lon": -0.380617,
      "lat": 43.388962
    },
    "cct_statut": "actif"
  },
  {
    "cct_code_dept": "Pyrénées-Atlantiques",
    "code_postal": null,
    "cct_code_commune": "Serres-Castet",
    "cct_denomination": "AUTO CONTROLE SERRES CASTET",
    "cct_adresse": "3449 RTE DE BORDEAUX",
    "cct_tel": "559900872",
    "cct_url": null,
    "cat_vehicule_id": "1",
    "cat_vehicule_libelle": "Voiture Particulière",
    "cat_energie_id": "5",
    "cat_energie_libelle": "Electrique",
    "prix_visite": 81,
    "date_application_visite": "2022-12-17",
    "prix_contre_visite_min": 5,
    "prix_contre_visite_max": 20,
    "date_application_contre_visite": "2020-09-24",
    "cct_siret": 52087476900018,
    "latitude": 43.388962,
    "longitude": -0.380617,
    "coordgeo": {
      "lon": -0.380617,
      "lat": 43.388962
    },
    "cct_statut": "actif"
  },
  {
    "cct_code_dept": "Pyrénées-Atlantiques",
    "code_postal": null,
    "cct_code_commune": "Serres-Castet",
    "cct_denomination": "AUTO CONTROLE SERRES CASTET",
    "cct_adresse": "3449 RTE DE BORDEAUX",
    "cct_tel": "559900872",
    "cct_url": null,
    "cat_vehicule_id": "1",
    "cat_vehicule_libelle": "Voiture Particulière",
    "cat_energie_id": "1",
    "cat_energie_libelle": "Essence",
    "prix_visite": 80,
    "date_application_visite": "2020-09-24",
    "prix_contre_visite_min": 5,
    "prix_contre_visite_max": 20,
    "date_application_contre_visite": "2020-09-24",
    "cct_siret": 52087476900018,
    "latitude": 43.388962,
    "longitude": -0.380617,
    "coordgeo": {
      "lon": -0.380617,
      "lat": 43.388962
    },
    "cct_statut": "actif"
  },
  {
    "cct_code_dept": "Pyrénées-Atlantiques",
    "code_postal": "64300",
    "cct_code_commune": "Orthez",
    "cct_denomination": "MALCORRA-URREGGA MICHEL",
    "cct_adresse": "162 AV ADRIEN PLANTE",
    "cct_tel": "559671549",
    "cct_url": "https://orthez.securitest.fr/",
    "cat_vehicule_id": "3",
    "cat_vehicule_libelle": "Voiture de collection",
    "cat_energie_id": "4",
    "cat_energie_libelle": "Hybride",
    "prix_visite": 73,
    "date_application_visite": "2020-09-01",
    "prix_contre_visite_min": 8,
    "prix_contre_visite_max": 21,
    "date_application_contre_visite": "2020-09-01",
    "cct_siret": 42890394200020,
    "latitude": 43.48408,
    "longitude": -0.760826,
    "coordgeo": {
      "lon": -0.760826,
      "lat": 43.48408
    },
    "cct_statut": "actif"
  },
  {
    "cct_code_dept": "Pyrénées-Atlantiques",
    "code_postal": "64340",
    "cct_code_commune": "Boucau",
    "cct_denomination": "CONTROLE TECHNIQUE MONCADE",
    "cct_adresse": "ZONE ARTISANALE DU BAZE",
    "cct_tel": "559455652",
    "cct_url": "https://www.controletechniquemoncade.fr",
    "cat_vehicule_id": "1",
    "cat_vehicule_libelle": "Voiture Particulière",
    "cat_energie_id": "5",
    "cat_energie_libelle": "Electrique",
    "prix_visite": 112,
    "date_application_visite": "2020-09-10",
    "prix_contre_visite_min": 15,
    "prix_contre_visite_max": 35,
    "date_application_contre_visite": "2020-09-10",
    "cct_siret": 75314822000019,
    "latitude": 43.527266,
    "longitude": -1.495704,
    "coordgeo": {
      "lon": -1.495704,
      "lat": 43.527266
    },
    "cct_statut": "actif"
  },
  {
    "cct_code_dept": "Pyrénées-Atlantiques",
    "code_postal": null,
    "cct_code_commune": "Louvie-Juzon",
    "cct_denomination": "SOCIETE D'EXPLOITATION CENTRE DE CONTROLE BERSANS",
    "cct_adresse": "12 AV ARISTIDE BRIAND",
    "cct_tel": "559056326",
    "cct_url": null,
    "cat_vehicule_id": "4",
    "cat_vehicule_libelle": "Camionnette",
    "cat_energie_id": "5",
    "cat_energie_libelle": "Electrique",
    "prix_visite": 75,
    "date_application_visite": "2020-09-01",
    "prix_contre_visite_min": 15,
    "prix_contre_visite_max": 20,
    "date_application_contre_visite": "2020-09-01",
    "cct_siret": 41036171100022,
    "latitude": 43.096976,
    "longitude": -0.417034,
    "coordgeo": {
      "lon": -0.417034,
      "lat": 43.096976
    },
    "cct_statut": "actif"
  },
  {
    "cct_code_dept": "Pyrénées-Atlantiques",
    "code_postal": null,
    "cct_code_commune": "Louvie-Juzon",
    "cct_denomination": "SOCIETE D'EXPLOITATION CENTRE DE CONTROLE BERSANS",
    "cct_adresse": "12 AV ARISTIDE BRIAND",
    "cct_tel": "559056326",
    "cct_url": null,
    "cat_vehicule_id": "3",
    "cat_vehicule_libelle": "Voiture de collection",
    "cat_energie_id": "2",
    "cat_energie_libelle": "Diesel",
    "prix_visite": 70,
    "date_application_visite": "2020-09-01",
    "prix_contre_visite_min": 15,
    "prix_contre_visite_max": 20,
    "date_application_contre_visite": "2020-09-01",
    "cct_siret": 41036171100022,
    "latitude": 43.096976,
    "longitude": -0.417034,
    "coordgeo": {
      "lon": -0.417034,
      "lat": 43.096976
    },
    "cct_statut": "actif"
  },
  {
    "cct_code_dept": "Pyrénées-Atlantiques",
    "code_postal": "64190",
    "cct_code_commune": "Navarrenx",
    "cct_denomination": "CENTRE DE CONTROLE TECNIQUE AUTOMOBILE DES REMPARTS",
    "cct_adresse": "AV DE MOURENX",
    "cct_tel": "559660462",
    "cct_url": null,
    "cat_vehicule_id": "2",
    "cat_vehicule_libelle": "4 x 4",
    "cat_energie_id": "5",
    "cat_energie_libelle": "Electrique",
    "prix_visite": 76,
    "date_application_visite": "2020-09-16",
    "prix_contre_visite_min": 10,
    "prix_contre_visite_max": 31,
    "date_application_contre_visite": "2020-09-16",
    "cct_siret": 38954466900010,
    "latitude": 43.322161,
    "longitude": -0.756612,
    "coordgeo": {
      "lon": -0.756612,
      "lat": 43.322161
    },
    "cct_statut": "actif"
  },
  {
    "cct_code_dept": "Pyrénées-Atlantiques",
    "code_postal": "64190",
    "cct_code_commune": "Navarrenx",
    "cct_denomination": "CENTRE DE CONTROLE TECNIQUE AUTOMOBILE DES REMPARTS",
    "cct_adresse": "AV DE MOURENX",
    "cct_tel": "559660462",
    "cct_url": null,
    "cat_vehicule_id": "3",
    "cat_vehicule_libelle": "Voiture de collection",
    "cat_energie_id": "2",
    "cat_energie_libelle": "Diesel",
    "prix_visite": 76,
    "date_application_visite": "2020-09-16",
    "prix_contre_visite_min": 10,
    "prix_contre_visite_max": 31,
    "date_application_contre_visite": "2020-09-16",
    "cct_siret": 38954466900010,
    "latitude": 43.322161,
    "longitude": -0.756612,
    "coordgeo": {
      "lon": -0.756612,
      "lat": 43.322161
    },
    "cct_statut": "actif"
  },
  {
    "cct_code_dept": "Pyrénées-Atlantiques",
    "code_postal": null,
    "cct_code_commune": "Amendeuix-Oneix",
    "cct_denomination": "AUTO CONTROLE AMIKUZE",
    "cct_adresse": "RTE DE BIDACHE",
    "cct_tel": "559656595",
    "cct_url": "www.auto-controle-amikuze.fr",
    "cat_vehicule_id": "4",
    "cat_vehicule_libelle": "Camionnette",
    "cat_energie_id": "3",
    "cat_energie_libelle": "Gaz",
    "prix_visite": 93,
    "date_application_visite": "2019-07-01",
    "prix_contre_visite_min": 10,
    "prix_contre_visite_max": 20,
    "date_application_contre_visite": "2019-07-01",
    "cct_siret": 45020211400010,
    "latitude": 43.342288,
    "longitude": -1.045252,
    "coordgeo": {
      "lon": -1.045252,
      "lat": 43.342288
    },
    "cct_statut": "actif"
  },
  {
    "cct_code_dept": "Pyrénées-Atlantiques",
    "code_postal": null,
    "cct_code_commune": "Amendeuix-Oneix",
    "cct_denomination": "AUTO CONTROLE AMIKUZE",
    "cct_adresse": "RTE DE BIDACHE",
    "cct_tel": "559656595",
    "cct_url": "www.auto-controle-amikuze.fr",
    "cat_vehicule_id": "5",
    "cat_vehicule_libelle": "Camping-car (moins de 3,5 tonnes)",
    "cat_energie_id": "1",
    "cat_energie_libelle": "Essence",
    "prix_visite": 76.5,
    "date_application_visite": "2019-07-01",
    "prix_contre_visite_min": 10,
    "prix_contre_visite_max": 20,
    "date_application_contre_visite": "2019-07-01",
    "cct_siret": 45020211400010,
    "latitude": 43.342288,
    "longitude": -1.045252,
    "coordgeo": {
      "lon": -1.045252,
      "lat": 43.342288
    },
    "cct_statut": "actif"
  },
  {
    "cct_code_dept": "Pyrénées-Atlantiques",
    "code_postal": null,
    "cct_code_commune": "Amendeuix-Oneix",
    "cct_denomination": "AUTO CONTROLE AMIKUZE",
    "cct_adresse": "RTE DE BIDACHE",
    "cct_tel": "559656595",
    "cct_url": "www.auto-controle-amikuze.fr",
    "cat_vehicule_id": "3",
    "cat_vehicule_libelle": "Voiture de collection",
    "cat_energie_id": "3",
    "cat_energie_libelle": "Gaz",
    "prix_visite": 93,
    "date_application_visite": "2019-07-01",
    "prix_contre_visite_min": 10,
    "prix_contre_visite_max": 20,
    "date_application_contre_visite": "2019-07-01",
    "cct_siret": 45020211400010,
    "latitude": 43.342288,
    "longitude": -1.045252,
    "coordgeo": {
      "lon": -1.045252,
      "lat": 43.342288
    },
    "cct_statut": "actif"
  },
  {
    "cct_code_dept": "Pyrénées-Atlantiques",
    "code_postal": null,
    "cct_code_commune": "Oloron-Sainte-Marie",
    "cct_denomination": "AUTO BEARN CONTROLE",
    "cct_adresse": "27 AV TRISTAN DEREME",
    "cct_tel": "559343438",
    "cct_url": "https://www.auto-bearn-controle.com",
    "cat_vehicule_id": "1",
    "cat_vehicule_libelle": "Voiture Particulière",
    "cat_energie_id": "3",
    "cat_energie_libelle": "Gaz",
    "prix_visite": 75,
    "date_application_visite": "2020-09-15",
    "prix_contre_visite_min": 10,
    "prix_contre_visite_max": 20,
    "date_application_contre_visite": "2022-09-29",
    "cct_siret": 49408408000014,
    "latitude": 43.186481,
    "longitude": -0.622451,
    "coordgeo": {
      "lon": -0.622451,
      "lat": 43.186481
    },
    "cct_statut": "actif"
  },
  {
    "cct_code_dept": "Pyrénées-Atlantiques",
    "code_postal": null,
    "cct_code_commune": "Serres-Castet",
    "cct_denomination": "CONTROLE TECHNIQUE SERROIS",
    "cct_adresse": "RUE D'ARTOUSTE",
    "cct_tel": "683292946",
    "cct_url": "http://www.controle-technique-serrois.fr",
    "cat_vehicule_id": "2",
    "cat_vehicule_libelle": "4 x 4",
    "cat_energie_id": "5",
    "cat_energie_libelle": "Electrique",
    "prix_visite": 85,
    "date_application_visite": "2020-09-11",
    "prix_contre_visite_min": 15,
    "prix_contre_visite_max": 25,
    "date_application_contre_visite": "2020-09-11",
    "cct_siret": 41204299600030,
    "latitude": 43.364885,
    "longitude": -0.386945,
    "coordgeo": {
      "lon": -0.386945,
      "lat": 43.364885
    },
    "cct_statut": "actif"
  },
  {
    "cct_code_dept": "Pyrénées-Atlantiques",
    "code_postal": null,
    "cct_code_commune": "Serres-Castet",
    "cct_denomination": "CONTROLE TECHNIQUE SERROIS",
    "cct_adresse": "RUE D'ARTOUSTE",
    "cct_tel": "683292946",
    "cct_url": "http://www.controle-technique-serrois.fr",
    "cat_vehicule_id": "4",
    "cat_vehicule_libelle": "Camionnette",
    "cat_energie_id": "2",
    "cat_energie_libelle": "Diesel",
    "prix_visite": 75,
    "date_application_visite": "2020-09-11",
    "prix_contre_visite_min": 15,
    "prix_contre_visite_max": 25,
    "date_application_contre_visite": "2020-09-11",
    "cct_siret": 41204299600030,
    "latitude": 43.364885,
    "longitude": -0.386945,
    "coordgeo": {
      "lon": -0.386945,
      "lat": 43.364885
    },
    "cct_statut": "actif"
  },
  {
    "cct_code_dept": "Pyrénées-Atlantiques",
    "code_postal": null,
    "cct_code_commune": "Serres-Castet",
    "cct_denomination": "CONTROLE TECHNIQUE SERROIS",
    "cct_adresse": "RUE D'ARTOUSTE",
    "cct_tel": "683292946",
    "cct_url": "http://www.controle-technique-serrois.fr",
    "cat_vehicule_id": "1",
    "cat_vehicule_libelle": "Voiture Particulière",
    "cat_energie_id": "3",
    "cat_energie_libelle": "Gaz",
    "prix_visite": 85,
    "date_application_visite": "2020-09-11",
    "prix_contre_visite_min": 15,
    "prix_contre_visite_max": 25,
    "date_application_contre_visite": "2020-09-11",
    "cct_siret": 41204299600030,
    "latitude": 43.364885,
    "longitude": -0.386945,
    "coordgeo": {
      "lon": -0.386945,
      "lat": 43.364885
    },
    "cct_statut": "actif"
  },
  {
    "cct_code_dept": "Pyrénées-Atlantiques",
    "code_postal": null,
    "cct_code_commune": "Serres-Castet",
    "cct_denomination": "CONTROLE TECHNIQUE SERROIS",
    "cct_adresse": "RUE D'ARTOUSTE",
    "cct_tel": "683292946",
    "cct_url": "http://www.controle-technique-serrois.fr",
    "cat_vehicule_id": "3",
    "cat_vehicule_libelle": "Voiture de collection",
    "cat_energie_id": "3",
    "cat_energie_libelle": "Gaz",
    "prix_visite": 85,
    "date_application_visite": "2020-09-11",
    "prix_contre_visite_min": 15,
    "prix_contre_visite_max": 25,
    "date_application_contre_visite": "2020-09-11",
    "cct_siret": 41204299600030,
    "latitude": 43.364885,
    "longitude": -0.386945,
    "coordgeo": {
      "lon": -0.386945,
      "lat": 43.364885
    },
    "cct_statut": "actif"
  },
  {
    "cct_code_dept": "Pyrénées-Atlantiques",
    "code_postal": "64700",
    "cct_code_commune": "Hendaye",
    "cct_denomination": "HENDAYE CONTROLE",
    "cct_adresse": "RUE DE L AUTOPORT",
    "cct_tel": "559480550",
    "cct_url": null,
    "cat_vehicule_id": "5",
    "cat_vehicule_libelle": "Camping-car (moins de 3,5 tonnes)",
    "cat_energie_id": "3",
    "cat_energie_libelle": "Gaz",
    "prix_visite": 110,
    "date_application_visite": "2020-08-31",
    "prix_contre_visite_min": 25,
    "prix_contre_visite_max": 40,
    "date_application_contre_visite": "2020-08-31",
    "cct_siret": 38755607900011,
    "latitude": 43.346956,
    "longitude": -1.77108,
    "coordgeo": {
      "lon": -1.77108,
      "lat": 43.346956
    },
    "cct_statut": "actif"
  },
  {
    "cct_code_dept": "Pyrénées-Atlantiques",
    "code_postal": null,
    "cct_code_commune": "Morlaàs",
    "cct_denomination": "SAS C.T.T.V.",
    "cct_adresse": "RUE DES BRUYERES",
    "cct_tel": "617018346",
    "cct_url": null,
    "cat_vehicule_id": "4",
    "cat_vehicule_libelle": "Camionnette",
    "cat_energie_id": "1",
    "cat_energie_libelle": "Essence",
    "prix_visite": 70,
    "date_application_visite": "2020-12-21",
    "prix_contre_visite_min": 30,
    "prix_contre_visite_max": 30,
    "date_application_contre_visite": "2020-12-21",
    "cct_siret": 83190037800017,
    "latitude": 43.32919,
    "longitude": -0.302507,
    "coordgeo": {
      "lon": -0.302507,
      "lat": 43.32919
    },
    "cct_statut": "actif"
  },
  {
    "cct_code_dept": "Pyrénées-Atlantiques",
    "code_postal": "64600",
    "cct_code_commune": "Anglet",
    "cct_denomination": "TK CONTROLE TECHNIQUE",
    "cct_adresse": "34 RTE DE PITOYS",
    "cct_tel": "554810425",
    "cct_url": null,
    "cat_vehicule_id": "2",
    "cat_vehicule_libelle": "4 x 4",
    "cat_energie_id": "5",
    "cat_energie_libelle": "Electrique",
    "prix_visite": 90,
    "date_application_visite": "2022-03-02",
    "prix_contre_visite_min": 10,
    "prix_contre_visite_max": 20,
    "date_application_contre_visite": "2022-03-02",
    "cct_siret": 82088397300027,
    "latitude": 43.463689,
    "longitude": -1.516014,
    "coordgeo": {
      "lon": -1.516014,
      "lat": 43.463689
    },
    "cct_statut": "actif"
  },
  {
    "cct_code_dept": "Pyrénées-Atlantiques",
    "code_postal": "64000",
    "cct_code_commune": "Pau",
    "cct_denomination": "CONTROLE AUTO 64",
    "cct_adresse": "RUE PAUL RAMADIER",
    "cct_tel": "559847880",
    "cct_url": null,
    "cat_vehicule_id": "4",
    "cat_vehicule_libelle": "Camionnette",
    "cat_energie_id": "4",
    "cat_energie_libelle": "Hybride",
    "prix_visite": 80,
    "date_application_visite": "2020-09-15",
    "prix_contre_visite_min": 1,
    "prix_contre_visite_max": 25,
    "date_application_contre_visite": "2020-09-15",
    "cct_siret": 33385672200033,
    "latitude": 43.315788,
    "longitude": -0.316177,
    "coordgeo": {
      "lon": -0.316177,
      "lat": 43.315788
    },
    "cct_statut": "actif"
  },
  {
    "cct_code_dept": "Pyrénées-Atlantiques",
    "code_postal": null,
    "cct_code_commune": "Saint-Pée-sur-Nivelle",
    "cct_denomination": "AUTO BILAN CONTROLE ABC",
    "cct_adresse": "ZONE ARTISANALE LIZARDIA",
    "cct_tel": "633062741",
    "cct_url": null,
    "cat_vehicule_id": "1",
    "cat_vehicule_libelle": "Voiture Particulière",
    "cat_energie_id": "3",
    "cat_energie_libelle": "Gaz",
    "prix_visite": 100,
    "date_application_visite": "2020-09-03",
    "prix_contre_visite_min": 10,
    "prix_contre_visite_max": 35,
    "date_application_contre_visite": "2020-09-03",
    "cct_siret": 34454077800026,
    "latitude": 43.359285,
    "longitude": -1.574737,
    "coordgeo": {
      "lon": -1.574737,
      "lat": 43.359285
    },
    "cct_statut": "actif"
  },
  {
    "cct_code_dept": "Pyrénées-Atlantiques",
    "code_postal": "64340",
    "cct_code_commune": "Boucau",
    "cct_denomination": "CONTROLE TECHNIQUE BASCO LANDAIS",
    "cct_adresse": "MATIGNON",
    "cct_tel": null,
    "cct_url": null,
    "cat_vehicule_id": "1",
    "cat_vehicule_libelle": "Voiture Particulière",
    "cat_energie_id": "1",
    "cat_energie_libelle": "Essence",
    "prix_visite": 85,
    "date_application_visite": "2020-09-17",
    "prix_contre_visite_min": 15,
    "prix_contre_visite_max": 35,
    "date_application_contre_visite": "2020-09-17",
    "cct_siret": 79923500700017,
    "latitude": 43.532388,
    "longitude": -1.465415,
    "coordgeo": {
      "lon": -1.465415,
      "lat": 43.532388
    },
    "cct_statut": "actif"
  },
  {
    "cct_code_dept": "Pyrénées-Atlantiques",
    "code_postal": "64340",
    "cct_code_commune": "Boucau",
    "cct_denomination": "CONTROLE TECHNIQUE BASCO LANDAIS",
    "cct_adresse": "MATIGNON",
    "cct_tel": null,
    "cct_url": null,
    "cat_vehicule_id": "3",
    "cat_vehicule_libelle": "Voiture de collection",
    "cat_energie_id": "1",
    "cat_energie_libelle": "Essence",
    "prix_visite": 85,
    "date_application_visite": "2020-09-17",
    "prix_contre_visite_min": 15,
    "prix_contre_visite_max": 35,
    "date_application_contre_visite": "2020-09-17",
    "cct_siret": 79923500700017,
    "latitude": 43.532388,
    "longitude": -1.465415,
    "coordgeo": {
      "lon": -1.465415,
      "lat": 43.532388
    },
    "cct_statut": "actif"
  },
  {
    "cct_code_dept": "Pyrénées-Atlantiques",
    "code_postal": null,
    "cct_code_commune": "Morlaàs",
    "cct_denomination": "MORLAAS AUTO CONTROLE",
    "cct_adresse": "LOTISSEMENT DE LA BORDENAVE",
    "cct_tel": "559336630",
    "cct_url": null,
    "cat_vehicule_id": "3",
    "cat_vehicule_libelle": "Voiture de collection",
    "cat_energie_id": "5",
    "cat_energie_libelle": "Electrique",
    "prix_visite": 85,
    "date_application_visite": "2020-12-16",
    "prix_contre_visite_min": 0,
    "prix_contre_visite_max": 20,
    "date_application_contre_visite": "2020-12-16",
    "cct_siret": 84165480900018,
    "latitude": null,
    "longitude": null,
    "coordgeo": null,
    "cct_statut": "actif"
  },
  {
    "cct_code_dept": "Pyrénées-Atlantiques",
    "code_postal": "64140",
    "cct_code_commune": "Lons",
    "cct_denomination": "CSCA MAROTTE ET FILS CENTRE SECURITE CONTROLE AUTOMOBILE",
    "cct_adresse": "AV ANDRE MARIE AMPERE",
    "cct_tel": "559921739",
    "cct_url": null,
    "cat_vehicule_id": "2",
    "cat_vehicule_libelle": "4 x 4",
    "cat_energie_id": "2",
    "cat_energie_libelle": "Diesel",
    "prix_visite": 89,
    "date_application_visite": "2020-09-17",
    "prix_contre_visite_min": 10,
    "prix_contre_visite_max": 30,
    "date_application_contre_visite": "2020-09-17",
    "cct_siret": 33101436500018,
    "latitude": 43.312671,
    "longitude": -0.426924,
    "coordgeo": {
      "lon": -0.426924,
      "lat": 43.312671
    },
    "cct_statut": "actif"
  },
  {
    "cct_code_dept": "Pyrénées-Atlantiques",
    "code_postal": "64140",
    "cct_code_commune": "Lons",
    "cct_denomination": "CSCA MAROTTE ET FILS CENTRE SECURITE CONTROLE AUTOMOBILE",
    "cct_adresse": "AV ANDRE MARIE AMPERE",
    "cct_tel": "559921739",
    "cct_url": null,
    "cat_vehicule_id": "1",
    "cat_vehicule_libelle": "Voiture Particulière",
    "cat_energie_id": "2",
    "cat_energie_libelle": "Diesel",
    "prix_visite": 81,
    "date_application_visite": "2020-09-17",
    "prix_contre_visite_min": 10,
    "prix_contre_visite_max": 30,
    "date_application_contre_visite": "2020-09-17",
    "cct_siret": 33101436500018,
    "latitude": 43.312671,
    "longitude": -0.426924,
    "coordgeo": {
      "lon": -0.426924,
      "lat": 43.312671
    },
    "cct_statut": "actif"
  },
  {
    "cct_code_dept": "Pyrénées-Atlantiques",
    "code_postal": "64140",
    "cct_code_commune": "Lons",
    "cct_denomination": "CSCA MAROTTE ET FILS CENTRE SECURITE CONTROLE AUTOMOBILE",
    "cct_adresse": "AV ANDRE MARIE AMPERE",
    "cct_tel": "559921739",
    "cct_url": null,
    "cat_vehicule_id": "1",
    "cat_vehicule_libelle": "Voiture Particulière",
    "cat_energie_id": "3",
    "cat_energie_libelle": "Gaz",
    "prix_visite": 99,
    "date_application_visite": "2020-09-17",
    "prix_contre_visite_min": 10,
    "prix_contre_visite_max": 30,
    "date_application_contre_visite": "2020-09-17",
    "cct_siret": 33101436500018,
    "latitude": 43.312671,
    "longitude": -0.426924,
    "coordgeo": {
      "lon": -0.426924,
      "lat": 43.312671
    },
    "cct_statut": "actif"
  },
  {
    "cct_code_dept": "Pyrénées-Atlantiques",
    "code_postal": "64600",
    "cct_code_commune": "Anglet",
    "cct_denomination": "CENTRE DE CONTROLE TECHNIQUE DU BAB",
    "cct_adresse": "9 RUE DE L INDUSTRIE",
    "cct_tel": "524330261",
    "cct_url": "https://www.cteasy.com/fr/",
    "cat_vehicule_id": "2",
    "cat_vehicule_libelle": "4 x 4",
    "cat_energie_id": "1",
    "cat_energie_libelle": "Essence",
    "prix_visite": 85,
    "date_application_visite": "2020-09-15",
    "prix_contre_visite_min": 16,
    "prix_contre_visite_max": 36,
    "date_application_contre_visite": "2020-09-15",
    "cct_siret": 52242714500027,
    "latitude": 43.495673,
    "longitude": -1.496848,
    "coordgeo": {
      "lon": -1.496848,
      "lat": 43.495673
    },
    "cct_statut": "actif"
  },
  {
    "cct_code_dept": "Pyrénées-Atlantiques",
    "code_postal": "64600",
    "cct_code_commune": "Anglet",
    "cct_denomination": "CENTRE DE CONTROLE TECHNIQUE DU BAB",
    "cct_adresse": "9 RUE DE L INDUSTRIE",
    "cct_tel": "524330261",
    "cct_url": "https://www.cteasy.com/fr/",
    "cat_vehicule_id": "4",
    "cat_vehicule_libelle": "Camionnette",
    "cat_energie_id": "4",
    "cat_energie_libelle": "Hybride",
    "prix_visite": 90,
    "date_application_visite": "2020-09-15",
    "prix_contre_visite_min": 1,
    "prix_contre_visite_max": 90,
    "date_application_contre_visite": "2020-09-15",
    "cct_siret": 52242714500027,
    "latitude": 43.495673,
    "longitude": -1.496848,
    "coordgeo": {
      "lon": -1.496848,
      "lat": 43.495673
    },
    "cct_statut": "actif"
  },
  {
    "cct_code_dept": "Pyrénées-Atlantiques",
    "code_postal": "64600",
    "cct_code_commune": "Anglet",
    "cct_denomination": "CENTRE DE CONTROLE TECHNIQUE DU BAB",
    "cct_adresse": "9 RUE DE L INDUSTRIE",
    "cct_tel": "524330261",
    "cct_url": "https://www.cteasy.com/fr/",
    "cat_vehicule_id": "3",
    "cat_vehicule_libelle": "Voiture de collection",
    "cat_energie_id": "5",
    "cat_energie_libelle": "Electrique",
    "prix_visite": 82,
    "date_application_visite": "2020-09-15",
    "prix_contre_visite_min": 42.99,
    "prix_contre_visite_max": 82,
    "date_application_contre_visite": "2020-09-15",
    "cct_siret": 52242714500027,
    "latitude": 43.495673,
    "longitude": -1.496848,
    "coordgeo": {
      "lon": -1.496848,
      "lat": 43.495673
    },
    "cct_statut": "actif"
  },
  {
    "cct_code_dept": "Pyrénées-Atlantiques",
    "code_postal": "64360",
    "cct_code_commune": "Monein",
    "cct_denomination": "MONEIN AUTO BILAN",
    "cct_adresse": "QUA LOUPIEN",
    "cct_tel": "559843279",
    "cct_url": null,
    "cat_vehicule_id": "1",
    "cat_vehicule_libelle": "Voiture Particulière",
    "cat_energie_id": "2",
    "cat_energie_libelle": "Diesel",
    "prix_visite": 75,
    "date_application_visite": "2020-10-01",
    "prix_contre_visite_min": 15,
    "prix_contre_visite_max": 25,
    "date_application_contre_visite": "2020-10-01",
    "cct_siret": 80121559100018,
    "latitude": 43.316936,
    "longitude": -0.583442,
    "coordgeo": {
      "lon": -0.583442,
      "lat": 43.316936
    },
    "cct_statut": "actif"
  },
  {
    "cct_code_dept": "Pyrénées-Atlantiques",
    "code_postal": "64600",
    "cct_code_commune": "Anglet",
    "cct_denomination": "CENTRE DE CONTROLE TECHNIQUE AUTO",
    "cct_adresse": "4 RUE DIEUDONNE COSTES",
    "cct_tel": "559521707",
    "cct_url": "www.controletechniquemoncade.fr",
    "cat_vehicule_id": "2",
    "cat_vehicule_libelle": "4 x 4",
    "cat_energie_id": "1",
    "cat_energie_libelle": "Essence",
    "prix_visite": 95,
    "date_application_visite": "2020-09-10",
    "prix_contre_visite_min": 15,
    "prix_contre_visite_max": 35,
    "date_application_contre_visite": "2020-09-10",
    "cct_siret": 35310553900038,
    "latitude": null,
    "longitude": null,
    "coordgeo": null,
    "cct_statut": "actif"
  },
  {
    "cct_code_dept": "Pyrénées-Atlantiques",
    "code_postal": null,
    "cct_code_commune": "Saint-Jean-Pied-de-Port",
    "cct_denomination": "CONTROLE AUTO DONIBANE",
    "cct_adresse": "CHE DE LA NASSE",
    "cct_tel": "559373465",
    "cct_url": null,
    "cat_vehicule_id": "3",
    "cat_vehicule_libelle": "Voiture de collection",
    "cat_energie_id": "5",
    "cat_energie_libelle": "Electrique",
    "prix_visite": 70,
    "date_application_visite": "2020-09-30",
    "prix_contre_visite_min": 10,
    "prix_contre_visite_max": 30,
    "date_application_contre_visite": "2020-09-30",
    "cct_siret": 38345921100017,
    "latitude": 43.164571,
    "longitude": -1.232465,
    "coordgeo": {
      "lon": -1.232465,
      "lat": 43.164571
    },
    "cct_statut": "actif"
  },
  {
    "cct_code_dept": "Pyrénées-Atlantiques",
    "code_postal": "64100",
    "cct_code_commune": "Bayonne",
    "cct_denomination": "CENTRE DE CONTROLE TECHNIQUE AUTO",
    "cct_adresse": "ALL DE BIARNES",
    "cct_tel": "559500306",
    "cct_url": "www.controletechniquemoncade.fr",
    "cat_vehicule_id": "4",
    "cat_vehicule_libelle": "Camionnette",
    "cat_energie_id": "4",
    "cat_energie_libelle": "Hybride",
    "prix_visite": 112,
    "date_application_visite": "2020-09-01",
    "prix_contre_visite_min": 15,
    "prix_contre_visite_max": 35,
    "date_application_contre_visite": "2020-09-01",
    "cct_siret": 35310553900087,
    "latitude": 43.502251,
    "longitude": -1.44734,
    "coordgeo": {
      "lon": -1.44734,
      "lat": 43.502251
    },
    "cct_statut": "actif"
  },
  {
    "cct_code_dept": "Pyrénées-Atlantiques",
    "code_postal": "64100",
    "cct_code_commune": "Bayonne",
    "cct_denomination": "CENTRE DE CONTROLE TECHNIQUE AUTO",
    "cct_adresse": "ALL DE BIARNES",
    "cct_tel": "559500306",
    "cct_url": "www.controletechniquemoncade.fr",
    "cat_vehicule_id": "5",
    "cat_vehicule_libelle": "Camping-car (moins de 3,5 tonnes)",
    "cat_energie_id": "4",
    "cat_energie_libelle": "Hybride",
    "prix_visite": 95,
    "date_application_visite": "2020-09-01",
    "prix_contre_visite_min": 15,
    "prix_contre_visite_max": 35,
    "date_application_contre_visite": "2020-09-01",
    "cct_siret": 35310553900087,
    "latitude": 43.502251,
    "longitude": -1.44734,
    "coordgeo": {
      "lon": -1.44734,
      "lat": 43.502251
    },
    "cct_statut": "actif"
  },
  {
    "cct_code_dept": "Pyrénées-Atlantiques",
    "code_postal": "64100",
    "cct_code_commune": "Bayonne",
    "cct_denomination": "CENTRE DE CONTROLE TECHNIQUE AUTO",
    "cct_adresse": "ALL DE BIARNES",
    "cct_tel": "559500306",
    "cct_url": "www.controletechniquemoncade.fr",
    "cat_vehicule_id": "1",
    "cat_vehicule_libelle": "Voiture Particulière",
    "cat_energie_id": "3",
    "cat_energie_libelle": "Gaz",
    "prix_visite": 112,
    "date_application_visite": "2020-09-01",
    "prix_contre_visite_min": 15,
    "prix_contre_visite_max": 35,
    "date_application_contre_visite": "2020-09-01",
    "cct_siret": 35310553900087,
    "latitude": 43.502251,
    "longitude": -1.44734,
    "coordgeo": {
      "lon": -1.44734,
      "lat": 43.502251
    },
    "cct_statut": "actif"
  },
  {
    "cct_code_dept": "Pyrénées-Atlantiques",
    "code_postal": null,
    "cct_code_commune": "Mazères-Lezons",
    "cct_denomination": "CENTRE DE CONTROLE TECHNIQUE LAPORTE HAURET",
    "cct_adresse": "LOT 12",
    "cct_tel": "800100118",
    "cct_url": null,
    "cat_vehicule_id": "5",
    "cat_vehicule_libelle": "Camping-car (moins de 3,5 tonnes)",
    "cat_energie_id": "4",
    "cat_energie_libelle": "Hybride",
    "prix_visite": 75,
    "date_application_visite": "2020-09-30",
    "prix_contre_visite_min": 20,
    "prix_contre_visite_max": 20,
    "date_application_contre_visite": "2020-09-30",
    "cct_siret": 75106435300038,
    "latitude": 43.269781,
    "longitude": -0.355582,
    "coordgeo": {
      "lon": -0.355582,
      "lat": 43.269781
    },
    "cct_statut": "actif"
  },
  {
    "cct_code_dept": "Pyrénées-Atlantiques",
    "code_postal": "64480",
    "cct_code_commune": "Ustaritz",
    "cct_denomination": "CENTRE DE CONTROLE AUTO DU LABOURD",
    "cct_adresse": "QUARTIER DU BOURG",
    "cct_tel": "559932929",
    "cct_url": null,
    "cat_vehicule_id": "2",
    "cat_vehicule_libelle": "4 x 4",
    "cat_energie_id": "1",
    "cat_energie_libelle": "Essence",
    "prix_visite": 75,
    "date_application_visite": "2018-09-01",
    "prix_contre_visite_min": 10,
    "prix_contre_visite_max": 30,
    "date_application_contre_visite": "2018-09-01",
    "cct_siret": 38522914100010,
    "latitude": 43.395266,
    "longitude": -1.452874,
    "coordgeo": {
      "lon": -1.452874,
      "lat": 43.395266
    },
    "cct_statut": "actif"
  },
  {
    "cct_code_dept": "Pyrénées-Atlantiques",
    "code_postal": "64480",
    "cct_code_commune": "Ustaritz",
    "cct_denomination": "CENTRE DE CONTROLE AUTO DU LABOURD",
    "cct_adresse": "QUARTIER DU BOURG",
    "cct_tel": "559932929",
    "cct_url": null,
    "cat_vehicule_id": "1",
    "cat_vehicule_libelle": "Voiture Particulière",
    "cat_energie_id": "1",
    "cat_energie_libelle": "Essence",
    "prix_visite": 75,
    "date_application_visite": "2018-09-01",
    "prix_contre_visite_min": 10,
    "prix_contre_visite_max": 30,
    "date_application_contre_visite": "2018-09-01",
    "cct_siret": 38522914100010,
    "latitude": 43.395266,
    "longitude": -1.452874,
    "coordgeo": {
      "lon": -1.452874,
      "lat": 43.395266
    },
    "cct_statut": "actif"
  },
  {
    "cct_code_dept": "Pyrénées-Atlantiques",
    "code_postal": "64100",
    "cct_code_commune": "Bayonne",
    "cct_denomination": "CONTROLES TECHNIQUES BASQUES",
    "cct_adresse": "10 RUE DE LA GALUPE",
    "cct_tel": "559553269",
    "cct_url": null,
    "cat_vehicule_id": "2",
    "cat_vehicule_libelle": "4 x 4",
    "cat_energie_id": "5",
    "cat_energie_libelle": "Electrique",
    "prix_visite": 112,
    "date_application_visite": "2020-09-22",
    "prix_contre_visite_min": 19,
    "prix_contre_visite_max": 34,
    "date_application_contre_visite": "2020-09-22",
    "cct_siret": 44445030800010,
    "latitude": 43.488103,
    "longitude": -1.455149,
    "coordgeo": {
      "lon": -1.455149,
      "lat": 43.488103
    },
    "cct_statut": "actif"
  },
  {
    "cct_code_dept": "Pyrénées-Atlantiques",
    "code_postal": "64100",
    "cct_code_commune": "Bayonne",
    "cct_denomination": "CONTROLES TECHNIQUES BASQUES",
    "cct_adresse": "10 RUE DE LA GALUPE",
    "cct_tel": "559553269",
    "cct_url": null,
    "cat_vehicule_id": "5",
    "cat_vehicule_libelle": "Camping-car (moins de 3,5 tonnes)",
    "cat_energie_id": "1",
    "cat_energie_libelle": "Essence",
    "prix_visite": 113,
    "date_application_visite": "2020-09-22",
    "prix_contre_visite_min": 16,
    "prix_contre_visite_max": 31,
    "date_application_contre_visite": "2020-09-22",
    "cct_siret": 44445030800010,
    "latitude": 43.488103,
    "longitude": -1.455149,
    "coordgeo": {
      "lon": -1.455149,
      "lat": 43.488103
    },
    "cct_statut": "actif"
  },
  {
    "cct_code_dept": "Pyrénées-Atlantiques",
    "code_postal": "64100",
    "cct_code_commune": "Bayonne",
    "cct_denomination": "CONTROLES TECHNIQUES BASQUES",
    "cct_adresse": "10 RUE DE LA GALUPE",
    "cct_tel": "559553269",
    "cct_url": null,
    "cat_vehicule_id": "1",
    "cat_vehicule_libelle": "Voiture Particulière",
    "cat_energie_id": "3",
    "cat_energie_libelle": "Gaz",
    "prix_visite": 113,
    "date_application_visite": "2020-09-22",
    "prix_contre_visite_min": 16,
    "prix_contre_visite_max": 31,
    "date_application_contre_visite": "2020-09-22",
    "cct_siret": 44445030800010,
    "latitude": 43.488103,
    "longitude": -1.455149,
    "coordgeo": {
      "lon": -1.455149,
      "lat": 43.488103
    },
    "cct_statut": "actif"
  },
  {
    "cct_code_dept": "Pyrénées-Atlantiques",
    "code_postal": "64100",
    "cct_code_commune": "Bayonne",
    "cct_denomination": "CONTROLES TECHNIQUES BASQUES",
    "cct_adresse": "10 RUE DE LA GALUPE",
    "cct_tel": "559553269",
    "cct_url": null,
    "cat_vehicule_id": "1",
    "cat_vehicule_libelle": "Voiture Particulière",
    "cat_energie_id": "4",
    "cat_energie_libelle": "Hybride",
    "prix_visite": 96,
    "date_application_visite": "2020-09-22",
    "prix_contre_visite_min": 16,
    "prix_contre_visite_max": 31,
    "date_application_contre_visite": "2020-09-22",
    "cct_siret": 44445030800010,
    "latitude": 43.488103,
    "longitude": -1.455149,
    "coordgeo": {
      "lon": -1.455149,
      "lat": 43.488103
    },
    "cct_statut": "actif"
  },
  {
    "cct_code_dept": "Pyrénées-Atlantiques",
    "code_postal": "64240",
    "cct_code_commune": "Hasparren",
    "cct_denomination": "CONTROLES TECHNIQUES BASQUES",
    "cct_adresse": "QUA HASQUETTE",
    "cct_tel": "559291433",
    "cct_url": null,
    "cat_vehicule_id": "3",
    "cat_vehicule_libelle": "Voiture de collection",
    "cat_energie_id": "2",
    "cat_energie_libelle": "Diesel",
    "prix_visite": 91,
    "date_application_visite": "2020-09-14",
    "prix_contre_visite_min": 15,
    "prix_contre_visite_max": 35,
    "date_application_contre_visite": "2020-09-14",
    "cct_siret": 44445030800036,
    "latitude": 43.39189,
    "longitude": -1.307041,
    "coordgeo": {
      "lon": -1.307041,
      "lat": 43.39189
    },
    "cct_statut": "actif"
  },
  {
    "cct_code_dept": "Pyrénées-Atlantiques",
    "code_postal": "64500",
    "cct_code_commune": "Ciboure",
    "cct_denomination": "CONTROLES TECHNIQUES BASQUES",
    "cct_adresse": "33 AV JEAN JAURES",
    "cct_tel": "559471158",
    "cct_url": null,
    "cat_vehicule_id": "4",
    "cat_vehicule_libelle": "Camionnette",
    "cat_energie_id": "4",
    "cat_energie_libelle": "Hybride",
    "prix_visite": 112,
    "date_application_visite": "2020-09-14",
    "prix_contre_visite_min": 15,
    "prix_contre_visite_max": 40,
    "date_application_contre_visite": "2020-09-14",
    "cct_siret": 44445030800051,
    "latitude": 43.381753,
    "longitude": -1.667678,
    "coordgeo": {
      "lon": -1.667678,
      "lat": 43.381753
    },
    "cct_statut": "actif"
  },
  {
    "cct_code_dept": "Pyrénées-Atlantiques",
    "code_postal": "64100",
    "cct_code_commune": "Bayonne",
    "cct_denomination": "CONTROLES TECHNIQUES BASQUES",
    "cct_adresse": "41 ALL MARINES",
    "cct_tel": "559461559",
    "cct_url": null,
    "cat_vehicule_id": "4",
    "cat_vehicule_libelle": "Camionnette",
    "cat_energie_id": "4",
    "cat_energie_libelle": "Hybride",
    "prix_visite": 96,
    "date_application_visite": "2020-09-22",
    "prix_contre_visite_min": 16,
    "prix_contre_visite_max": 31,
    "date_application_contre_visite": "2020-09-22",
    "cct_siret": 44445030800028,
    "latitude": 43.498245,
    "longitude": -1.48741,
    "coordgeo": {
      "lon": -1.48741,
      "lat": 43.498245
    },
    "cct_statut": "actif"
  },
  {
    "cct_code_dept": "Pyrénées-Atlantiques",
    "code_postal": null,
    "cct_code_commune": "Irouléguy",
    "cct_denomination": "CONTROLE AUTOS IROULEGUY",
    "cct_adresse": "Z A EYHERRA BURU",
    "cct_tel": "559491659",
    "cct_url": null,
    "cat_vehicule_id": "4",
    "cat_vehicule_libelle": "Camionnette",
    "cat_energie_id": "3",
    "cat_energie_libelle": "Gaz",
    "prix_visite": 80,
    "date_application_visite": "2020-09-15",
    "prix_contre_visite_min": 10,
    "prix_contre_visite_max": 20,
    "date_application_contre_visite": "2020-09-15",
    "cct_siret": 49126965000025,
    "latitude": 43.174138,
    "longitude": -1.280128,
    "coordgeo": {
      "lon": -1.280128,
      "lat": 43.174138
    },
    "cct_statut": "actif"
  },
  {
    "cct_code_dept": "Pyrénées-Atlantiques",
    "code_postal": null,
    "cct_code_commune": "Irouléguy",
    "cct_denomination": "CONTROLE AUTOS IROULEGUY",
    "cct_adresse": "Z A EYHERRA BURU",
    "cct_tel": "559491659",
    "cct_url": null,
    "cat_vehicule_id": "5",
    "cat_vehicule_libelle": "Camping-car (moins de 3,5 tonnes)",
    "cat_energie_id": "1",
    "cat_energie_libelle": "Essence",
    "prix_visite": 75,
    "date_application_visite": "2020-09-15",
    "prix_contre_visite_min": 10,
    "prix_contre_visite_max": 30,
    "date_application_contre_visite": "2020-09-15",
    "cct_siret": 49126965000025,
    "latitude": 43.174138,
    "longitude": -1.280128,
    "coordgeo": {
      "lon": -1.280128,
      "lat": 43.174138
    },
    "cct_statut": "actif"
  },
  {
    "cct_code_dept": "Pyrénées-Atlantiques",
    "code_postal": null,
    "cct_code_commune": "Irouléguy",
    "cct_denomination": "CONTROLE AUTOS IROULEGUY",
    "cct_adresse": "Z A EYHERRA BURU",
    "cct_tel": "559491659",
    "cct_url": null,
    "cat_vehicule_id": "3",
    "cat_vehicule_libelle": "Voiture de collection",
    "cat_energie_id": "1",
    "cat_energie_libelle": "Essence",
    "prix_visite": 75,
    "date_application_visite": "2020-09-15",
    "prix_contre_visite_min": 10,
    "prix_contre_visite_max": 30,
    "date_application_contre_visite": "2020-09-15",
    "cct_siret": 49126965000025,
    "latitude": 43.174138,
    "longitude": -1.280128,
    "coordgeo": {
      "lon": -1.280128,
      "lat": 43.174138
    },
    "cct_statut": "actif"
  },
  {
    "cct_code_dept": "Pyrénées-Atlantiques",
    "code_postal": "64150",
    "cct_code_commune": "Mourenx",
    "cct_denomination": "MOURENX AUTO CONTROLE",
    "cct_adresse": "29 AV CHARLES MOUREU",
    "cct_tel": "559601011",
    "cct_url": null,
    "cat_vehicule_id": "5",
    "cat_vehicule_libelle": "Camping-car (moins de 3,5 tonnes)",
    "cat_energie_id": "3",
    "cat_energie_libelle": "Gaz",
    "prix_visite": 85,
    "date_application_visite": "2020-09-22",
    "prix_contre_visite_min": 10,
    "prix_contre_visite_max": 20,
    "date_application_contre_visite": "2020-09-22",
    "cct_siret": 43270039100027,
    "latitude": 43.382205,
    "longitude": -0.613998,
    "coordgeo": {
      "lon": -0.613998,
      "lat": 43.382205
    },
    "cct_statut": "actif"
  },
  {
    "cct_code_dept": "Pyrénées-Atlantiques",
    "code_postal": null,
    "cct_code_commune": "Sauveterre-de-Béarn",
    "cct_denomination": "CONTROLE TECHNIQUE SAUVETERRE DE BEARN",
    "cct_adresse": "7 RTE D'OLORON",
    "cct_tel": "559659001",
    "cct_url": null,
    "cat_vehicule_id": "5",
    "cat_vehicule_libelle": "Camping-car (moins de 3,5 tonnes)",
    "cat_energie_id": "2",
    "cat_energie_libelle": "Diesel",
    "prix_visite": 70,
    "date_application_visite": "2020-08-28",
    "prix_contre_visite_min": 10,
    "prix_contre_visite_max": 30,
    "date_application_contre_visite": "2020-08-28",
    "cct_siret": 82278201700013,
    "latitude": 43.388741,
    "longitude": -0.940761,
    "coordgeo": {
      "lon": -0.940761,
      "lat": 43.388741
    },
    "cct_statut": "actif"
  },
  {
    "cct_code_dept": "Pyrénées-Atlantiques",
    "code_postal": "64290",
    "cct_code_commune": "Gan",
    "cct_denomination": "CONTROLE AUTOMOBILE PYRENEEN",
    "cct_adresse": "9328 RUE DU LAC",
    "cct_tel": "559218116",
    "cct_url": "https://www.dekra-norisko.fr/centres-controle-technique/gan,64290/controle-automobile-pyreneen,s064d182",
    "cat_vehicule_id": "3",
    "cat_vehicule_libelle": "Voiture de collection",
    "cat_energie_id": "3",
    "cat_energie_libelle": "Gaz",
    "prix_visite": 79,
    "date_application_visite": "2020-08-28",
    "prix_contre_visite_min": 5,
    "prix_contre_visite_max": 30,
    "date_application_contre_visite": "2020-08-28",
    "cct_siret": 83381440300014,
    "latitude": 43.230937,
    "longitude": -0.39334,
    "coordgeo": {
      "lon": -0.39334,
      "lat": 43.230937
    },
    "cct_statut": "actif"
  },
  {
    "cct_code_dept": "Pyrénées-Atlantiques",
    "code_postal": "64250",
    "cct_code_commune": "Itxassou",
    "cct_denomination": "CENTRE DE CONTROLE AUTO D'ITXASSOU",
    "cct_adresse": "ZA ERROBI",
    "cct_tel": "559014063",
    "cct_url": null,
    "cat_vehicule_id": "1",
    "cat_vehicule_libelle": "Voiture Particulière",
    "cat_energie_id": "2",
    "cat_energie_libelle": "Diesel",
    "prix_visite": 75,
    "date_application_visite": "2020-09-14",
    "prix_contre_visite_min": 10,
    "prix_contre_visite_max": 30,
    "date_application_contre_visite": "2020-09-14",
    "cct_siret": 88362982600016,
    "latitude": 43.346991,
    "longitude": -1.417753,
    "coordgeo": {
      "lon": -1.417753,
      "lat": 43.346991
    },
    "cct_statut": "actif"
  },
  {
    "cct_code_dept": "Pyrénées-Atlantiques",
    "code_postal": "64140",
    "cct_code_commune": "Lons",
    "cct_denomination": "TECHNICONTROL",
    "cct_adresse": "11 AV ERCKMANN CHATRIAN",
    "cct_tel": "559327218",
    "cct_url": "https://ct.rdv-online.fr/282-Lons/rendez-vous",
    "cat_vehicule_id": "1",
    "cat_vehicule_libelle": "Voiture Particulière",
    "cat_energie_id": "3",
    "cat_energie_libelle": "Gaz",
    "prix_visite": 95,
    "date_application_visite": "2020-09-15",
    "prix_contre_visite_min": 7,
    "prix_contre_visite_max": 23,
    "date_application_contre_visite": "2020-09-15",
    "cct_siret": 33834747900044,
    "latitude": 43.324857,
    "longitude": -0.381847,
    "coordgeo": {
      "lon": -0.381847,
      "lat": 43.324857
    },
    "cct_statut": "actif"
  },
  {
    "cct_code_dept": "Pyrénées-Atlantiques",
    "code_postal": "09120",
    "cct_code_commune": "Artix",
    "cct_denomination": "CONTROLE TECHNIQUE AUTOMOBILE ARTISIEN",
    "cct_adresse": null,
    "cct_tel": "559539029",
    "cct_url": "autovision.fr",
    "cat_vehicule_id": "4",
    "cat_vehicule_libelle": "Camionnette",
    "cat_energie_id": "5",
    "cat_energie_libelle": "Electrique",
    "prix_visite": 75,
    "date_application_visite": "2020-09-02",
    "prix_contre_visite_min": 10,
    "prix_contre_visite_max": 20,
    "date_application_contre_visite": "2020-09-02",
    "cct_siret": 48352865900012,
    "latitude": null,
    "longitude": null,
    "coordgeo": null,
    "cct_statut": "actif"
  },
  {
    "cct_code_dept": "Pyrénées-Atlantiques",
    "code_postal": "09120",
    "cct_code_commune": "Artix",
    "cct_denomination": "CONTROLE TECHNIQUE AUTOMOBILE ARTISIEN",
    "cct_adresse": null,
    "cct_tel": "559539029",
    "cct_url": "autovision.fr",
    "cat_vehicule_id": "4",
    "cat_vehicule_libelle": "Camionnette",
    "cat_energie_id": "1",
    "cat_energie_libelle": "Essence",
    "prix_visite": 75,
    "date_application_visite": "2020-09-02",
    "prix_contre_visite_min": 10,
    "prix_contre_visite_max": 20,
    "date_application_contre_visite": "2020-09-02",
    "cct_siret": 48352865900012,
    "latitude": null,
    "longitude": null,
    "coordgeo": null,
    "cct_statut": "actif"
  },
  {
    "cct_code_dept": "Pyrénées-Atlantiques",
    "code_postal": null,
    "cct_code_commune": "Arzacq-Arraziguet",
    "cct_denomination": "CONTROLE TECHNIQUE ARZACQUOIS",
    "cct_adresse": "ZONE ARTISANALE",
    "cct_tel": "559000150",
    "cct_url": null,
    "cat_vehicule_id": "1",
    "cat_vehicule_libelle": "Voiture Particulière",
    "cat_energie_id": "2",
    "cat_energie_libelle": "Diesel",
    "prix_visite": 70,
    "date_application_visite": "2020-09-17",
    "prix_contre_visite_min": 5,
    "prix_contre_visite_max": 26,
    "date_application_contre_visite": "2020-09-17",
    "cct_siret": 52794001900013,
    "latitude": null,
    "longitude": null,
    "coordgeo": null,
    "cct_statut": "actif"
  },
  {
    "cct_code_dept": "Pyrénées-Atlantiques",
    "code_postal": "64520",
    "cct_code_commune": "Bardos",
    "cct_denomination": "CONTROLES TECHNIQUES BASQUES",
    "cct_adresse": "RTE DE BIDACHE LE BOURG",
    "cct_tel": "559568480",
    "cct_url": null,
    "cat_vehicule_id": "2",
    "cat_vehicule_libelle": "4 x 4",
    "cat_energie_id": "1",
    "cat_energie_libelle": "Essence",
    "prix_visite": 86,
    "date_application_visite": "2023-01-09",
    "prix_contre_visite_min": 15,
    "prix_contre_visite_max": 35,
    "date_application_contre_visite": "2023-01-09",
    "cct_siret": 44445030800077,
    "latitude": null,
    "longitude": null,
    "coordgeo": null,
    "cct_statut": "actif"
  },
  {
    "cct_code_dept": "Pyrénées-Atlantiques",
    "code_postal": "64520",
    "cct_code_commune": "Bardos",
    "cct_denomination": "CONTROLES TECHNIQUES BASQUES",
    "cct_adresse": "RTE DE BIDACHE LE BOURG",
    "cct_tel": "559568480",
    "cct_url": null,
    "cat_vehicule_id": "1",
    "cat_vehicule_libelle": "Voiture Particulière",
    "cat_energie_id": "1",
    "cat_energie_libelle": "Essence",
    "prix_visite": 86,
    "date_application_visite": "2023-01-09",
    "prix_contre_visite_min": 15,
    "prix_contre_visite_max": 35,
    "date_application_contre_visite": "2023-01-09",
    "cct_siret": 44445030800077,
    "latitude": null,
    "longitude": null,
    "coordgeo": null,
    "cct_statut": "actif"
  },
  {
    "cct_code_dept": "Pyrénées-Atlantiques",
    "code_postal": "64520",
    "cct_code_commune": "Bardos",
    "cct_denomination": "CONTROLES TECHNIQUES BASQUES",
    "cct_adresse": "RTE DE BIDACHE LE BOURG",
    "cct_tel": "559568480",
    "cct_url": null,
    "cat_vehicule_id": "3",
    "cat_vehicule_libelle": "Voiture de collection",
    "cat_energie_id": "2",
    "cat_energie_libelle": "Diesel",
    "prix_visite": 80,
    "date_application_visite": "2020-09-17",
    "prix_contre_visite_min": 15,
    "prix_contre_visite_max": 40,
    "date_application_contre_visite": "2020-09-17",
    "cct_siret": 44445030800077,
    "latitude": null,
    "longitude": null,
    "coordgeo": null,
    "cct_statut": "actif"
  },
  {
    "cct_code_dept": "Pyrénées-Atlantiques",
    "code_postal": "50850",
    "cct_code_commune": "Ger",
    "cct_denomination": "CONTROLE TECHNIQUE GEROIS - CTG",
    "cct_adresse": "120 RTE DE MARCOTTE CAPSUS",
    "cct_tel": "562315402",
    "cct_url": null,
    "cat_vehicule_id": "5",
    "cat_vehicule_libelle": "Camping-car (moins de 3,5 tonnes)",
    "cat_energie_id": "4",
    "cat_energie_libelle": "Hybride",
    "prix_visite": 80,
    "date_application_visite": "2020-09-10",
    "prix_contre_visite_min": 30,
    "prix_contre_visite_max": 40,
    "date_application_contre_visite": "2020-09-10",
    "cct_siret": 50362492600013,
    "latitude": 43.247056,
    "longitude": -0.056897,
    "coordgeo": {
      "lon": -0.056897,
      "lat": 43.247056
    },
    "cct_statut": "actif"
  },
  {
    "cct_code_dept": "Pyrénées-Atlantiques",
    "code_postal": "64122",
    "cct_code_commune": "Urrugne",
    "cct_denomination": "CT IRASTORZA",
    "cct_adresse": "1405 RTE D IBARDIN",
    "cct_tel": "610933799",
    "cct_url": null,
    "cat_vehicule_id": "2",
    "cat_vehicule_libelle": "4 x 4",
    "cat_energie_id": "3",
    "cat_energie_libelle": "Gaz",
    "prix_visite": 90,
    "date_application_visite": "2020-10-22",
    "prix_contre_visite_min": 20,
    "prix_contre_visite_max": 40,
    "date_application_contre_visite": "2020-10-22",
    "cct_siret": 85268083400011,
    "latitude": 43.350932,
    "longitude": -1.688708,
    "coordgeo": {
      "lon": -1.688708,
      "lat": 43.350932
    },
    "cct_statut": "actif"
  },
  {
    "cct_code_dept": "Pyrénées-Atlantiques",
    "code_postal": "64700",
    "cct_code_commune": "Urrugne",
    "cct_denomination": "CT IRASTORZA",
    "cct_adresse": "1405 RTE D IBARDIN",
    "cct_tel": "610933799",
    "cct_url": null,
    "cat_vehicule_id": "4",
    "cat_vehicule_libelle": "Camionnette",
    "cat_energie_id": "5",
    "cat_energie_libelle": "Electrique",
    "prix_visite": 90,
    "date_application_visite": "2020-10-22",
    "prix_contre_visite_min": 20,
    "prix_contre_visite_max": 40,
    "date_application_contre_visite": "2020-10-22",
    "cct_siret": 85268083400011,
    "latitude": 43.350932,
    "longitude": -1.688708,
    "coordgeo": {
      "lon": -1.688708,
      "lat": 43.350932
    },
    "cct_statut": "actif"
  },
  {
    "cct_code_dept": "Pyrénées-Atlantiques",
    "code_postal": "64700",
    "cct_code_commune": "Urrugne",
    "cct_denomination": "CT IRASTORZA",
    "cct_adresse": "1405 RTE D IBARDIN",
    "cct_tel": "610933799",
    "cct_url": null,
    "cat_vehicule_id": "5",
    "cat_vehicule_libelle": "Camping-car (moins de 3,5 tonnes)",
    "cat_energie_id": "4",
    "cat_energie_libelle": "Hybride",
    "prix_visite": 90,
    "date_application_visite": "2020-10-22",
    "prix_contre_visite_min": 20,
    "prix_contre_visite_max": 40,
    "date_application_contre_visite": "2020-10-22",
    "cct_siret": 85268083400011,
    "latitude": 43.350932,
    "longitude": -1.688708,
    "coordgeo": {
      "lon": -1.688708,
      "lat": 43.350932
    },
    "cct_statut": "actif"
  },
  {
    "cct_code_dept": "Pyrénées-Atlantiques",
    "code_postal": "64700",
    "cct_code_commune": "Urrugne",
    "cct_denomination": "CT IRASTORZA",
    "cct_adresse": "1405 RTE D IBARDIN",
    "cct_tel": "610933799",
    "cct_url": null,
    "cat_vehicule_id": "1",
    "cat_vehicule_libelle": "Voiture Particulière",
    "cat_energie_id": "1",
    "cat_energie_libelle": "Essence",
    "prix_visite": 80,
    "date_application_visite": "2020-10-22",
    "prix_contre_visite_min": 20,
    "prix_contre_visite_max": 40,
    "date_application_contre_visite": "2020-10-22",
    "cct_siret": 85268083400011,
    "latitude": 43.350932,
    "longitude": -1.688708,
    "coordgeo": {
      "lon": -1.688708,
      "lat": 43.350932
    },
    "cct_statut": "actif"
  },
  {
    "cct_code_dept": "Pyrénées-Atlantiques",
    "code_postal": "64800",
    "cct_code_commune": "Coarraze",
    "cct_denomination": "CENTRE DE CONTROLE TECHNIQUE NAYAIS",
    "cct_adresse": "AV DE LA GARE",
    "cct_tel": "559929107",
    "cct_url": null,
    "cat_vehicule_id": "2",
    "cat_vehicule_libelle": "4 x 4",
    "cat_energie_id": "5",
    "cat_energie_libelle": "Electrique",
    "prix_visite": 75,
    "date_application_visite": "2020-09-30",
    "prix_contre_visite_min": 20,
    "prix_contre_visite_max": 20,
    "date_application_contre_visite": "2020-09-30",
    "cct_siret": 34288728800021,
    "latitude": 43.181768,
    "longitude": -0.242952,
    "coordgeo": {
      "lon": -0.242952,
      "lat": 43.181768
    },
    "cct_statut": "actif"
  },
  {
    "cct_code_dept": "Pyrénées-Atlantiques",
    "code_postal": "64800",
    "cct_code_commune": "Coarraze",
    "cct_denomination": "CENTRE DE CONTROLE TECHNIQUE NAYAIS",
    "cct_adresse": "AV DE LA GARE",
    "cct_tel": "559929107",
    "cct_url": null,
    "cat_vehicule_id": "4",
    "cat_vehicule_libelle": "Camionnette",
    "cat_energie_id": "4",
    "cat_energie_libelle": "Hybride",
    "prix_visite": 75,
    "date_application_visite": "2020-09-30",
    "prix_contre_visite_min": 20,
    "prix_contre_visite_max": 20,
    "date_application_contre_visite": "2020-09-30",
    "cct_siret": 34288728800021,
    "latitude": 43.181768,
    "longitude": -0.242952,
    "coordgeo": {
      "lon": -0.242952,
      "lat": 43.181768
    },
    "cct_statut": "actif"
  },
  {
    "cct_code_dept": "Pyrénées-Atlantiques",
    "code_postal": null,
    "cct_code_commune": "Chéraute",
    "cct_denomination": "CONTROLE AUTO SECURITE",
    "cct_adresse": "AV CHARLES DE GAULLE",
    "cct_tel": "559191069",
    "cct_url": null,
    "cat_vehicule_id": "4",
    "cat_vehicule_libelle": "Camionnette",
    "cat_energie_id": "4",
    "cat_energie_libelle": "Hybride",
    "prix_visite": 75,
    "date_application_visite": "2020-01-01",
    "prix_contre_visite_min": 15,
    "prix_contre_visite_max": 30,
    "date_application_contre_visite": "2020-01-01",
    "cct_siret": 39280887900028,
    "latitude": null,
    "longitude": null,
    "coordgeo": null,
    "cct_statut": "actif"
  },
  {
    "cct_code_dept": "Pyrénées-Atlantiques",
    "code_postal": "64190",
    "cct_code_commune": "Susmiou",
    "cct_denomination": "CONTROLE AUTO SECURITE",
    "cct_adresse": "2 RTE DE BAYONNE",
    "cct_tel": "559665437",
    "cct_url": null,
    "cat_vehicule_id": "2",
    "cat_vehicule_libelle": "4 x 4",
    "cat_energie_id": "3",
    "cat_energie_libelle": "Gaz",
    "prix_visite": 100,
    "date_application_visite": "2020-01-01",
    "prix_contre_visite_min": 15,
    "prix_contre_visite_max": 30,
    "date_application_contre_visite": "2020-01-01",
    "cct_siret": 39280887900036,
    "latitude": 43.317837,
    "longitude": -0.76932,
    "coordgeo": {
      "lon": -0.76932,
      "lat": 43.317837
    },
    "cct_statut": "actif"
  },
  {
    "cct_code_dept": "Pyrénées-Atlantiques",
    "code_postal": "64190",
    "cct_code_commune": "Susmiou",
    "cct_denomination": "CONTROLE AUTO SECURITE",
    "cct_adresse": "2 RTE DE BAYONNE",
    "cct_tel": "559665437",
    "cct_url": null,
    "cat_vehicule_id": "4",
    "cat_vehicule_libelle": "Camionnette",
    "cat_energie_id": "2",
    "cat_energie_libelle": "Diesel",
    "prix_visite": 75,
    "date_application_visite": "2020-01-01",
    "prix_contre_visite_min": 15,
    "prix_contre_visite_max": 30,
    "date_application_contre_visite": "2020-01-01",
    "cct_siret": 39280887900036,
    "latitude": 43.317837,
    "longitude": -0.76932,
    "coordgeo": {
      "lon": -0.76932,
      "lat": 43.317837
    },
    "cct_statut": "actif"
  },
  {
    "cct_code_dept": "Pyrénées-Atlantiques",
    "code_postal": "64122",
    "cct_code_commune": "Urrugne",
    "cct_denomination": "ARGI BERRI",
    "cct_adresse": "LOT ARTIS MARTIN-ZAHARENIA",
    "cct_tel": "559260206",
    "cct_url": "www.urrugne.securitest.fr",
    "cat_vehicule_id": "4",
    "cat_vehicule_libelle": "Camionnette",
    "cat_energie_id": "5",
    "cat_energie_libelle": "Electrique",
    "prix_visite": 95,
    "date_application_visite": "2020-09-02",
    "prix_contre_visite_min": 25,
    "prix_contre_visite_max": 35,
    "date_application_contre_visite": "2020-09-02",
    "cct_siret": 49036628300029,
    "latitude": null,
    "longitude": null,
    "coordgeo": null,
    "cct_statut": "actif"
  },
  {
    "cct_code_dept": "Pyrénées-Atlantiques",
    "code_postal": "64122",
    "cct_code_commune": "Urrugne",
    "cct_denomination": "ARGI BERRI",
    "cct_adresse": "LOT ARTIS MARTIN-ZAHARENIA",
    "cct_tel": "559260206",
    "cct_url": "www.urrugne.securitest.fr",
    "cat_vehicule_id": "1",
    "cat_vehicule_libelle": "Voiture Particulière",
    "cat_energie_id": "4",
    "cat_energie_libelle": "Hybride",
    "prix_visite": 95,
    "date_application_visite": "2020-09-02",
    "prix_contre_visite_min": 25,
    "prix_contre_visite_max": 35,
    "date_application_contre_visite": "2020-09-02",
    "cct_siret": 49036628300029,
    "latitude": null,
    "longitude": null,
    "coordgeo": null,
    "cct_statut": "actif"
  },
  {
    "cct_code_dept": "Pyrénées-Atlantiques",
    "code_postal": null,
    "cct_code_commune": "Serres-Castet",
    "cct_denomination": "AUTO CONTROLE SERRES CASTET",
    "cct_adresse": "3449 RTE DE BORDEAUX",
    "cct_tel": "559900872",
    "cct_url": null,
    "cat_vehicule_id": "2",
    "cat_vehicule_libelle": "4 x 4",
    "cat_energie_id": "5",
    "cat_energie_libelle": "Electrique",
    "prix_visite": 80,
    "date_application_visite": "2020-09-24",
    "prix_contre_visite_min": 15,
    "prix_contre_visite_max": 25,
    "date_application_contre_visite": "2020-09-24",
    "cct_siret": 52087476900018,
    "latitude": 43.388962,
    "longitude": -0.380617,
    "coordgeo": {
      "lon": -0.380617,
      "lat": 43.388962
    },
    "cct_statut": "actif"
  },
  {
    "cct_code_dept": "Pyrénées-Atlantiques",
    "code_postal": null,
    "cct_code_commune": "Serres-Castet",
    "cct_denomination": "AUTO CONTROLE SERRES CASTET",
    "cct_adresse": "3449 RTE DE BORDEAUX",
    "cct_tel": "559900872",
    "cct_url": null,
    "cat_vehicule_id": "4",
    "cat_vehicule_libelle": "Camionnette",
    "cat_energie_id": "4",
    "cat_energie_libelle": "Hybride",
    "prix_visite": 80,
    "date_application_visite": "2020-09-24",
    "prix_contre_visite_min": 5,
    "prix_contre_visite_max": 20,
    "date_application_contre_visite": "2020-09-24",
    "cct_siret": 52087476900018,
    "latitude": 43.388962,
    "longitude": -0.380617,
    "coordgeo": {
      "lon": -0.380617,
      "lat": 43.388962
    },
    "cct_statut": "actif"
  },
  {
    "cct_code_dept": "Pyrénées-Atlantiques",
    "code_postal": null,
    "cct_code_commune": "Serres-Castet",
    "cct_denomination": "AUTO CONTROLE SERRES CASTET",
    "cct_adresse": "3449 RTE DE BORDEAUX",
    "cct_tel": "559900872",
    "cct_url": null,
    "cat_vehicule_id": "3",
    "cat_vehicule_libelle": "Voiture de collection",
    "cat_energie_id": "5",
    "cat_energie_libelle": "Electrique",
    "prix_visite": 80,
    "date_application_visite": "2020-09-24",
    "prix_contre_visite_min": 5,
    "prix_contre_visite_max": 20,
    "date_application_contre_visite": "2020-09-24",
    "cct_siret": 52087476900018,
    "latitude": 43.388962,
    "longitude": -0.380617,
    "coordgeo": {
      "lon": -0.380617,
      "lat": 43.388962
    },
    "cct_statut": "actif"
  },
  {
    "cct_code_dept": "Pyrénées-Atlantiques",
    "code_postal": "64300",
    "cct_code_commune": "Orthez",
    "cct_denomination": "MALCORRA-URREGGA MICHEL",
    "cct_adresse": "162 AV ADRIEN PLANTE",
    "cct_tel": "559671549",
    "cct_url": "https://orthez.securitest.fr/",
    "cat_vehicule_id": "2",
    "cat_vehicule_libelle": "4 x 4",
    "cat_energie_id": "5",
    "cat_energie_libelle": "Electrique",
    "prix_visite": 73,
    "date_application_visite": "2020-09-01",
    "prix_contre_visite_min": 8,
    "prix_contre_visite_max": 21,
    "date_application_contre_visite": "2020-09-01",
    "cct_siret": 42890394200020,
    "latitude": 43.48408,
    "longitude": -0.760826,
    "coordgeo": {
      "lon": -0.760826,
      "lat": 43.48408
    },
    "cct_statut": "actif"
  },
  {
    "cct_code_dept": "Pyrénées-Atlantiques",
    "code_postal": "64300",
    "cct_code_commune": "Orthez",
    "cct_denomination": "MALCORRA-URREGGA MICHEL",
    "cct_adresse": "162 AV ADRIEN PLANTE",
    "cct_tel": "559671549",
    "cct_url": "https://orthez.securitest.fr/",
    "cat_vehicule_id": "4",
    "cat_vehicule_libelle": "Camionnette",
    "cat_energie_id": "3",
    "cat_energie_libelle": "Gaz",
    "prix_visite": 84,
    "date_application_visite": "2020-09-01",
    "prix_contre_visite_min": 8,
    "prix_contre_visite_max": 21,
    "date_application_contre_visite": "2020-09-01",
    "cct_siret": 42890394200020,
    "latitude": 43.48408,
    "longitude": -0.760826,
    "coordgeo": {
      "lon": -0.760826,
      "lat": 43.48408
    },
    "cct_statut": "actif"
  },
  {
    "cct_code_dept": "Pyrénées-Atlantiques",
    "code_postal": "64300",
    "cct_code_commune": "Orthez",
    "cct_denomination": "MALCORRA-URREGGA MICHEL",
    "cct_adresse": "162 AV ADRIEN PLANTE",
    "cct_tel": "559671549",
    "cct_url": "https://orthez.securitest.fr/",
    "cat_vehicule_id": "1",
    "cat_vehicule_libelle": "Voiture Particulière",
    "cat_energie_id": "1",
    "cat_energie_libelle": "Essence",
    "prix_visite": 73,
    "date_application_visite": "2020-09-01",
    "prix_contre_visite_min": 8,
    "prix_contre_visite_max": 21,
    "date_application_contre_visite": "2020-09-01",
    "cct_siret": 42890394200020,
    "latitude": 43.48408,
    "longitude": -0.760826,
    "coordgeo": {
      "lon": -0.760826,
      "lat": 43.48408
    },
    "cct_statut": "actif"
  },
  {
    "cct_code_dept": "Pyrénées-Atlantiques",
    "code_postal": null,
    "cct_code_commune": "Louvie-Juzon",
    "cct_denomination": "SOCIETE D'EXPLOITATION CENTRE DE CONTROLE BERSANS",
    "cct_adresse": "12 AV ARISTIDE BRIAND",
    "cct_tel": "559056326",
    "cct_url": null,
    "cat_vehicule_id": "2",
    "cat_vehicule_libelle": "4 x 4",
    "cat_energie_id": "1",
    "cat_energie_libelle": "Essence",
    "prix_visite": 70,
    "date_application_visite": "2020-09-01",
    "prix_contre_visite_min": 15,
    "prix_contre_visite_max": 20,
    "date_application_contre_visite": "2020-09-01",
    "cct_siret": 41036171100022,
    "latitude": 43.096976,
    "longitude": -0.417034,
    "coordgeo": {
      "lon": -0.417034,
      "lat": 43.096976
    },
    "cct_statut": "actif"
  },
  {
    "cct_code_dept": "Pyrénées-Atlantiques",
    "code_postal": null,
    "cct_code_commune": "Jurançon",
    "cct_denomination": "EIRL PATRICK CHARPENTIER",
    "cct_adresse": "68 AV HENRI 4",
    "cct_tel": null,
    "cct_url": null,
    "cat_vehicule_id": "4",
    "cat_vehicule_libelle": "Camionnette",
    "cat_energie_id": "5",
    "cat_energie_libelle": "Electrique",
    "prix_visite": 70,
    "date_application_visite": "2020-08-31",
    "prix_contre_visite_min": 15,
    "prix_contre_visite_max": 15,
    "date_application_contre_visite": "2020-08-31",
    "cct_siret": 79068623200014,
    "latitude": 43.281059,
    "longitude": -0.387935,
    "coordgeo": {
      "lon": -0.387935,
      "lat": 43.281059
    },
    "cct_statut": "actif"
  },
  {
    "cct_code_dept": "Pyrénées-Atlantiques",
    "code_postal": null,
    "cct_code_commune": "Oloron-Sainte-Marie",
    "cct_denomination": "AUTO BILAN OLORONAIS 64",
    "cct_adresse": "3 BD DE L ARAGON",
    "cct_tel": "760865349",
    "cct_url": "https://agenda2.securitest.org/rdv/?origine=affilie&c=S064013&y_source=1_MjAxNDc2NDItNzE1LWxvY2F0aW9uLnJlc2VydmF0aW9uX3VybA%3D%3D",
    "cat_vehicule_id": "5",
    "cat_vehicule_libelle": "Camping-car (moins de 3,5 tonnes)",
    "cat_energie_id": "4",
    "cat_energie_libelle": "Hybride",
    "prix_visite": 78,
    "date_application_visite": "2023-04-03",
    "prix_contre_visite_min": 6,
    "prix_contre_visite_max": 16,
    "date_application_contre_visite": "2023-04-03",
    "cct_siret": 94853464900017,
    "latitude": 43.179878,
    "longitude": -0.6116,
    "coordgeo": {
      "lon": -0.6116,
      "lat": 43.179878
    },
    "cct_statut": "actif"
  },
  {
    "cct_code_dept": "Pyrénées-Atlantiques",
    "code_postal": "64210",
    "cct_code_commune": "Bidart",
    "cct_denomination": "AUTO BILAN ATLANTIC",
    "cct_adresse": "LD CONTRESTA",
    "cct_tel": "559265252",
    "cct_url": "http://noriskoauto-ct.fr/bidart-rn10",
    "cat_vehicule_id": "5",
    "cat_vehicule_libelle": "Camping-car (moins de 3,5 tonnes)",
    "cat_energie_id": "2",
    "cat_energie_libelle": "Diesel",
    "prix_visite": 80,
    "date_application_visite": "2023-01-01",
    "prix_contre_visite_min": 20,
    "prix_contre_visite_max": 40,
    "date_application_contre_visite": "2023-01-01",
    "cct_siret": 42176913400014,
    "latitude": 43.441619,
    "longitude": -1.573921,
    "coordgeo": {
      "lon": -1.573921,
      "lat": 43.441619
    },
    "cct_statut": "actif"
  },
  {
    "cct_code_dept": "Pyrénées-Atlantiques",
    "code_postal": null,
    "cct_code_commune": "Amendeuix-Oneix",
    "cct_denomination": "AUTO CONTROLE AMIKUZE",
    "cct_adresse": "RTE DE BIDACHE",
    "cct_tel": "559656595",
    "cct_url": "www.auto-controle-amikuze.fr",
    "cat_vehicule_id": "5",
    "cat_vehicule_libelle": "Camping-car (moins de 3,5 tonnes)",
    "cat_energie_id": "3",
    "cat_energie_libelle": "Gaz",
    "prix_visite": 93,
    "date_application_visite": "2019-07-01",
    "prix_contre_visite_min": 10,
    "prix_contre_visite_max": 20,
    "date_application_contre_visite": "2019-07-01",
    "cct_siret": 45020211400010,
    "latitude": 43.342288,
    "longitude": -1.045252,
    "coordgeo": {
      "lon": -1.045252,
      "lat": 43.342288
    },
    "cct_statut": "actif"
  },
  {
    "cct_code_dept": "Pyrénées-Atlantiques",
    "code_postal": null,
    "cct_code_commune": "Oloron-Sainte-Marie",
    "cct_denomination": "AUTO BEARN CONTROLE",
    "cct_adresse": "27 AV TRISTAN DEREME",
    "cct_tel": "559343438",
    "cct_url": "https://www.auto-bearn-controle.com",
    "cat_vehicule_id": "1",
    "cat_vehicule_libelle": "Voiture Particulière",
    "cat_energie_id": "5",
    "cat_energie_libelle": "Electrique",
    "prix_visite": 75,
    "date_application_visite": "2020-09-15",
    "prix_contre_visite_min": 10,
    "prix_contre_visite_max": 18,
    "date_application_contre_visite": "2020-09-15",
    "cct_siret": 49408408000014,
    "latitude": 43.186481,
    "longitude": -0.622451,
    "coordgeo": {
      "lon": -0.622451,
      "lat": 43.186481
    },
    "cct_statut": "actif"
  },
  {
    "cct_code_dept": "Pyrénées-Atlantiques",
    "code_postal": null,
    "cct_code_commune": "Oloron-Sainte-Marie",
    "cct_denomination": "AUTO BEARN CONTROLE",
    "cct_adresse": "27 AV TRISTAN DEREME",
    "cct_tel": "559343438",
    "cct_url": "https://www.auto-bearn-controle.com",
    "cat_vehicule_id": "3",
    "cat_vehicule_libelle": "Voiture de collection",
    "cat_energie_id": "2",
    "cat_energie_libelle": "Diesel",
    "prix_visite": 75,
    "date_application_visite": "2020-09-15",
    "prix_contre_visite_min": 10,
    "prix_contre_visite_max": 18,
    "date_application_contre_visite": "2020-09-15",
    "cct_siret": 49408408000014,
    "latitude": 43.186481,
    "longitude": -0.622451,
    "coordgeo": {
      "lon": -0.622451,
      "lat": 43.186481
    },
    "cct_statut": "actif"
  },
  {
    "cct_code_dept": "Pyrénées-Atlantiques",
    "code_postal": null,
    "cct_code_commune": "Oloron-Sainte-Marie",
    "cct_denomination": "AUTO BEARN CONTROLE",
    "cct_adresse": "27 AV TRISTAN DEREME",
    "cct_tel": "559343438",
    "cct_url": "https://www.auto-bearn-controle.com",
    "cat_vehicule_id": "3",
    "cat_vehicule_libelle": "Voiture de collection",
    "cat_energie_id": "3",
    "cat_energie_libelle": "Gaz",
    "prix_visite": 75,
    "date_application_visite": "2020-09-15",
    "prix_contre_visite_min": 10,
    "prix_contre_visite_max": 20,
    "date_application_contre_visite": "2022-09-29",
    "cct_siret": 49408408000014,
    "latitude": 43.186481,
    "longitude": -0.622451,
    "coordgeo": {
      "lon": -0.622451,
      "lat": 43.186481
    },
    "cct_statut": "actif"
  },
  {
    "cct_code_dept": "Pyrénées-Atlantiques",
    "code_postal": "64700",
    "cct_code_commune": "Hendaye",
    "cct_denomination": "HENDAYE CONTROLE",
    "cct_adresse": "RUE DE L AUTOPORT",
    "cct_tel": "559480550",
    "cct_url": null,
    "cat_vehicule_id": "4",
    "cat_vehicule_libelle": "Camionnette",
    "cat_energie_id": "5",
    "cat_energie_libelle": "Electrique",
    "prix_visite": 110,
    "date_application_visite": "2020-08-31",
    "prix_contre_visite_min": 25,
    "prix_contre_visite_max": 40,
    "date_application_contre_visite": "2020-08-31",
    "cct_siret": 38755607900011,
    "latitude": 43.346956,
    "longitude": -1.77108,
    "coordgeo": {
      "lon": -1.77108,
      "lat": 43.346956
    },
    "cct_statut": "actif"
  },
  {
    "cct_code_dept": "Pyrénées-Atlantiques",
    "code_postal": "64700",
    "cct_code_commune": "Hendaye",
    "cct_denomination": "HENDAYE CONTROLE",
    "cct_adresse": "RUE DE L AUTOPORT",
    "cct_tel": "559480550",
    "cct_url": null,
    "cat_vehicule_id": "3",
    "cat_vehicule_libelle": "Voiture de collection",
    "cat_energie_id": "3",
    "cat_energie_libelle": "Gaz",
    "prix_visite": 110,
    "date_application_visite": "2020-08-31",
    "prix_contre_visite_min": 25,
    "prix_contre_visite_max": 40,
    "date_application_contre_visite": "2020-08-31",
    "cct_siret": 38755607900011,
    "latitude": 43.346956,
    "longitude": -1.77108,
    "coordgeo": {
      "lon": -1.77108,
      "lat": 43.346956
    },
    "cct_statut": "actif"
  },