[
  {
    "cct_code_dept": "Savoie",
    "code_postal": null,
    "cct_code_commune": "Montmélian",
    "cct_denomination": "CONTROLE TECHNIQUE MONTMELIAN",
    "cct_adresse": "RUE GAMBETTA",
    "cct_tel": "479844848",
    "cct_url": "https://controle-technique-montmelian.autosecurite.com",
    "cat_vehicule_id": "3",
    "cat_vehicule_libelle": "Voiture de collection",
    "cat_energie_id": "2",
    "cat_energie_libelle": "Diesel",
    "prix_visite": 92,
    "date_application_visite": "2020-09-14",
    "prix_contre_visite_min": 15,
    "prix_contre_visite_max": 90,
    "date_application_contre_visite": "2020-09-14",
    "cct_siret": 42818513600028,
    "latitude": 45.505895,
    "longitude": 6.068646,
    "coordgeo": {
      "lon": 6.068646,
      "lat": 45.505895
    },
    "cct_statut": "actif"
  },
  {
    "cct_code_dept": "Savoie",
    "code_postal": "73200",
    "cct_code_commune": "Albertville",
    "cct_denomination": "AUTO CONTROLE 3",
    "cct_adresse": "263 AV DES 16EMES JEUX OLYMPIQUES",
    "cct_tel": "479370130",
    "cct_url": null,
    "cat_vehicule_id": "2",
    "cat_vehicule_libelle": "4 x 4",
    "cat_energie_id": "1",
    "cat_energie_libelle": "Essence",
    "prix_visite": 92,
    "date_application_visite": "2020-09-03",
    "prix_contre_visite_min": 22,
    "prix_contre_visite_max": 52,
    "date_application_contre_visite": "2020-09-03",
    "cct_siret": 75099561500010,
    "latitude": 45.660225,
    "longitude": 6.374427,
    "coordgeo": {
      "lon": 6.374427,
      "lat": 45.660225
    },
    "cct_statut": "actif"
  },
  {
    "cct_code_dept": "Savoie",
    "code_postal": "73200",
    "cct_code_commune": "Albertville",
    "cct_denomination": "AUTO CONTROLE 3",
    "cct_adresse": "263 AV DES 16EMES JEUX OLYMPIQUES",
    "cct_tel": "479370130",
    "cct_url": null,
    "cat_vehicule_id": "3",
    "cat_vehicule_libelle": "Voiture de collection",
    "cat_energie_id": "1",
    "cat_energie_libelle": "Essence",
    "prix_visite": 90,
    "date_application_visite": "2020-09-03",
    "prix_contre_visite_min": 20,
    "prix_contre_visite_max": 50,
    "date_application_contre_visite": "2020-09-03",
    "cct_siret": 75099561500010,
    "latitude": 45.660225,
    "longitude": 6.374427,
    "coordgeo": {
      "lon": 6.374427,
      "lat": 45.660225
    },
    "cct_statut": "actif"
  },
  {
    "cct_code_dept": "Savoie",
    "code_postal": null,
    "cct_code_commune": "Bourg-Saint-Maurice",
    "cct_denomination": "SARL AUTO CONTROLE BSM",
    "cct_adresse": "CROUSAZ",
    "cct_tel": null,
    "cct_url": null,
    "cat_vehicule_id": "5",
    "cat_vehicule_libelle": "Camping-car (moins de 3,5 tonnes)",
    "cat_energie_id": "5",
    "cat_energie_libelle": "Electrique",
    "prix_visite": 110,
    "date_application_visite": "2020-09-28",
    "prix_contre_visite_min": 15,
    "prix_contre_visite_max": 35,
    "date_application_contre_visite": "2020-09-28",
    "cct_siret": 42888413400027,
    "latitude": 45.623957,
    "longitude": 6.773184,
    "coordgeo": {
      "lon": 6.773184,
      "lat": 45.623957
    },
    "cct_statut": "actif"
  },
  {
    "cct_code_dept": "Savoie",
    "code_postal": null,
    "cct_code_commune": "Bourg-Saint-Maurice",
    "cct_denomination": "SARL AUTO CONTROLE BSM",
    "cct_adresse": "CROUSAZ",
    "cct_tel": null,
    "cct_url": null,
    "cat_vehicule_id": "1",
    "cat_vehicule_libelle": "Voiture Particulière",
    "cat_energie_id": "3",
    "cat_energie_libelle": "Gaz",
    "prix_visite": 125,
    "date_application_visite": "2020-09-28",
    "prix_contre_visite_min": 15,
    "prix_contre_visite_max": 35,
    "date_application_contre_visite": "2020-09-28",
    "cct_siret": 42888413400027,
    "latitude": 45.623957,
    "longitude": 6.773184,
    "coordgeo": {
      "lon": 6.773184,
      "lat": 45.623957
    },
    "cct_statut": "actif"
  },
  {
    "cct_code_dept": "Savoie",
    "code_postal": "73200",
    "cct_code_commune": "Albertville",
    "cct_denomination": "ALBERTVILLE CONTROLE TECHN AUTOMOBILE",
    "cct_adresse": "794 AV JOSEPH FONTANET",
    "cct_tel": "479370704",
    "cct_url": "https://www.acta73.fr",
    "cat_vehicule_id": "2",
    "cat_vehicule_libelle": "4 x 4",
    "cat_energie_id": "5",
    "cat_energie_libelle": "Electrique",
    "prix_visite": 90,
    "date_application_visite": "2020-09-14",
    "prix_contre_visite_min": 10,
    "prix_contre_visite_max": 45,
    "date_application_contre_visite": "2020-09-14",
    "cct_siret": 33524443000021,
    "latitude": 45.659551,
    "longitude": 6.367426,
    "coordgeo": {
      "lon": 6.367426,
      "lat": 45.659551
    },
    "cct_statut": "actif"
  },
  {
    "cct_code_dept": "Savoie",
    "code_postal": "73200",
    "cct_code_commune": "Albertville",
    "cct_denomination": "ALBERTVILLE CONTROLE TECHN AUTOMOBILE",
    "cct_adresse": "794 AV JOSEPH FONTANET",
    "cct_tel": "479370704",
    "cct_url": "https://www.acta73.fr",
    "cat_vehicule_id": "1",
    "cat_vehicule_libelle": "Voiture Particulière",
    "cat_energie_id": "4",
    "cat_energie_libelle": "Hybride",
    "prix_visite": 90,
    "date_application_visite": "2020-09-14",
    "prix_contre_visite_min": 10,
    "prix_contre_visite_max": 45,
    "date_application_contre_visite": "2020-09-14",
    "cct_siret": 33524443000021,
    "latitude": 45.659551,
    "longitude": 6.367426,
    "coordgeo": {
      "lon": 6.367426,
      "lat": 45.659551
    },
    "cct_statut": "actif"
  },
  {
    "cct_code_dept": "Savoie",
    "code_postal": "73500",
    "cct_code_commune": "Modane",
    "cct_denomination": "MODANE CONTROLE AUTO",
    "cct_adresse": "CHE DES BARAQUES",
    "cct_tel": "479050137",
    "cct_url": null,
    "cat_vehicule_id": "2",
    "cat_vehicule_libelle": "4 x 4",
    "cat_energie_id": "1",
    "cat_energie_libelle": "Essence",
    "prix_visite": 95,
    "date_application_visite": "2020-08-31",
    "prix_contre_visite_min": 15,
    "prix_contre_visite_max": 35,
    "date_application_contre_visite": "2020-08-31",
    "cct_siret": 38875071300017,
    "latitude": 45.19286,
    "longitude": 6.66012,
    "coordgeo": {
      "lon": 6.66012,
      "lat": 45.19286
    },
    "cct_statut": "actif"
  },
  {
    "cct_code_dept": "Savoie",
    "code_postal": null,
    "cct_code_commune": "Chambéry",
    "cct_denomination": "AUTOMOBILE CLUB - DEKRA CONTROLE",
    "cct_adresse": "15 RUE FRANCOIS GUISE",
    "cct_tel": "479625555",
    "cct_url": "dekra-norisko.fr",
    "cat_vehicule_id": "3",
    "cat_vehicule_libelle": "Voiture de collection",
    "cat_energie_id": "5",
    "cat_energie_libelle": "Electrique",
    "prix_visite": 105,
    "date_application_visite": "2023-01-05",
    "prix_contre_visite_min": 15,
    "prix_contre_visite_max": 35,
    "date_application_contre_visite": "2021-01-14",
    "cct_siret": 38867048100026,
    "latitude": 45.578243,
    "longitude": 5.909182,
    "coordgeo": {
      "lon": 5.909182,
      "lat": 45.578243
    },
    "cct_statut": "actif"
  },
  {
    "cct_code_dept": "Savoie",
    "code_postal": null,
    "cct_code_commune": "Drumettaz-Clarafond",
    "cct_denomination": "DRUMETTAZ CONTROLE TECHNIQUE",
    "cct_adresse": "295 ALL DU BENIET",
    "cct_tel": "479342535",
    "cct_url": null,
    "cat_vehicule_id": "5",
    "cat_vehicule_libelle": "Camping-car (moins de 3,5 tonnes)",
    "cat_energie_id": "1",
    "cat_energie_libelle": "Essence",
    "prix_visite": 95,
    "date_application_visite": "2020-09-02",
    "prix_contre_visite_min": 15,
    "prix_contre_visite_max": 35,
    "date_application_contre_visite": "2020-09-02",
    "cct_siret": 43039212600016,
    "latitude": 45.657339,
    "longitude": 5.910781,
    "coordgeo": {
      "lon": 5.910781,
      "lat": 45.657339
    },
    "cct_statut": "actif"
  },
  {
    "cct_code_dept": "Savoie",
    "code_postal": null,
    "cct_code_commune": "Drumettaz-Clarafond",
    "cct_denomination": "DRUMETTAZ CONTROLE TECHNIQUE",
    "cct_adresse": "295 ALL DU BENIET",
    "cct_tel": "479342535",
    "cct_url": null,
    "cat_vehicule_id": "1",
    "cat_vehicule_libelle": "Voiture Particulière",
    "cat_energie_id": "1",
    "cat_energie_libelle": "Essence",
    "prix_visite": 98,
    "date_application_visite": "2023-01-01",
    "prix_contre_visite_min": 15,
    "prix_contre_visite_max": 35,
    "date_application_contre_visite": "2023-01-01",
    "cct_siret": 43039212600016,
    "latitude": 45.657339,
    "longitude": 5.910781,
    "coordgeo": {
      "lon": 5.910781,
      "lat": 45.657339
    },
    "cct_statut": "actif"
  },
  {
    "cct_code_dept": "Savoie",
    "code_postal": null,
    "cct_code_commune": "Drumettaz-Clarafond",
    "cct_denomination": "DRUMETTAZ CONTROLE TECHNIQUE",
    "cct_adresse": "295 ALL DU BENIET",
    "cct_tel": "479342535",
    "cct_url": null,
    "cat_vehicule_id": "1",
    "cat_vehicule_libelle": "Voiture Particulière",
    "cat_energie_id": "4",
    "cat_energie_libelle": "Hybride",
    "prix_visite": 95,
    "date_application_visite": "2020-09-02",
    "prix_contre_visite_min": 15,
    "prix_contre_visite_max": 35,
    "date_application_contre_visite": "2020-09-02",
    "cct_siret": 43039212600016,
    "latitude": 45.657339,
    "longitude": 5.910781,
    "coordgeo": {
      "lon": 5.910781,
      "lat": 45.657339
    },
    "cct_statut": "actif"
  },
  {
    "cct_code_dept": "Savoie",
    "code_postal": null,
    "cct_code_commune": "Aigueblanche",
    "cct_denomination": "BELLECOMBE - AUTO CONTROLE",
    "cct_adresse": "51 ALL DES PEUPLIERS",
    "cct_tel": "479244369",
    "cct_url": null,
    "cat_vehicule_id": "2",
    "cat_vehicule_libelle": "4 x 4",
    "cat_energie_id": "4",
    "cat_energie_libelle": "Hybride",
    "prix_visite": 90,
    "date_application_visite": "2020-09-16",
    "prix_contre_visite_min": 15,
    "prix_contre_visite_max": 35,
    "date_application_contre_visite": "2020-09-16",
    "cct_siret": 48279495500013,
    "latitude": 45.503355,
    "longitude": 6.500928,
    "coordgeo": {
      "lon": 6.500928,
      "lat": 45.503355
    },
    "cct_statut": "actif"
  },
  {
    "cct_code_dept": "Savoie",
    "code_postal": null,
    "cct_code_commune": "Chambéry",
    "cct_denomination": "BELLECOMBE - AUTO CONTROLE",
    "cct_adresse": "954 AV DES LANDIERS",
    "cct_tel": "479627500",
    "cct_url": "www.dekra-norisko.fr",
    "cat_vehicule_id": "1",
    "cat_vehicule_libelle": "Voiture Particulière",
    "cat_energie_id": "5",
    "cat_energie_libelle": "Electrique",
    "prix_visite": 90,
    "date_application_visite": "2020-08-28",
    "prix_contre_visite_min": 15,
    "prix_contre_visite_max": 35,
    "date_application_contre_visite": "2020-08-28",
    "cct_siret": 48279495500021,
    "latitude": 45.592307,
    "longitude": 5.90255,
    "coordgeo": {
      "lon": 5.90255,
      "lat": 45.592307
    },
    "cct_statut": "actif"
  },
  {
    "cct_code_dept": "Savoie",
    "code_postal": null,
    "cct_code_commune": "Saint-Jeoire-Prieuré",
    "cct_denomination": "CHALLES CONTROLE TECHNIQUE",
    "cct_adresse": "ZA DES COTES",
    "cct_tel": "479710501",
    "cct_url": null,
    "cat_vehicule_id": "1",
    "cat_vehicule_libelle": "Voiture Particulière",
    "cat_energie_id": "5",
    "cat_energie_libelle": "Electrique",
    "prix_visite": 96,
    "date_application_visite": "2020-09-29",
    "prix_contre_visite_min": 12,
    "prix_contre_visite_max": 40,
    "date_application_contre_visite": "2020-09-29",
    "cct_siret": 41302801000028,
    "latitude": 45.52699,
    "longitude": 5.989439,
    "coordgeo": {
      "lon": 5.989439,
      "lat": 45.52699
    },
    "cct_statut": "actif"
  },
  {
    "cct_code_dept": "Savoie",
    "code_postal": "73470",
    "cct_code_commune": "Novalaise",
    "cct_denomination": "CTRG",
    "cct_adresse": "381 RTE DU LAC",
    "cct_tel": "479693154",
    "cct_url": "https://www.dekra-norisko.fr/centres-controle-technique/novalaise,73470/controle-technique-de-novalaise-ctrg,s073d080",
    "cat_vehicule_id": "2",
    "cat_vehicule_libelle": "4 x 4",
    "cat_energie_id": "5",
    "cat_energie_libelle": "Electrique",
    "prix_visite": 90,
    "date_application_visite": "2020-09-02",
    "prix_contre_visite_min": 10,
    "prix_contre_visite_max": 30,
    "date_application_contre_visite": "2020-09-02",
    "cct_siret": 79399471600017,
    "latitude": 45.594525,
    "longitude": 5.775663,
    "coordgeo": {
      "lon": 5.775663,
      "lat": 45.594525
    },
    "cct_statut": "actif"
  },
  {
    "cct_code_dept": "Savoie",
    "code_postal": "73310",
    "cct_code_commune": "Ruffieux",
    "cct_denomination": "CHAUTAGNE CONTROLE TECHNIQUE",
    "cct_adresse": "47 RUE DE JERUSALEM",
    "cct_tel": "479522876",
    "cct_url": "https://www.dekra-norisko.fr/centres-controle-technique/ruffieux,73310/chautagne-controle-technique,s073d101",
    "cat_vehicule_id": "4",
    "cat_vehicule_libelle": "Camionnette",
    "cat_energie_id": "5",
    "cat_energie_libelle": "Electrique",
    "prix_visite": 102,
    "date_application_visite": "2023-05-04",
    "prix_contre_visite_min": 22,
    "prix_contre_visite_max": 42,
    "date_application_contre_visite": "2023-05-04",
    "cct_siret": 94910812000013,
    "latitude": 45.848679,
    "longitude": 5.836792,
    "coordgeo": {
      "lon": 5.836792,
      "lat": 45.848679
    },
    "cct_statut": "actif"
  },
  {
    "cct_code_dept": "Savoie",
    "code_postal": null,
    "cct_code_commune": "Le Pont-de-Beauvoisin",
    "cct_denomination": "CENTRE DE CONTROLE AUTOMOBILE PONTOIS",
    "cct_adresse": "ZI LA BARONNIE",
    "cct_tel": "476373873",
    "cct_url": "www.controle-autovision.com",
    "cat_vehicule_id": "4",
    "cat_vehicule_libelle": "Camionnette",
    "cat_energie_id": "1",
    "cat_energie_libelle": "Essence",
    "prix_visite": 95,
    "date_application_visite": "2023-01-02",
    "prix_contre_visite_min": 10,
    "prix_contre_visite_max": 30,
    "date_application_contre_visite": "2020-09-02",
    "cct_siret": 38363511700013,
    "latitude": 45.530208,
    "longitude": 5.685965,
    "coordgeo": {
      "lon": 5.685965,
      "lat": 45.530208
    },
    "cct_statut": "actif"
  },
  {
    "cct_code_dept": "Savoie",
    "code_postal": null,
    "cct_code_commune": "Le Pont-de-Beauvoisin",
    "cct_denomination": "CENTRE DE CONTROLE AUTOMOBILE PONTOIS",
    "cct_adresse": "ZI LA BARONNIE",
    "cct_tel": "476373873",
    "cct_url": "www.controle-autovision.com",
    "cat_vehicule_id": "4",
    "cat_vehicule_libelle": "Camionnette",
    "cat_energie_id": "3",
    "cat_energie_libelle": "Gaz",
    "prix_visite": 105,
    "date_application_visite": "2020-09-02",
    "prix_contre_visite_min": 10,
    "prix_contre_visite_max": 30,
    "date_application_contre_visite": "2020-09-02",
    "cct_siret": 38363511700013,
    "latitude": 45.530208,
    "longitude": 5.685965,
    "coordgeo": {
      "lon": 5.685965,
      "lat": 45.530208
    },
    "cct_statut": "actif"
  },
  {
    "cct_code_dept": "Savoie",
    "code_postal": null,
    "cct_code_commune": "Le Pont-de-Beauvoisin",
    "cct_denomination": "CENTRE DE CONTROLE AUTOMOBILE PONTOIS",
    "cct_adresse": "ZI LA BARONNIE",
    "cct_tel": "476373873",
    "cct_url": "www.controle-autovision.com",
    "cat_vehicule_id": "3",
    "cat_vehicule_libelle": "Voiture de collection",
    "cat_energie_id": "5",
    "cat_energie_libelle": "Electrique",
    "prix_visite": 105,
    "date_application_visite": "2020-09-02",
    "prix_contre_visite_min": 10,
    "prix_contre_visite_max": 30,
    "date_application_contre_visite": "2020-09-02",
    "cct_siret": 38363511700013,
    "latitude": 45.530208,
    "longitude": 5.685965,
    "coordgeo": {
      "lon": 5.685965,
      "lat": 45.530208
    },
    "cct_statut": "actif"
  },
  {
    "cct_code_dept": "Savoie",
    "code_postal": null,
    "cct_code_commune": "Le Pont-de-Beauvoisin",
    "cct_denomination": "CENTRE DE CONTROLE AUTOMOBILE PONTOIS",
    "cct_adresse": "ZI LA BARONNIE",
    "cct_tel": "476373873",
    "cct_url": "www.controle-autovision.com",
    "cat_vehicule_id": "3",
    "cat_vehicule_libelle": "Voiture de collection",
    "cat_energie_id": "3",
    "cat_energie_libelle": "Gaz",
    "prix_visite": 105,
    "date_application_visite": "2020-09-02",
    "prix_contre_visite_min": 10,
    "prix_contre_visite_max": 30,
    "date_application_contre_visite": "2020-09-02",
    "cct_siret": 38363511700013,
    "latitude": 45.530208,
    "longitude": 5.685965,
    "coordgeo": {
      "lon": 5.685965,
      "lat": 45.530208
    },
    "cct_statut": "actif"
  },
  {
    "cct_code_dept": "Savoie",
    "code_postal": null,
    "cct_code_commune": "Gilly-sur-Isère",
    "cct_denomination": "CENTRE CONTROLE AUTOMOB GILLY SUR ISERE",
    "cct_adresse": "2176 RTE DE CHAMBERY",
    "cct_tel": "479323793",
    "cct_url": null,
    "cat_vehicule_id": "1",
    "cat_vehicule_libelle": "Voiture Particulière",
    "cat_energie_id": "5",
    "cat_energie_libelle": "Electrique",
    "prix_visite": 90,
    "date_application_visite": "2021-02-23",
    "prix_contre_visite_min": 10,
    "prix_contre_visite_max": 30,
    "date_application_contre_visite": "2021-02-23",
    "cct_siret": 38794393900018,
    "latitude": 45.651472,
    "longitude": 6.336774,
    "coordgeo": {
      "lon": 6.336774,
      "lat": 45.651472
    },
    "cct_statut": "actif"
  },
  {
    "cct_code_dept": "Savoie",
    "code_postal": null,
    "cct_code_commune": "Gilly-sur-Isère",
    "cct_denomination": "CENTRE CONTROLE AUTOMOB GILLY SUR ISERE",
    "cct_adresse": "2176 RTE DE CHAMBERY",
    "cct_tel": "479323793",
    "cct_url": null,
    "cat_vehicule_id": "1",
    "cat_vehicule_libelle": "Voiture Particulière",
    "cat_energie_id": "1",
    "cat_energie_libelle": "Essence",
    "prix_visite": 90,
    "date_application_visite": "2021-02-23",
    "prix_contre_visite_min": 10,
    "prix_contre_visite_max": 30,
    "date_application_contre_visite": "2021-02-23",
    "cct_siret": 38794393900018,
    "latitude": 45.651472,
    "longitude": 6.336774,
    "coordgeo": {
      "lon": 6.336774,
      "lat": 45.651472
    },
    "cct_statut": "actif"
  },
  {
    "cct_code_dept": "Savoie",
    "code_postal": "08300",
    "cct_code_commune": "Barby",
    "cct_denomination": "BARBY CTA",
    "cct_adresse": "L'AVENUE PAUL CHEVALIER",
    "cct_tel": "479729349",
    "cct_url": null,
    "cat_vehicule_id": "4",
    "cat_vehicule_libelle": "Camionnette",
    "cat_energie_id": "1",
    "cat_energie_libelle": "Essence",
    "prix_visite": 98,
    "date_application_visite": "2022-05-02",
    "prix_contre_visite_min": 10,
    "prix_contre_visite_max": 45,
    "date_application_contre_visite": "2020-09-04",
    "cct_siret": 38819772500012,
    "latitude": 45.568745,
    "longitude": 5.975211,
    "coordgeo": {
      "lon": 5.975211,
      "lat": 45.568745
    },
    "cct_statut": "actif"
  },
  {
    "cct_code_dept": "Savoie",
    "code_postal": "08300",
    "cct_code_commune": "Barby",
    "cct_denomination": "BARBY CTA",
    "cct_adresse": "L'AVENUE PAUL CHEVALIER",
    "cct_tel": "479729349",
    "cct_url": null,
    "cat_vehicule_id": "1",
    "cat_vehicule_libelle": "Voiture Particulière",
    "cat_energie_id": "5",
    "cat_energie_libelle": "Electrique",
    "prix_visite": 98,
    "date_application_visite": "2022-05-02",
    "prix_contre_visite_min": 10,
    "prix_contre_visite_max": 45,
    "date_application_contre_visite": "2020-09-04",
    "cct_siret": 38819772500012,
    "latitude": 45.568745,
    "longitude": 5.975211,
    "coordgeo": {
      "lon": 5.975211,
      "lat": 45.568745
    },
    "cct_statut": "actif"
  },
  {
    "cct_code_dept": "Savoie",
    "code_postal": null,
    "cct_code_commune": "Aix-les-Bains",
    "cct_denomination": "CTRE CONTROLE TECHNIQUE AUTO AIX LES BAINS",
    "cct_adresse": "529 BD PDT WILSON",
    "cct_tel": "610940760",
    "cct_url": null,
    "cat_vehicule_id": "4",
    "cat_vehicule_libelle": "Camionnette",
    "cat_energie_id": "5",
    "cat_energie_libelle": "Electrique",
    "prix_visite": 84,
    "date_application_visite": "2020-11-06",
    "prix_contre_visite_min": 10,
    "prix_contre_visite_max": 32,
    "date_application_contre_visite": "2020-11-06",
    "cct_siret": 50318199200010,
    "latitude": 45.686978,
    "longitude": 5.909969,
    "coordgeo": {
      "lon": 5.909969,
      "lat": 45.686978
    },
    "cct_statut": "actif"
  },
  {
    "cct_code_dept": "Savoie",
    "code_postal": null,
    "cct_code_commune": "Aix-les-Bains",
    "cct_denomination": "CTRE CONTROLE TECHNIQUE AUTO AIX LES BAINS",
    "cct_adresse": "529 BD PDT WILSON",
    "cct_tel": "610940760",
    "cct_url": null,
    "cat_vehicule_id": "4",
    "cat_vehicule_libelle": "Camionnette",
    "cat_energie_id": "1",
    "cat_energie_libelle": "Essence",
    "prix_visite": 82,
    "date_application_visite": "2020-11-06",
    "prix_contre_visite_min": 10,
    "prix_contre_visite_max": 32,
    "date_application_contre_visite": "2020-11-06",
    "cct_siret": 50318199200010,
    "latitude": 45.686978,
    "longitude": 5.909969,
    "coordgeo": {
      "lon": 5.909969,
      "lat": 45.686978
    },
    "cct_statut": "actif"
  },
  {
    "cct_code_dept": "Savoie",
    "code_postal": null,
    "cct_code_commune": "Saint-Jean-de-Maurienne",
    "cct_denomination": "MAURIENNE CONTROLE TECHNIQUE",
    "cct_adresse": "1 RUE DU PARQUET",
    "cct_tel": "479640000",
    "cct_url": null,
    "cat_vehicule_id": "4",
    "cat_vehicule_libelle": "Camionnette",
    "cat_energie_id": "2",
    "cat_energie_libelle": "Diesel",
    "prix_visite": 95,
    "date_application_visite": "2020-10-16",
    "prix_contre_visite_min": 20,
    "prix_contre_visite_max": 40,
    "date_application_contre_visite": "2020-10-16",
    "cct_siret": 53875322900029,
    "latitude": 45.271111,
    "longitude": 6.360064,
    "coordgeo": {
      "lon": 6.360064,
      "lat": 45.271111
    },
    "cct_statut": "actif"
  },
  {
    "cct_code_dept": "Savoie",
    "code_postal": null,
    "cct_code_commune": "Saint-Jean-de-Maurienne",
    "cct_denomination": "MAURIENNE CONTROLE TECHNIQUE",
    "cct_adresse": "1 RUE DU PARQUET",
    "cct_tel": "479640000",
    "cct_url": null,
    "cat_vehicule_id": "5",
    "cat_vehicule_libelle": "Camping-car (moins de 3,5 tonnes)",
    "cat_energie_id": "1",
    "cat_energie_libelle": "Essence",
    "prix_visite": 95,
    "date_application_visite": "2020-10-16",
    "prix_contre_visite_min": 20,
    "prix_contre_visite_max": 40,
    "date_application_contre_visite": "2020-10-16",
    "cct_siret": 53875322900029,
    "latitude": 45.271111,
    "longitude": 6.360064,
    "coordgeo": {
      "lon": 6.360064,
      "lat": 45.271111
    },
    "cct_statut": "actif"
  },
  {
    "cct_code_dept": "Savoie",
    "code_postal": null,
    "cct_code_commune": "Saint-Jean-de-Maurienne",
    "cct_denomination": "MAURIENNE CONTROLE TECHNIQUE",
    "cct_adresse": "1 RUE DU PARQUET",
    "cct_tel": "479640000",
    "cct_url": null,
    "cat_vehicule_id": "1",
    "cat_vehicule_libelle": "Voiture Particulière",
    "cat_energie_id": "2",
    "cat_energie_libelle": "Diesel",
    "prix_visite": 90,
    "date_application_visite": "2020-10-16",
    "prix_contre_visite_min": 20,
    "prix_contre_visite_max": 40,
    "date_application_contre_visite": "2020-10-16",
    "cct_siret": 53875322900029,
    "latitude": 45.271111,
    "longitude": 6.360064,
    "coordgeo": {
      "lon": 6.360064,
      "lat": 45.271111
    },
    "cct_statut": "actif"
  },
  {
    "cct_code_dept": "Savoie",
    "code_postal": null,
    "cct_code_commune": "Saint-Jean-de-Maurienne",
    "cct_denomination": "MAURIENNE CONTROLE TECHNIQUE",
    "cct_adresse": "1 RUE DU PARQUET",
    "cct_tel": "479640000",
    "cct_url": null,
    "cat_vehicule_id": "1",
    "cat_vehicule_libelle": "Voiture Particulière",
    "cat_energie_id": "4",
    "cat_energie_libelle": "Hybride",
    "prix_visite": 95,
    "date_application_visite": "2020-10-16",
    "prix_contre_visite_min": 20,
    "prix_contre_visite_max": 40,
    "date_application_contre_visite": "2020-10-16",
    "cct_siret": 53875322900029,
    "latitude": 45.271111,
    "longitude": 6.360064,
    "coordgeo": {
      "lon": 6.360064,
      "lat": 45.271111
    },
    "cct_statut": "actif"
  },
  {
    "cct_code_dept": "Savoie",
    "code_postal": "73400",
    "cct_code_commune": "Ugine",
    "cct_denomination": "SARL CONTROLE TECHNIQUE UGINOIS",
    "cct_adresse": "206 RUE DU NANT DE CRUET",
    "cct_tel": "479890076",
    "cct_url": null,
    "cat_vehicule_id": "2",
    "cat_vehicule_libelle": "4 x 4",
    "cat_energie_id": "3",
    "cat_energie_libelle": "Gaz",
    "prix_visite": 120,
    "date_application_visite": "2018-05-21",
    "prix_contre_visite_min": 10,
    "prix_contre_visite_max": 30,
    "date_application_contre_visite": "2018-05-21",
    "cct_siret": 88168415300011,
    "latitude": 45.759722,
    "longitude": 6.395525,
    "coordgeo": {
      "lon": 6.395525,
      "lat": 45.759722
    },
    "cct_statut": "actif"
  },
  {
    "cct_code_dept": "Savoie",
    "code_postal": "73800",
    "cct_code_commune": "Laissaud",
    "cct_denomination": "CONTROLE TECHNIQUE DU GRESIVAUDAN",
    "cct_adresse": "RTE DEPARTEMENTALE 923",
    "cct_tel": "479289013",
    "cct_url": "https://controle-technique.autosur.fr/153-autosur-laissaud",
    "cat_vehicule_id": "2",
    "cat_vehicule_libelle": "4 x 4",
    "cat_energie_id": "3",
    "cat_energie_libelle": "Gaz",
    "prix_visite": 109,
    "date_application_visite": "2020-09-10",
    "prix_contre_visite_min": 15,
    "prix_contre_visite_max": 65,
    "date_application_contre_visite": "2020-09-10",
    "cct_siret": 38524343100017,
    "latitude": 45.446241,
    "longitude": 6.036373,
    "coordgeo": {
      "lon": 6.036373,
      "lat": 45.446241
    },
    "cct_statut": "actif"
  },
  {
    "cct_code_dept": "Savoie",
    "code_postal": "73800",
    "cct_code_commune": "Laissaud",
    "cct_denomination": "CONTROLE TECHNIQUE DU GRESIVAUDAN",
    "cct_adresse": "RTE DEPARTEMENTALE 923",
    "cct_tel": "479289013",
    "cct_url": "https://controle-technique.autosur.fr/153-autosur-laissaud",
    "cat_vehicule_id": "2",
    "cat_vehicule_libelle": "4 x 4",
    "cat_energie_id": "4",
    "cat_energie_libelle": "Hybride",
    "prix_visite": 109,
    "date_application_visite": "2020-09-10",
    "prix_contre_visite_min": 15,
    "prix_contre_visite_max": 65,
    "date_application_contre_visite": "2020-09-10",
    "cct_siret": 38524343100017,
    "latitude": 45.446241,
    "longitude": 6.036373,
    "coordgeo": {
      "lon": 6.036373,
      "lat": 45.446241
    },
    "cct_statut": "actif"
  },
  {
    "cct_code_dept": "Savoie",
    "code_postal": "73800",
    "cct_code_commune": "Laissaud",
    "cct_denomination": "CONTROLE TECHNIQUE DU GRESIVAUDAN",
    "cct_adresse": "RTE DEPARTEMENTALE 923",
    "cct_tel": "479289013",
    "cct_url": "https://controle-technique.autosur.fr/153-autosur-laissaud",
    "cat_vehicule_id": "3",
    "cat_vehicule_libelle": "Voiture de collection",
    "cat_energie_id": "4",
    "cat_energie_libelle": "Hybride",
    "prix_visite": 109,
    "date_application_visite": "2020-09-10",
    "prix_contre_visite_min": 29,
    "prix_contre_visite_max": 39,
    "date_application_contre_visite": "2020-09-10",
    "cct_siret": 38524343100017,
    "latitude": 45.446241,
    "longitude": 6.036373,
    "coordgeo": {
      "lon": 6.036373,
      "lat": 45.446241
    },
    "cct_statut": "actif"
  },
  {
    "cct_code_dept": "Savoie",
    "code_postal": null,
    "cct_code_commune": "Moûtiers",
    "cct_denomination": "CENTRE DE CONTROLE MOUTIERS",
    "cct_adresse": "108 RUE DE GASCOGNE",
    "cct_tel": "479240199",
    "cct_url": "http://www.controle-technique-moutiers.securitest.fr",
    "cat_vehicule_id": "5",
    "cat_vehicule_libelle": "Camping-car (moins de 3,5 tonnes)",
    "cat_energie_id": "4",
    "cat_energie_libelle": "Hybride",
    "prix_visite": 100,
    "date_application_visite": "2020-09-08",
    "prix_contre_visite_min": 15,
    "prix_contre_visite_max": 45,
    "date_application_contre_visite": "2020-09-08",
    "cct_siret": 39920090600010,
    "latitude": 45.484794,
    "longitude": 6.526166,
    "coordgeo": {
      "lon": 6.526166,
      "lat": 45.484794
    },
    "cct_statut": "actif"
  },
  {
    "cct_code_dept": "Savoie",
    "code_postal": null,
    "cct_code_commune": "Moûtiers",
    "cct_denomination": "CENTRE DE CONTROLE MOUTIERS",
    "cct_adresse": "108 RUE DE GASCOGNE",
    "cct_tel": "479240199",
    "cct_url": "http://www.controle-technique-moutiers.securitest.fr",
    "cat_vehicule_id": "1",
    "cat_vehicule_libelle": "Voiture Particulière",
    "cat_energie_id": "2",
    "cat_energie_libelle": "Diesel",
    "prix_visite": 90,
    "date_application_visite": "2020-09-08",
    "prix_contre_visite_min": 15,
    "prix_contre_visite_max": 45,
    "date_application_contre_visite": "2020-09-08",
    "cct_siret": 39920090600010,
    "latitude": 45.484794,
    "longitude": 6.526166,
    "coordgeo": {
      "lon": 6.526166,
      "lat": 45.484794
    },
    "cct_statut": "actif"
  },
  {
    "cct_code_dept": "Savoie",
    "code_postal": null,
    "cct_code_commune": "Saint-Alban-Leysse",
    "cct_denomination": "SAVOIE AUTOTEST",
    "cct_adresse": "13 CHE DE LA MARTINIERE",
    "cct_tel": "479856465",
    "cct_url": null,
    "cat_vehicule_id": "2",
    "cat_vehicule_libelle": "4 x 4",
    "cat_energie_id": "1",
    "cat_energie_libelle": "Essence",
    "prix_visite": 99,
    "date_application_visite": "2022-05-02",
    "prix_contre_visite_min": 10,
    "prix_contre_visite_max": 45,
    "date_application_contre_visite": "2020-09-04",
    "cct_siret": 38535542500021,
    "latitude": 45.572994,
    "longitude": 5.949631,
    "coordgeo": {
      "lon": 5.949631,
      "lat": 45.572994
    },
    "cct_statut": "actif"
  },
  {
    "cct_code_dept": "Savoie",
    "code_postal": null,
    "cct_code_commune": "Saint-Alban-Leysse",
    "cct_denomination": "SAVOIE AUTOTEST",
    "cct_adresse": "13 CHE DE LA MARTINIERE",
    "cct_tel": "479856465",
    "cct_url": null,
    "cat_vehicule_id": "5",
    "cat_vehicule_libelle": "Camping-car (moins de 3,5 tonnes)",
    "cat_energie_id": "4",
    "cat_energie_libelle": "Hybride",
    "prix_visite": 98,
    "date_application_visite": "2020-09-04",
    "prix_contre_visite_min": 10,
    "prix_contre_visite_max": 45,
    "date_application_contre_visite": "2020-09-04",
    "cct_siret": 38535542500021,
    "latitude": 45.572994,
    "longitude": 5.949631,
    "coordgeo": {
      "lon": 5.949631,
      "lat": 45.572994
    },
    "cct_statut": "actif"
  },
  {
    "cct_code_dept": "Savoie",
    "code_postal": null,
    "cct_code_commune": "Séez",
    "cct_denomination": "AUTOMOBILE CONTROLE DES ALPES",
    "cct_adresse": "6 RUE DES GLIERES",
    "cct_tel": "624883473",
    "cct_url": null,
    "cat_vehicule_id": "1",
    "cat_vehicule_libelle": "Voiture Particulière",
    "cat_energie_id": "2",
    "cat_energie_libelle": "Diesel",
    "prix_visite": 100,
    "date_application_visite": "2020-09-15",
    "prix_contre_visite_min": 15,
    "prix_contre_visite_max": 35,
    "date_application_contre_visite": "2020-09-15",
    "cct_siret": 45227205700012,
    "latitude": 45.621882,
    "longitude": 6.790163,
    "coordgeo": {
      "lon": 6.790163,
      "lat": 45.621882
    },
    "cct_statut": "actif"
  },
  {
    "cct_code_dept": "Savoie",
    "code_postal": "73410",
    "cct_code_commune": "La Biolle",
    "cct_denomination": "SAVOIE CONTROLES",
    "cct_adresse": "15 RTE MOGNARD",
    "cct_tel": null,
    "cct_url": null,
    "cat_vehicule_id": "1",
    "cat_vehicule_libelle": "Voiture Particulière",
    "cat_energie_id": "2",
    "cat_energie_libelle": "Diesel",
    "prix_visite": 88,
    "date_application_visite": "2020-09-01",
    "prix_contre_visite_min": 15,
    "prix_contre_visite_max": 35,
    "date_application_contre_visite": "2020-09-01",
    "cct_siret": 83277516700014,
    "latitude": 45.754636,
    "longitude": 5.930367,
    "coordgeo": {
      "lon": 5.930367,
      "lat": 45.754636
    },
    "cct_statut": "actif"
  },
  {
    "cct_code_dept": "Savoie",
    "code_postal": "73410",
    "cct_code_commune": "La Biolle",
    "cct_denomination": "SAVOIE CONTROLES",
    "cct_adresse": "15 RTE MOGNARD",
    "cct_tel": null,
    "cct_url": null,
    "cat_vehicule_id": "3",
    "cat_vehicule_libelle": "Voiture de collection",
    "cat_energie_id": "4",
    "cat_energie_libelle": "Hybride",
    "prix_visite": 98,
    "date_application_visite": "2020-09-01",
    "prix_contre_visite_min": 15,
    "prix_contre_visite_max": 35,
    "date_application_contre_visite": "2020-09-01",
    "cct_siret": 83277516700014,
    "latitude": 45.754636,
    "longitude": 5.930367,
    "coordgeo": {
      "lon": 5.930367,
      "lat": 45.754636
    },
    "cct_statut": "actif"
  },
  {
    "cct_code_dept": "Savoie",
    "code_postal": null,
    "cct_code_commune": "Moûtiers",
    "cct_denomination": "autovision moutiers",
    "cct_adresse": "383 FG DE LA MADELEINE",
    "cct_tel": "479240359",
    "cct_url": "autovisionmout",
    "cat_vehicule_id": "2",
    "cat_vehicule_libelle": "4 x 4",
    "cat_energie_id": "4",
    "cat_energie_libelle": "Hybride",
    "prix_visite": 100,
    "date_application_visite": "2021-02-08",
    "prix_contre_visite_min": 15,
    "prix_contre_visite_max": 35,
    "date_application_contre_visite": "2021-02-08",
    "cct_siret": 37910330200020,
    "latitude": 45.486964,
    "longitude": 6.527155,
    "coordgeo": {
      "lon": 6.527155,
      "lat": 45.486964
    },
    "cct_statut": "actif"
  },
  {
    "cct_code_dept": "Savoie",
    "code_postal": null,
    "cct_code_commune": "Saint-Pierre-d'Albigny",
    "cct_denomination": "CTA 73",
    "cct_adresse": "ZA LE DOMAINE",
    "cct_tel": "479264621",
    "cct_url": "www.cta73.fr",
    "cat_vehicule_id": "4",
    "cat_vehicule_libelle": "Camionnette",
    "cat_energie_id": "4",
    "cat_energie_libelle": "Hybride",
    "prix_visite": 89,
    "date_application_visite": "2020-09-16",
    "prix_contre_visite_min": 20,
    "prix_contre_visite_max": 30,
    "date_application_contre_visite": "2020-09-16",
    "cct_siret": 84024742300014,
    "latitude": 45.573359,
    "longitude": 6.181626,
    "coordgeo": {
      "lon": 6.181626,
      "lat": 45.573359
    },
    "cct_statut": "actif"
  },
  {
    "cct_code_dept": "Savoie",
    "code_postal": null,
    "cct_code_commune": "Aix-les-Bains",
    "cct_denomination": "AUTO CONTROLE  SAVOYARD",
    "cct_adresse": "192 AV DE ST SIMOND",
    "cct_tel": "479889969",
    "cct_url": null,
    "cat_vehicule_id": "1",
    "cat_vehicule_libelle": "Voiture Particulière",
    "cat_energie_id": "3",
    "cat_energie_libelle": "Gaz",
    "prix_visite": 115,
    "date_application_visite": "2020-10-12",
    "prix_contre_visite_min": 10,
    "prix_contre_visite_max": 48,
    "date_application_contre_visite": "2020-10-12",
    "cct_siret": 44747664900028,
    "latitude": 45.694861,
    "longitude": 5.910537,
    "coordgeo": {
      "lon": 5.910537,
      "lat": 45.694861
    },
    "cct_statut": "actif"
  },
  {
    "cct_code_dept": "Savoie",
    "code_postal": "73200",
    "cct_code_commune": "Albertville",
    "cct_denomination": "CTA 73",
    "cct_adresse": "337 RUE DU CDT DUBOIS",
    "cct_tel": "479105945",
    "cct_url": "www.cta73.fr",
    "cat_vehicule_id": "5",
    "cat_vehicule_libelle": "Camping-car (moins de 3,5 tonnes)",
    "cat_energie_id": "5",
    "cat_energie_libelle": "Electrique",
    "prix_visite": 110,
    "date_application_visite": "2020-09-16",
    "prix_contre_visite_min": 10,
    "prix_contre_visite_max": 30,
    "date_application_contre_visite": "2020-09-16",
    "cct_siret": 84024742300030,
    "latitude": 45.668586,
    "longitude": 6.384235,
    "coordgeo": {
      "lon": 6.384235,
      "lat": 45.668586
    },
    "cct_statut": "actif"
  },
  {
    "cct_code_dept": "Savoie",
    "code_postal": "73200",
    "cct_code_commune": "Albertville",
    "cct_denomination": "CTA 73",
    "cct_adresse": "337 RUE DU CDT DUBOIS",
    "cct_tel": "479105945",
    "cct_url": "www.cta73.fr",
    "cat_vehicule_id": "1",
    "cat_vehicule_libelle": "Voiture Particulière",
    "cat_energie_id": "2",
    "cat_energie_libelle": "Diesel",
    "prix_visite": 90,
    "date_application_visite": "2020-09-16",
    "prix_contre_visite_min": 10,
    "prix_contre_visite_max": 30,
    "date_application_contre_visite": "2020-09-16",
    "cct_siret": 84024742300030,
    "latitude": 45.668586,
    "longitude": 6.384235,
    "coordgeo": {
      "lon": 6.384235,
      "lat": 45.668586
    },
    "cct_statut": "actif"
  },
  {
    "cct_code_dept": "Savoie",
    "code_postal": null,
    "cct_code_commune": "Séez",
    "cct_denomination": "AUTOMOBILE CONTROLE DES ALPES",
    "cct_adresse": "6 RUE DES GLIERES",
    "cct_tel": "624883473",
    "cct_url": null,
    "cat_vehicule_id": "2",
    "cat_vehicule_libelle": "4 x 4",
    "cat_energie_id": "1",
    "cat_energie_libelle": "Essence",
    "prix_visite": 100,
    "date_application_visite": "2020-09-15",
    "prix_contre_visite_min": 15,
    "prix_contre_visite_max": 35,
    "date_application_contre_visite": "2020-09-15",
    "cct_siret": 45227205700012,
    "latitude": 45.621882,
    "longitude": 6.790163,
    "coordgeo": {
      "lon": 6.790163,
      "lat": 45.621882
    },
    "cct_statut": "actif"
  },
  {
    "cct_code_dept": "Savoie",
    "code_postal": null,
    "cct_code_commune": "Aime",
    "cct_denomination": "AIME CONTROLE AUTO",
    "cct_adresse": "460 RTE DES ILES",
    "cct_tel": "624883473",
    "cct_url": null,
    "cat_vehicule_id": "1",
    "cat_vehicule_libelle": "Voiture Particulière",
    "cat_energie_id": "5",
    "cat_energie_libelle": "Electrique",
    "prix_visite": 110,
    "date_application_visite": "2020-09-15",
    "prix_contre_visite_min": 15,
    "prix_contre_visite_max": 35,
    "date_application_contre_visite": "2020-09-15",
    "cct_siret": 44109089100017,
    "latitude": 45.554305,
    "longitude": 6.644493,
    "coordgeo": {
      "lon": 6.644493,
      "lat": 45.554305
    },
    "cct_statut": "actif"
  },
  {
    "cct_code_dept": "Savoie",
    "code_postal": "73410",
    "cct_code_commune": "La Biolle",
    "cct_denomination": "SAVOIE CONTROLES",
    "cct_adresse": "15 RTE MOGNARD",
    "cct_tel": null,
    "cct_url": null,
    "cat_vehicule_id": "5",
    "cat_vehicule_libelle": "Camping-car (moins de 3,5 tonnes)",
    "cat_energie_id": "4",
    "cat_energie_libelle": "Hybride",
    "prix_visite": 98,
    "date_application_visite": "2020-09-01",
    "prix_contre_visite_min": 15,
    "prix_contre_visite_max": 35,
    "date_application_contre_visite": "2020-09-01",
    "cct_siret": 83277516700014,
    "latitude": 45.754636,
    "longitude": 5.930367,
    "coordgeo": {
      "lon": 5.930367,
      "lat": 45.754636
    },
    "cct_statut": "actif"
  },
  {
    "cct_code_dept": "Savoie",
    "code_postal": null,
    "cct_code_commune": "Saint-Pierre-d'Albigny",
    "cct_denomination": "CTA 73",
    "cct_adresse": "ZA LE DOMAINE",
    "cct_tel": "479264621",
    "cct_url": "www.cta73.fr",
    "cat_vehicule_id": "1",
    "cat_vehicule_libelle": "Voiture Particulière",
    "cat_energie_id": "3",
    "cat_energie_libelle": "Gaz",
    "prix_visite": 110,
    "date_application_visite": "2020-09-16",
    "prix_contre_visite_min": 20,
    "prix_contre_visite_max": 30,
    "date_application_contre_visite": "2020-09-16",
    "cct_siret": 84024742300014,
    "latitude": 45.573359,
    "longitude": 6.181626,
    "coordgeo": {
      "lon": 6.181626,
      "lat": 45.573359
    },
    "cct_statut": "actif"
  },
  {
    "cct_code_dept": "Savoie",
    "code_postal": null,
    "cct_code_commune": "Les Chavannes-en-Maurienne",
    "cct_denomination": "chavannes auto controle 2",
    "cct_adresse": "LD LE BOIS BANNY",
    "cct_tel": "479831156",
    "cct_url": null,
    "cat_vehicule_id": "4",
    "cat_vehicule_libelle": "Camionnette",
    "cat_energie_id": "1",
    "cat_energie_libelle": "Essence",
    "prix_visite": 95,
    "date_application_visite": "2020-09-14",
    "prix_contre_visite_min": 20,
    "prix_contre_visite_max": 40,
    "date_application_contre_visite": "2020-09-14",
    "cct_siret": 44964424400013,
    "latitude": 45.392129,
    "longitude": 6.282092,
    "coordgeo": {
      "lon": 6.282092,
      "lat": 45.392129
    },
    "cct_statut": "actif"
  },
  {
    "cct_code_dept": "Savoie",
    "code_postal": null,
    "cct_code_commune": "Les Chavannes-en-Maurienne",
    "cct_denomination": "chavannes auto controle 2",
    "cct_adresse": "LD LE BOIS BANNY",
    "cct_tel": "479831156",
    "cct_url": null,
    "cat_vehicule_id": "4",
    "cat_vehicule_libelle": "Camionnette",
    "cat_energie_id": "4",
    "cat_energie_libelle": "Hybride",
    "prix_visite": 95,
    "date_application_visite": "2020-09-14",
    "prix_contre_visite_min": 20,
    "prix_contre_visite_max": 40,
    "date_application_contre_visite": "2020-09-14",
    "cct_siret": 44964424400013,
    "latitude": 45.392129,
    "longitude": 6.282092,
    "coordgeo": {
      "lon": 6.282092,
      "lat": 45.392129
    },
    "cct_statut": "actif"
  },
  {
    "cct_code_dept": "Savoie",
    "code_postal": null,
    "cct_code_commune": "Les Chavannes-en-Maurienne",
    "cct_denomination": "chavannes auto controle 2",
    "cct_adresse": "LD LE BOIS BANNY",
    "cct_tel": "479831156",
    "cct_url": null,
    "cat_vehicule_id": "1",
    "cat_vehicule_libelle": "Voiture Particulière",
    "cat_energie_id": "2",
    "cat_energie_libelle": "Diesel",
    "prix_visite": 90,
    "date_application_visite": "2020-09-14",
    "prix_contre_visite_min": 20,
    "prix_contre_visite_max": 40,
    "date_application_contre_visite": "2020-09-14",
    "cct_siret": 44964424400013,
    "latitude": 45.392129,
    "longitude": 6.282092,
    "coordgeo": {
      "lon": 6.282092,
      "lat": 45.392129
    },
    "cct_statut": "actif"
  },
  {
    "cct_code_dept": "Savoie",
    "code_postal": "73200",
    "cct_code_commune": "Albertville",
    "cct_denomination": "CTA 73",
    "cct_adresse": "337 RUE DU CDT DUBOIS",
    "cct_tel": "479105945",
    "cct_url": "www.cta73.fr",
    "cat_vehicule_id": "5",
    "cat_vehicule_libelle": "Camping-car (moins de 3,5 tonnes)",
    "cat_energie_id": "3",
    "cat_energie_libelle": "Gaz",
    "prix_visite": 110,
    "date_application_visite": "2020-09-16",
    "prix_contre_visite_min": 10,
    "prix_contre_visite_max": 30,
    "date_application_contre_visite": "2020-09-16",
    "cct_siret": 84024742300030,
    "latitude": 45.668586,
    "longitude": 6.384235,
    "coordgeo": {
      "lon": 6.384235,
      "lat": 45.668586
    },
    "cct_statut": "actif"
  },
  {
    "cct_code_dept": "Savoie",
    "code_postal": null,
    "cct_code_commune": "Saint-Jean-de-Maurienne",
    "cct_denomination": "CTA 73",
    "cct_adresse": "1078 AV DU HUIT MAI 1945",
    "cct_tel": "479598427",
    "cct_url": "www.cta73.fr",
    "cat_vehicule_id": "3",
    "cat_vehicule_libelle": "Voiture de collection",
    "cat_energie_id": "5",
    "cat_energie_libelle": "Electrique",
    "prix_visite": 90,
    "date_application_visite": "2020-09-16",
    "prix_contre_visite_min": 10,
    "prix_contre_visite_max": 35,
    "date_application_contre_visite": "2020-09-16",
    "cct_siret": 84024742300055,
    "latitude": 45.269494,
    "longitude": 6.366808,
    "coordgeo": {
      "lon": 6.366808,
      "lat": 45.269494
    },
    "cct_statut": "actif"
  },
  {
    "cct_code_dept": "Savoie",
    "code_postal": "16110",
    "cct_code_commune": "La Rochette",
    "cct_denomination": "AUTO CONTROLE 38/73",
    "cct_adresse": "AV DES ALPES",
    "cct_tel": "479656844",
    "cct_url": "www.cta73.fr",
    "cat_vehicule_id": "2",
    "cat_vehicule_libelle": "4 x 4",
    "cat_energie_id": "3",
    "cat_energie_libelle": "Gaz",
    "prix_visite": 120,
    "date_application_visite": "2020-09-16",
    "prix_contre_visite_min": 15,
    "prix_contre_visite_max": 25,
    "date_application_contre_visite": "2020-09-16",
    "cct_siret": 41132185400027,
    "latitude": 45.463154,
    "longitude": 6.116395,
    "coordgeo": {
      "lon": 6.116395,
      "lat": 45.463154
    },
    "cct_statut": "actif"
  },
  {
    "cct_code_dept": "Savoie",
    "code_postal": "16110",
    "cct_code_commune": "La Rochette",
    "cct_denomination": "AUTO CONTROLE 38/73",
    "cct_adresse": "AV DES ALPES",
    "cct_tel": "479656844",
    "cct_url": "www.cta73.fr",
    "cat_vehicule_id": "5",
    "cat_vehicule_libelle": "Camping-car (moins de 3,5 tonnes)",
    "cat_energie_id": "2",
    "cat_energie_libelle": "Diesel",
    "prix_visite": 79,
    "date_application_visite": "2020-09-16",
    "prix_contre_visite_min": 15,
    "prix_contre_visite_max": 25,
    "date_application_contre_visite": "2020-09-16",
    "cct_siret": 41132185400027,
    "latitude": 45.463154,
    "longitude": 6.116395,
    "coordgeo": {
      "lon": 6.116395,
      "lat": 45.463154
    },
    "cct_statut": "actif"
  },
  {
    "cct_code_dept": "Savoie",
    "code_postal": null,
    "cct_code_commune": "Chambéry",
    "cct_denomination": "AUTO CONTROLE LEFEIVRE",
    "cct_adresse": "7 RUE DE PRE PAGNON",
    "cct_tel": "479690291",
    "cct_url": "https://controle-technique-chambery.autosecurite.com",
    "cat_vehicule_id": "2",
    "cat_vehicule_libelle": "4 x 4",
    "cat_energie_id": "5",
    "cat_energie_libelle": "Electrique",
    "prix_visite": 98,
    "date_application_visite": "2020-09-07",
    "prix_contre_visite_min": 15,
    "prix_contre_visite_max": 90,
    "date_application_contre_visite": "2020-09-07",
    "cct_siret": 41401135300011,
    "latitude": 45.606468,
    "longitude": 5.890241,
    "coordgeo": {
      "lon": 5.890241,
      "lat": 45.606468
    },
    "cct_statut": "actif"
  },
  {
    "cct_code_dept": "Savoie",
    "code_postal": null,
    "cct_code_commune": "Albens",
    "cct_denomination": "ALBENS CONTROLE TECHNIQUE",
    "cct_adresse": "RUE DU MONT BLANC",
    "cct_tel": "479541453",
    "cct_url": null,
    "cat_vehicule_id": "3",
    "cat_vehicule_libelle": "Voiture de collection",
    "cat_energie_id": "1",
    "cat_energie_libelle": "Essence",
    "prix_visite": 97,
    "date_application_visite": "2021-02-16",
    "prix_contre_visite_min": 97,
    "prix_contre_visite_max": 97,
    "date_application_contre_visite": "2021-02-16",
    "cct_siret": 49191944500016,
    "latitude": 45.786323,
    "longitude": 5.947509,
    "coordgeo": {
      "lon": 5.947509,
      "lat": 45.786323
    },
    "cct_statut": "actif"
  },
  {
    "cct_code_dept": "Savoie",
    "code_postal": null,
    "cct_code_commune": "Montmélian",
    "cct_denomination": "CONTROLE TECHNIQUE MONTMELIAN",
    "cct_adresse": "RUE GAMBETTA",
    "cct_tel": "479844848",
    "cct_url": "https://controle-technique-montmelian.autosecurite.com",
    "cat_vehicule_id": "2",
    "cat_vehicule_libelle": "4 x 4",
    "cat_energie_id": "5",
    "cat_energie_libelle": "Electrique",
    "prix_visite": 98,
    "date_application_visite": "2020-09-14",
    "prix_contre_visite_min": 15,
    "prix_contre_visite_max": 90,
    "date_application_contre_visite": "2020-09-14",
    "cct_siret": 42818513600028,
    "latitude": 45.505895,
    "longitude": 6.068646,
    "coordgeo": {
      "lon": 6.068646,
      "lat": 45.505895
    },
    "cct_statut": "actif"
  },
  {
    "cct_code_dept": "Savoie",
    "code_postal": null,
    "cct_code_commune": "Montmélian",
    "cct_denomination": "CONTROLE TECHNIQUE MONTMELIAN",
    "cct_adresse": "RUE GAMBETTA",
    "cct_tel": "479844848",
    "cct_url": "https://controle-technique-montmelian.autosecurite.com",
    "cat_vehicule_id": "1",
    "cat_vehicule_libelle": "Voiture Particulière",
    "cat_energie_id": "4",
    "cat_energie_libelle": "Hybride",
    "prix_visite": 92,
    "date_application_visite": "2020-09-14",
    "prix_contre_visite_min": 15,
    "prix_contre_visite_max": 90,
    "date_application_contre_visite": "2020-09-14",
    "cct_siret": 42818513600028,
    "latitude": 45.505895,
    "longitude": 6.068646,
    "coordgeo": {
      "lon": 6.068646,
      "lat": 45.505895
    },
    "cct_statut": "actif"
  },
  {
    "cct_code_dept": "Savoie",
    "code_postal": "73200",
    "cct_code_commune": "Albertville",
    "cct_denomination": "AUTO CONTROLE 3",
    "cct_adresse": "263 AV DES 16EMES JEUX OLYMPIQUES",
    "cct_tel": "479370130",
    "cct_url": null,
    "cat_vehicule_id": "4",
    "cat_vehicule_libelle": "Camionnette",
    "cat_energie_id": "5",
    "cat_energie_libelle": "Electrique",
    "prix_visite": 106,
    "date_application_visite": "2020-09-03",
    "prix_contre_visite_min": 22,
    "prix_contre_visite_max": 52,
    "date_application_contre_visite": "2020-09-03",
    "cct_siret": 75099561500010,
    "latitude": 45.660225,
    "longitude": 6.374427,
    "coordgeo": {
      "lon": 6.374427,
      "lat": 45.660225
    },
    "cct_statut": "actif"
  },
  {
    "cct_code_dept": "Savoie",
    "code_postal": "73200",
    "cct_code_commune": "Albertville",
    "cct_denomination": "AUTO CONTROLE 3",
    "cct_adresse": "263 AV DES 16EMES JEUX OLYMPIQUES",
    "cct_tel": "479370130",
    "cct_url": null,
    "cat_vehicule_id": "4",
    "cat_vehicule_libelle": "Camionnette",
    "cat_energie_id": "1",
    "cat_energie_libelle": "Essence",
    "prix_visite": 92,
    "date_application_visite": "2020-09-03",
    "prix_contre_visite_min": 22,
    "prix_contre_visite_max": 52,
    "date_application_contre_visite": "2020-09-03",
    "cct_siret": 75099561500010,
    "latitude": 45.660225,
    "longitude": 6.374427,
    "coordgeo": {
      "lon": 6.374427,
      "lat": 45.660225
    },
    "cct_statut": "actif"
  },
  {
    "cct_code_dept": "Savoie",
    "code_postal": "73200",
    "cct_code_commune": "Albertville",
    "cct_denomination": "AUTO CONTROLE 3",
    "cct_adresse": "263 AV DES 16EMES JEUX OLYMPIQUES",
    "cct_tel": "479370130",
    "cct_url": null,
    "cat_vehicule_id": "4",
    "cat_vehicule_libelle": "Camionnette",
    "cat_energie_id": "3",
    "cat_energie_libelle": "Gaz",
    "prix_visite": 131,
    "date_application_visite": "2020-09-03",
    "prix_contre_visite_min": 22,
    "prix_contre_visite_max": 52,
    "date_application_contre_visite": "2020-09-03",
    "cct_siret": 75099561500010,
    "latitude": 45.660225,
    "longitude": 6.374427,
    "coordgeo": {
      "lon": 6.374427,
      "lat": 45.660225
    },
    "cct_statut": "actif"
  },
  {
    "cct_code_dept": "Savoie",
    "code_postal": "73200",
    "cct_code_commune": "Albertville",
    "cct_denomination": "AUTO CONTROLE 3",
    "cct_adresse": "263 AV DES 16EMES JEUX OLYMPIQUES",
    "cct_tel": "479370130",
    "cct_url": null,
    "cat_vehicule_id": "5",
    "cat_vehicule_libelle": "Camping-car (moins de 3,5 tonnes)",
    "cat_energie_id": "3",
    "cat_energie_libelle": "Gaz",
    "prix_visite": 137,
    "date_application_visite": "2020-09-03",
    "prix_contre_visite_min": 22,
    "prix_contre_visite_max": 52,
    "date_application_contre_visite": "2020-09-03",
    "cct_siret": 75099561500010,
    "latitude": 45.660225,
    "longitude": 6.374427,
    "coordgeo": {
      "lon": 6.374427,
      "lat": 45.660225
    },
    "cct_statut": "actif"
  },
  {
    "cct_code_dept": "Savoie",
    "code_postal": "73200",
    "cct_code_commune": "Albertville",
    "cct_denomination": "AUTO CONTROLE 3",
    "cct_adresse": "263 AV DES 16EMES JEUX OLYMPIQUES",
    "cct_tel": "479370130",
    "cct_url": null,
    "cat_vehicule_id": "5",
    "cat_vehicule_libelle": "Camping-car (moins de 3,5 tonnes)",
    "cat_energie_id": "4",
    "cat_energie_libelle": "Hybride",
    "prix_visite": 104,
    "date_application_visite": "2020-09-03",
    "prix_contre_visite_min": 20,
    "prix_contre_visite_max": 50,
    "date_application_contre_visite": "2020-09-03",
    "cct_siret": 75099561500010,
    "latitude": 45.660225,
    "longitude": 6.374427,
    "coordgeo": {
      "lon": 6.374427,
      "lat": 45.660225
    },
    "cct_statut": "actif"
  },
  {
    "cct_code_dept": "Savoie",
    "code_postal": "73500",
    "cct_code_commune": "Modane",
    "cct_denomination": "MODANE CONTROLE AUTO",
    "cct_adresse": "CHE DES BARAQUES",
    "cct_tel": "479050137",
    "cct_url": null,
    "cat_vehicule_id": "1",
    "cat_vehicule_libelle": "Voiture Particulière",
    "cat_energie_id": "3",
    "cat_energie_libelle": "Gaz",
    "prix_visite": 98,
    "date_application_visite": "2020-08-31",
    "prix_contre_visite_min": 15,
    "prix_contre_visite_max": 35,
    "date_application_contre_visite": "2020-08-31",
    "cct_siret": 38875071300017,
    "latitude": 45.19286,
    "longitude": 6.66012,
    "coordgeo": {
      "lon": 6.66012,
      "lat": 45.19286
    },
    "cct_statut": "actif"
  },
  {
    "cct_code_dept": "Savoie",
    "code_postal": "73500",
    "cct_code_commune": "Modane",
    "cct_denomination": "MODANE CONTROLE AUTO",
    "cct_adresse": "CHE DES BARAQUES",
    "cct_tel": "479050137",
    "cct_url": null,
    "cat_vehicule_id": "3",
    "cat_vehicule_libelle": "Voiture de collection",
    "cat_energie_id": "2",
    "cat_energie_libelle": "Diesel",
    "prix_visite": 90,
    "date_application_visite": "2020-08-31",
    "prix_contre_visite_min": 15,
    "prix_contre_visite_max": 35,
    "date_application_contre_visite": "2020-08-31",
    "cct_siret": 38875071300017,
    "latitude": 45.19286,
    "longitude": 6.66012,
    "coordgeo": {
      "lon": 6.66012,
      "lat": 45.19286
    },
    "cct_statut": "actif"
  },
  {
    "cct_code_dept": "Savoie",
    "code_postal": null,
    "cct_code_commune": "Chambéry",
    "cct_denomination": "AUTOMOBILE CLUB - DEKRA CONTROLE",
    "cct_adresse": "15 RUE FRANCOIS GUISE",
    "cct_tel": "479625555",
    "cct_url": "dekra-norisko.fr",
    "cat_vehicule_id": "2",
    "cat_vehicule_libelle": "4 x 4",
    "cat_energie_id": "4",
    "cat_energie_libelle": "Hybride",
    "prix_visite": 110,
    "date_application_visite": "2023-01-05",
    "prix_contre_visite_min": 15,
    "prix_contre_visite_max": 35,
    "date_application_contre_visite": "2021-01-14",
    "cct_siret": 38867048100026,
    "latitude": 45.578243,
    "longitude": 5.909182,
    "coordgeo": {
      "lon": 5.909182,
      "lat": 45.578243
    },
    "cct_statut": "actif"
  },
  {
    "cct_code_dept": "Savoie",
    "code_postal": null,
    "cct_code_commune": "Chambéry",
    "cct_denomination": "AUTOMOBILE CLUB - DEKRA CONTROLE",
    "cct_adresse": "15 RUE FRANCOIS GUISE",
    "cct_tel": "479625555",
    "cct_url": "dekra-norisko.fr",
    "cat_vehicule_id": "2",
    "cat_vehicule_libelle": "4 x 4",
    "cat_energie_id": "4",
    "cat_energie_libelle": "Hybride",
    "prix_visite": 106,
    "date_application_visite": "2021-01-14",
    "prix_contre_visite_min": 15,
    "prix_contre_visite_max": 35,
    "date_application_contre_visite": "2021-01-14",
    "cct_siret": 38867048100026,
    "latitude": 45.578243,
    "longitude": 5.909182,
    "coordgeo": {
      "lon": 5.909182,
      "lat": 45.578243
    },
    "cct_statut": "actif"
  },
  {
    "cct_code_dept": "Savoie",
    "code_postal": null,
    "cct_code_commune": "Chambéry",
    "cct_denomination": "AUTOMOBILE CLUB - DEKRA CONTROLE",
    "cct_adresse": "15 RUE FRANCOIS GUISE",
    "cct_tel": "479625555",
    "cct_url": "dekra-norisko.fr",
    "cat_vehicule_id": "3",
    "cat_vehicule_libelle": "Voiture de collection",
    "cat_energie_id": "3",
    "cat_energie_libelle": "Gaz",
    "prix_visite": 160,
    "date_application_visite": "2020-08-28",
    "prix_contre_visite_min": 15,
    "prix_contre_visite_max": 35,
    "date_application_contre_visite": "2020-08-28",
    "cct_siret": 38867048100026,
    "latitude": 45.578243,
    "longitude": 5.909182,
    "coordgeo": {
      "lon": 5.909182,
      "lat": 45.578243
    },
    "cct_statut": "actif"
  },
  {
    "cct_code_dept": "Savoie",
    "code_postal": null,
    "cct_code_commune": "Drumettaz-Clarafond",
    "cct_denomination": "DRUMETTAZ CONTROLE TECHNIQUE",
    "cct_adresse": "295 ALL DU BENIET",
    "cct_tel": "479342535",
    "cct_url": null,
    "cat_vehicule_id": "1",
    "cat_vehicule_libelle": "Voiture Particulière",
    "cat_energie_id": "1",
    "cat_energie_libelle": "Essence",
    "prix_visite": 95,
    "date_application_visite": "2020-09-02",
    "prix_contre_visite_min": 15,
    "prix_contre_visite_max": 35,
    "date_application_contre_visite": "2020-09-02",
    "cct_siret": 43039212600016,
    "latitude": 45.657339,
    "longitude": 5.910781,
    "coordgeo": {
      "lon": 5.910781,
      "lat": 45.657339
    },
    "cct_statut": "actif"
  },
  {
    "cct_code_dept": "Savoie",
    "code_postal": null,
    "cct_code_commune": "Drumettaz-Clarafond",
    "cct_denomination": "DRUMETTAZ CONTROLE TECHNIQUE",
    "cct_adresse": "295 ALL DU BENIET",
    "cct_tel": "479342535",
    "cct_url": null,
    "cat_vehicule_id": "3",
    "cat_vehicule_libelle": "Voiture de collection",
    "cat_energie_id": "1",
    "cat_energie_libelle": "Essence",
    "prix_visite": 95,
    "date_application_visite": "2020-09-02",
    "prix_contre_visite_min": 15,
    "prix_contre_visite_max": 35,
    "date_application_contre_visite": "2020-09-02",
    "cct_siret": 43039212600016,
    "latitude": 45.657339,
    "longitude": 5.910781,
    "coordgeo": {
      "lon": 5.910781,
      "lat": 45.657339
    },
    "cct_statut": "actif"
  },
  {
    "cct_code_dept": "Savoie",
    "code_postal": null,
    "cct_code_commune": "Chambéry",
    "cct_denomination": "BELLECOMBE - AUTO CONTROLE",
    "cct_adresse": "954 AV DES LANDIERS",
    "cct_tel": "479627500",
    "cct_url": "www.dekra-norisko.fr",
    "cat_vehicule_id": "1",
    "cat_vehicule_libelle": "Voiture Particulière",
    "cat_energie_id": "2",
    "cat_energie_libelle": "Diesel",
    "prix_visite": 95,
    "date_application_visite": "2020-08-28",
    "prix_contre_visite_min": 15,
    "prix_contre_visite_max": 35,
    "date_application_contre_visite": "2020-08-28",
    "cct_siret": 48279495500021,
    "latitude": 45.592307,
    "longitude": 5.90255,
    "coordgeo": {
      "lon": 5.90255,
      "lat": 45.592307
    },
    "cct_statut": "actif"
  },
  {
    "cct_code_dept": "Savoie",
    "code_postal": null,
    "cct_code_commune": "Le Pont-de-Beauvoisin",
    "cct_denomination": "CENTRE DE CONTROLE AUTOMOBILE PONTOIS",
    "cct_adresse": "ZI LA BARONNIE",
    "cct_tel": "476373873",
    "cct_url": "www.controle-autovision.com",
    "cat_vehicule_id": "3",
    "cat_vehicule_libelle": "Voiture de collection",
    "cat_energie_id": "2",
    "cat_energie_libelle": "Diesel",
    "prix_visite": 85,
    "date_application_visite": "2020-09-02",
    "prix_contre_visite_min": 10,
    "prix_contre_visite_max": 30,
    "date_application_contre_visite": "2020-09-02",
    "cct_siret": 38363511700013,
    "latitude": 45.530208,
    "longitude": 5.685965,
    "coordgeo": {
      "lon": 5.685965,
      "lat": 45.530208
    },
    "cct_statut": "actif"
  },
  {
    "cct_code_dept": "Savoie",
    "code_postal": "73230",
    "cct_code_commune": "Barby",
    "cct_denomination": "BARBY CTA",
    "cct_adresse": "L'AVENUE PAUL CHEVALIER",
    "cct_tel": "479729349",
    "cct_url": null,
    "cat_vehicule_id": "2",
    "cat_vehicule_libelle": "4 x 4",
    "cat_energie_id": "3",
    "cat_energie_libelle": "Gaz",
    "prix_visite": 129,
    "date_application_visite": "2020-09-04",
    "prix_contre_visite_min": 10,
    "prix_contre_visite_max": 50,
    "date_application_contre_visite": "2020-09-04",
    "cct_siret": 38819772500012,
    "latitude": 45.568745,
    "longitude": 5.975211,
    "coordgeo": {
      "lon": 5.975211,
      "lat": 45.568745
    },
    "cct_statut": "actif"
  },
  {
    "cct_code_dept": "Savoie",
    "code_postal": "08300",
    "cct_code_commune": "Barby",
    "cct_denomination": "BARBY CTA",
    "cct_adresse": "L'AVENUE PAUL CHEVALIER",
    "cct_tel": "479729349",
    "cct_url": null,
    "cat_vehicule_id": "4",
    "cat_vehicule_libelle": "Camionnette",
    "cat_energie_id": "1",
    "cat_energie_libelle": "Essence",
    "prix_visite": 96,
    "date_application_visite": "2020-09-04",
    "prix_contre_visite_min": 10,
    "prix_contre_visite_max": 45,
    "date_application_contre_visite": "2020-09-04",
    "cct_siret": 38819772500012,
    "latitude": 45.568745,
    "longitude": 5.975211,
    "coordgeo": {
      "lon": 5.975211,
      "lat": 45.568745
    },
    "cct_statut": "actif"
  },
  {
    "cct_code_dept": "Savoie",
    "code_postal": "73230",
    "cct_code_commune": "Barby",
    "cct_denomination": "BARBY CTA",
    "cct_adresse": "L'AVENUE PAUL CHEVALIER",
    "cct_tel": "479729349",
    "cct_url": null,
    "cat_vehicule_id": "1",
    "cat_vehicule_libelle": "Voiture Particulière",
    "cat_energie_id": "1",
    "cat_energie_libelle": "Essence",
    "prix_visite": 88,
    "date_application_visite": "2020-09-04",
    "prix_contre_visite_min": 10,
    "prix_contre_visite_max": 45,
    "date_application_contre_visite": "2020-09-04",
    "cct_siret": 38819772500012,
    "latitude": 45.568745,
    "longitude": 5.975211,
    "coordgeo": {
      "lon": 5.975211,
      "lat": 45.568745
    },
    "cct_statut": "actif"
  },
  {
    "cct_code_dept": "Savoie",
    "code_postal": "08300",
    "cct_code_commune": "Barby",
    "cct_denomination": "BARBY CTA",
    "cct_adresse": "L'AVENUE PAUL CHEVALIER",
    "cct_tel": "479729349",
    "cct_url": null,
    "cat_vehicule_id": "3",
    "cat_vehicule_libelle": "Voiture de collection",
    "cat_energie_id": "4",
    "cat_energie_libelle": "Hybride",
    "prix_visite": 96,
    "date_application_visite": "2020-09-04",
    "prix_contre_visite_min": 10,
    "prix_contre_visite_max": 45,
    "date_application_contre_visite": "2020-09-04",
    "cct_siret": 38819772500012,
    "latitude": 45.568745,
    "longitude": 5.975211,
    "coordgeo": {
      "lon": 5.975211,
      "lat": 45.568745
    },
    "cct_statut": "actif"
  },
  {
    "cct_code_dept": "Savoie",
    "code_postal": null,
    "cct_code_commune": "Chambéry",
    "cct_denomination": "CENTRE CONTROLE AUTO DE BISSY CHAMBERY",
    "cct_adresse": "711 AV GAL CARTIER",
    "cct_tel": "479695946",
    "cct_url": null,
    "cat_vehicule_id": "2",
    "cat_vehicule_libelle": "4 x 4",
    "cat_energie_id": "3",
    "cat_energie_libelle": "Gaz",
    "prix_visite": 91,
    "date_application_visite": "2020-09-22",
    "prix_contre_visite_min": 10,
    "prix_contre_visite_max": 35,
    "date_application_contre_visite": "2020-09-22",
    "cct_siret": 42122159900010,
    "latitude": 45.57699,
    "longitude": 5.897291,
    "coordgeo": {
      "lon": 5.897291,
      "lat": 45.57699
    },
    "cct_statut": "actif"
  },
  {
    "cct_code_dept": "Savoie",
    "code_postal": "73170",
    "cct_code_commune": "Yenne",
    "cct_denomination": "CCTA YENNE",
    "cct_adresse": "246 CHE DE LA TUILIERE",
    "cct_tel": "479286618",
    "cct_url": null,
    "cat_vehicule_id": "2",
    "cat_vehicule_libelle": "4 x 4",
    "cat_energie_id": "1",
    "cat_energie_libelle": "Essence",
    "prix_visite": 89,
    "date_application_visite": "2020-07-01",
    "prix_contre_visite_min": 10,
    "prix_contre_visite_max": 60,
    "date_application_contre_visite": "2020-07-01",
    "cct_siret": 52492540100019,
    "latitude": 45.705457,
    "longitude": 5.766444,
    "coordgeo": {
      "lon": 5.766444,
      "lat": 45.705457
    },
    "cct_statut": "actif"
  },
  {
    "cct_code_dept": "Savoie",
    "code_postal": "73170",
    "cct_code_commune": "Yenne",
    "cct_denomination": "CCTA YENNE",
    "cct_adresse": "246 CHE DE LA TUILIERE",
    "cct_tel": "479286618",
    "cct_url": null,
    "cat_vehicule_id": "4",
    "cat_vehicule_libelle": "Camionnette",
    "cat_energie_id": "2",
    "cat_energie_libelle": "Diesel",
    "prix_visite": 92,
    "date_application_visite": "2020-07-01",
    "prix_contre_visite_min": 10,
    "prix_contre_visite_max": 60,
    "date_application_contre_visite": "2020-07-01",
    "cct_siret": 52492540100019,
    "latitude": 45.705457,
    "longitude": 5.766444,
    "coordgeo": {
      "lon": 5.766444,
      "lat": 45.705457
    },
    "cct_statut": "actif"
  },
  {
    "cct_code_dept": "Savoie",
    "code_postal": "73170",
    "cct_code_commune": "Yenne",
    "cct_denomination": "CCTA YENNE",
    "cct_adresse": "246 CHE DE LA TUILIERE",
    "cct_tel": "479286618",
    "cct_url": null,
    "cat_vehicule_id": "4",
    "cat_vehicule_libelle": "Camionnette",
    "cat_energie_id": "1",
    "cat_energie_libelle": "Essence",
    "prix_visite": 92,
    "date_application_visite": "2020-07-01",
    "prix_contre_visite_min": 10,
    "prix_contre_visite_max": 60,
    "date_application_contre_visite": "2020-07-01",
    "cct_siret": 52492540100019,
    "latitude": 45.705457,
    "longitude": 5.766444,
    "coordgeo": {
      "lon": 5.766444,
      "lat": 45.705457
    },
    "cct_statut": "actif"
  },
  {
    "cct_code_dept": "Savoie",
    "code_postal": null,
    "cct_code_commune": "Saint-Jean-de-Maurienne",
    "cct_denomination": "MAURIENNE CONTROLE TECHNIQUE",
    "cct_adresse": "1 RUE DU PARQUET",
    "cct_tel": "479640000",
    "cct_url": null,
    "cat_vehicule_id": "4",
    "cat_vehicule_libelle": "Camionnette",
    "cat_energie_id": "2",
    "cat_energie_libelle": "Diesel",
    "prix_visite": 90,
    "date_application_visite": "2020-10-16",
    "prix_contre_visite_min": 20,
    "prix_contre_visite_max": 40,
    "date_application_contre_visite": "2020-10-16",
    "cct_siret": 53875322900029,
    "latitude": 45.271111,
    "longitude": 6.360064,
    "coordgeo": {
      "lon": 6.360064,
      "lat": 45.271111
    },
    "cct_statut": "actif"
  },
  {
    "cct_code_dept": "Savoie",
    "code_postal": null,
    "cct_code_commune": "Saint-Jean-de-Maurienne",
    "cct_denomination": "MAURIENNE CONTROLE TECHNIQUE",
    "cct_adresse": "1 RUE DU PARQUET",
    "cct_tel": "479640000",
    "cct_url": null,
    "cat_vehicule_id": "5",
    "cat_vehicule_libelle": "Camping-car (moins de 3,5 tonnes)",
    "cat_energie_id": "5",
    "cat_energie_libelle": "Electrique",
    "prix_visite": 95,
    "date_application_visite": "2020-10-16",
    "prix_contre_visite_min": 20,
    "prix_contre_visite_max": 40,
    "date_application_contre_visite": "2020-10-16",
    "cct_siret": 53875322900029,
    "latitude": 45.271111,
    "longitude": 6.360064,
    "coordgeo": {
      "lon": 6.360064,
      "lat": 45.271111
    },
    "cct_statut": "actif"
  },
  {
    "cct_code_dept": "Savoie",
    "code_postal": null,
    "cct_code_commune": "Saint-Jean-de-Maurienne",
    "cct_denomination": "MAURIENNE CONTROLE TECHNIQUE",
    "cct_adresse": "1 RUE DU PARQUET",
    "cct_tel": "479640000",
    "cct_url": null,
    "cat_vehicule_id": "5",
    "cat_vehicule_libelle": "Camping-car (moins de 3,5 tonnes)",
    "cat_energie_id": "1",
    "cat_energie_libelle": "Essence",
    "prix_visite": 90,
    "date_application_visite": "2020-10-16",
    "prix_contre_visite_min": 20,
    "prix_contre_visite_max": 40,
    "date_application_contre_visite": "2020-10-16",
    "cct_siret": 53875322900029,
    "latitude": 45.271111,
    "longitude": 6.360064,
    "coordgeo": {
      "lon": 6.360064,
      "lat": 45.271111
    },
    "cct_statut": "actif"
  },
  {
    "cct_code_dept": "Savoie",
    "code_postal": "73400",
    "cct_code_commune": "Ugine",
    "cct_denomination": "SARL CONTROLE TECHNIQUE UGINOIS",
    "cct_adresse": "206 RUE DU NANT DE CRUET",
    "cct_tel": "479890076",
    "cct_url": null,
    "cat_vehicule_id": "3",
    "cat_vehicule_libelle": "Voiture de collection",
    "cat_energie_id": "5",
    "cat_energie_libelle": "Electrique",
    "prix_visite": 90,
    "date_application_visite": "2018-05-21",
    "prix_contre_visite_min": 10,
    "prix_contre_visite_max": 30,
    "date_application_contre_visite": "2018-05-21",
    "cct_siret": 88168415300011,
    "latitude": 45.759722,
    "longitude": 6.395525,
    "coordgeo": {
      "lon": 6.395525,
      "lat": 45.759722
    },
    "cct_statut": "actif"
  },
  {
    "cct_code_dept": "Savoie",
    "code_postal": "73800",
    "cct_code_commune": "Laissaud",
    "cct_denomination": "CONTROLE TECHNIQUE DU GRESIVAUDAN",
    "cct_adresse": "RTE DEPARTEMENTALE 923",
    "cct_tel": "479289013",
    "cct_url": "https://controle-technique.autosur.fr/153-autosur-laissaud",
    "cat_vehicule_id": "4",
    "cat_vehicule_libelle": "Camionnette",
    "cat_energie_id": "3",
    "cat_energie_libelle": "Gaz",
    "prix_visite": 109,
    "date_application_visite": "2020-09-10",
    "prix_contre_visite_min": 29,
    "prix_contre_visite_max": 39,
    "date_application_contre_visite": "2020-09-10",
    "cct_siret": 38524343100017,
    "latitude": 45.446241,
    "longitude": 6.036373,
    "coordgeo": {
      "lon": 6.036373,
      "lat": 45.446241
    },
    "cct_statut": "actif"
  },
  {
    "cct_code_dept": "Savoie",
    "code_postal": "73800",
    "cct_code_commune": "Laissaud",
    "cct_denomination": "CONTROLE TECHNIQUE DU GRESIVAUDAN",
    "cct_adresse": "RTE DEPARTEMENTALE 923",
    "cct_tel": "479289013",
    "cct_url": "https://controle-technique.autosur.fr/153-autosur-laissaud",
    "cat_vehicule_id": "5",
    "cat_vehicule_libelle": "Camping-car (moins de 3,5 tonnes)",
    "cat_energie_id": "4",
    "cat_energie_libelle": "Hybride",
    "prix_visite": 109,
    "date_application_visite": "2020-09-10",
    "prix_contre_visite_min": 29,
    "prix_contre_visite_max": 39,
    "date_application_contre_visite": "2020-09-10",
    "cct_siret": 38524343100017,
    "latitude": 45.446241,
    "longitude": 6.036373,
    "coordgeo": {
      "lon": 6.036373,
      "lat": 45.446241
    },
    "cct_statut": "actif"
  },
  {
    "cct_code_dept": "Savoie",
    "code_postal": null,
    "cct_code_commune": "Aix-les-Bains",
    "cct_denomination": "AUTOCONTROLE TECHNIQUE SAVOISIEN",
    "cct_adresse": "11 AV DE MARLIOZ",
    "cct_tel": "610940760",
    "cct_url": null,
    "cat_vehicule_id": "3",
    "cat_vehicule_libelle": "Voiture de collection",
    "cat_energie_id": "5",
    "cat_energie_libelle": "Electrique",
    "prix_visite": 110,
    "date_application_visite": "2020-12-16",
    "prix_contre_visite_min": 10,
    "prix_contre_visite_max": 32,
    "date_application_contre_visite": "2020-12-16",
    "cct_siret": 51950983000013,
    "latitude": 45.685165,
    "longitude": 5.913118,
    "coordgeo": {
      "lon": 5.913118,
      "lat": 45.685165
    },
    "cct_statut": "actif"
  },
  {
    "cct_code_dept": "Savoie",
    "code_postal": null,
    "cct_code_commune": "Saint-Jean-de-Maurienne",
    "cct_denomination": "AUTO CONTROLE LUCIA",
    "cct_adresse": "353 RUE DES CHAUDANNES",
    "cct_tel": "479640889",
    "cct_url": null,
    "cat_vehicule_id": "5",
    "cat_vehicule_libelle": "Camping-car (moins de 3,5 tonnes)",
    "cat_energie_id": "2",
    "cat_energie_libelle": "Diesel",
    "prix_visite": 82,
    "date_application_visite": "2020-09-14",
    "prix_contre_visite_min": 0,
    "prix_contre_visite_max": 40,
    "date_application_contre_visite": "2020-09-14",
    "cct_siret": 79322537600011,
    "latitude": 45.273138,
    "longitude": 6.357255,
    "coordgeo": {
      "lon": 6.357255,
      "lat": 45.273138
    },
    "cct_statut": "actif"
  },
  {
    "cct_code_dept": "Savoie",
    "code_postal": null,
    "cct_code_commune": "Saint-Jean-de-Maurienne",
    "cct_denomination": "AUTO CONTROLE LUCIA",
    "cct_adresse": "353 RUE DES CHAUDANNES",
    "cct_tel": "479640889",
    "cct_url": null,
    "cat_vehicule_id": "3",
    "cat_vehicule_libelle": "Voiture de collection",
    "cat_energie_id": "2",
    "cat_energie_libelle": "Diesel",
    "prix_visite": 82,
    "date_application_visite": "2020-09-14",
    "prix_contre_visite_min": 0,
    "prix_contre_visite_max": 40,
    "date_application_contre_visite": "2020-09-14",
    "cct_siret": 79322537600011,
    "latitude": 45.273138,
    "longitude": 6.357255,
    "coordgeo": {
      "lon": 6.357255,
      "lat": 45.273138
    },
    "cct_statut": "actif"
  },
  {
    "cct_code_dept": "Savoie",
    "code_postal": null,
    "cct_code_commune": "Aix-les-Bains",
    "cct_denomination": "C 2 L",
    "cct_adresse": "200 AV DE ST SIMOND",
    "cct_tel": "479884050",
    "cct_url": null,
    "cat_vehicule_id": "3",
    "cat_vehicule_libelle": "Voiture de collection",
    "cat_energie_id": "1",
    "cat_energie_libelle": "Essence",
    "prix_visite": 92,
    "date_application_visite": "2020-09-09",
    "prix_contre_visite_min": 20,
    "prix_contre_visite_max": 50,
    "date_application_contre_visite": "2020-09-09",
    "cct_siret": 83384356800019,
    "latitude": 45.712097,
    "longitude": 5.918669,
    "coordgeo": {
      "lon": 5.918669,
      "lat": 45.712097
    },
    "cct_statut": "actif"
  },
  {
    "cct_code_dept": "Savoie",
    "code_postal": null,
    "cct_code_commune": "Saint-Pierre-d'Albigny",
    "cct_denomination": "DE L'ARCLUSAZ",
    "cct_adresse": "14 RUE DES ILES",
    "cct_tel": "479285195",
    "cct_url": "https://www.controletechnique-savoie.fr/",
    "cat_vehicule_id": "3",
    "cat_vehicule_libelle": "Voiture de collection",
    "cat_energie_id": "2",
    "cat_energie_libelle": "Diesel",
    "prix_visite": 87,
    "date_application_visite": "2020-01-01",
    "prix_contre_visite_min": 20,
    "prix_contre_visite_max": 87,
    "date_application_contre_visite": "2020-01-01",
    "cct_siret": 80216430100011,
    "latitude": 45.554467,
    "longitude": 6.16706,
    "coordgeo": {
      "lon": 6.16706,
      "lat": 45.554467
    },
    "cct_statut": "actif"
  },
  {
    "cct_code_dept": "Savoie",
    "code_postal": null,
    "cct_code_commune": "Albens",
    "cct_denomination": "ALBENS CONTROLE TECHNIQUE",
    "cct_adresse": "RUE DU MONT BLANC",
    "cct_tel": "479541453",
    "cct_url": null,
    "cat_vehicule_id": "2",
    "cat_vehicule_libelle": "4 x 4",
    "cat_energie_id": "2",
    "cat_energie_libelle": "Diesel",
    "prix_visite": 100,
    "date_application_visite": "2021-02-16",
    "prix_contre_visite_min": 100,
    "prix_contre_visite_max": 100,
    "date_application_contre_visite": "2021-02-16",
    "cct_siret": 49191944500016,
    "latitude": 45.786323,
    "longitude": 5.947509,
    "coordgeo": {
      "lon": 5.947509,
      "lat": 45.786323
    },
    "cct_statut": "actif"
  },
  {
    "cct_code_dept": "Savoie",
    "code_postal": "73200",
    "cct_code_commune": "Albertville",
    "cct_denomination": "AUTO CONTROLE 3",
    "cct_adresse": "263 AV DES 16EMES JEUX OLYMPIQUES",
    "cct_tel": "479370130",
    "cct_url": null,
    "cat_vehicule_id": "3",
    "cat_vehicule_libelle": "Voiture de collection",
    "cat_energie_id": "4",
    "cat_energie_libelle": "Hybride",
    "prix_visite": 104,
    "date_application_visite": "2020-09-03",
    "prix_contre_visite_min": 20,
    "prix_contre_visite_max": 50,
    "date_application_contre_visite": "2020-09-03",
    "cct_siret": 75099561500010,
    "latitude": 45.660225,
    "longitude": 6.374427,
    "coordgeo": {
      "lon": 6.374427,
      "lat": 45.660225
    },
    "cct_statut": "actif"
  },
  {
    "cct_code_dept": "Savoie",
    "code_postal": null,
    "cct_code_commune": "Le Pont-de-Beauvoisin",
    "cct_denomination": "AUTO CONTROLE BELLEY BUGEY",
    "cct_adresse": "ZI LA BARONNIE",
    "cct_tel": "476370969",
    "cct_url": null,
    "cat_vehicule_id": "3",
    "cat_vehicule_libelle": "Voiture de collection",
    "cat_energie_id": "2",
    "cat_energie_libelle": "Diesel",
    "prix_visite": 90,
    "date_application_visite": "2023-04-13",
    "prix_contre_visite_min": 15,
    "prix_contre_visite_max": 30,
    "date_application_contre_visite": "2023-04-13",
    "cct_siret": 82384731400031,
    "latitude": null,
    "longitude": null,
    "coordgeo": null,
    "cct_statut": "actif"
  },
  {
    "cct_code_dept": "Savoie",
    "code_postal": null,
    "cct_code_commune": "Le Pont-de-Beauvoisin",
    "cct_denomination": "AUTO CONTROLE BELLEY BUGEY",
    "cct_adresse": "ZI LA BARONNIE",
    "cct_tel": "476370969",
    "cct_url": null,
    "cat_vehicule_id": "3",
    "cat_vehicule_libelle": "Voiture de collection",
    "cat_energie_id": "5",
    "cat_energie_libelle": "Electrique",
    "prix_visite": 105,
    "date_application_visite": "2023-04-13",
    "prix_contre_visite_min": 15,
    "prix_contre_visite_max": 30,
    "date_application_contre_visite": "2023-04-13",
    "cct_siret": 82384731400031,
    "latitude": null,
    "longitude": null,
    "coordgeo": null,
    "cct_statut": "actif"
  },
  {
    "cct_code_dept": "Savoie",
    "code_postal": null,
    "cct_code_commune": "Chambéry",
    "cct_denomination": "AUTOMOBILE CLUB - DEKRA CONTROLE",
    "cct_adresse": "15 RUE FRANCOIS GUISE",
    "cct_tel": "479625555",
    "cct_url": "dekra-norisko.fr",
    "cat_vehicule_id": "1",
    "cat_vehicule_libelle": "Voiture Particulière",
    "cat_energie_id": "1",
    "cat_energie_libelle": "Essence",
    "prix_visite": 101,
    "date_application_visite": "2021-01-14",
    "prix_contre_visite_min": 15,
    "prix_contre_visite_max": 35,
    "date_application_contre_visite": "2021-01-14",
    "cct_siret": 38867048100026,
    "latitude": 45.578243,
    "longitude": 5.909182,
    "coordgeo": {
      "lon": 5.909182,
      "lat": 45.578243
    },
    "cct_statut": "actif"
  },
  {
    "cct_code_dept": "Savoie",
    "code_postal": null,
    "cct_code_commune": "Drumettaz-Clarafond",
    "cct_denomination": "DRUMETTAZ CONTROLE TECHNIQUE",
    "cct_adresse": "295 ALL DU BENIET",
    "cct_tel": "479342535",
    "cct_url": null,
    "cat_vehicule_id": "5",
    "cat_vehicule_libelle": "Camping-car (moins de 3,5 tonnes)",
    "cat_energie_id": "2",
    "cat_energie_libelle": "Diesel",
    "prix_visite": 95,
    "date_application_visite": "2020-09-02",
    "prix_contre_visite_min": 15,
    "prix_contre_visite_max": 35,
    "date_application_contre_visite": "2020-09-02",
    "cct_siret": 43039212600016,
    "latitude": 45.657339,
    "longitude": 5.910781,
    "coordgeo": {
      "lon": 5.910781,
      "lat": 45.657339
    },
    "cct_statut": "actif"
  },
  {
    "cct_code_dept": "Savoie",
    "code_postal": null,
    "cct_code_commune": "Drumettaz-Clarafond",
    "cct_denomination": "DRUMETTAZ CONTROLE TECHNIQUE",
    "cct_adresse": "295 ALL DU BENIET",
    "cct_tel": "479342535",
    "cct_url": null,
    "cat_vehicule_id": "5",
    "cat_vehicule_libelle": "Camping-car (moins de 3,5 tonnes)",
    "cat_energie_id": "4",
    "cat_energie_libelle": "Hybride",
    "prix_visite": 98,
    "date_application_visite": "2023-01-01",
    "prix_contre_visite_min": 15,
    "prix_contre_visite_max": 35,
    "date_application_contre_visite": "2023-01-01",
    "cct_siret": 43039212600016,
    "latitude": 45.657339,
    "longitude": 5.910781,
    "coordgeo": {
      "lon": 5.910781,
      "lat": 45.657339
    },
    "cct_statut": "actif"
  },
  {
    "cct_code_dept": "Savoie",
    "code_postal": null,
    "cct_code_commune": "Chambéry",
    "cct_denomination": "BELLECOMBE - AUTO CONTROLE",
    "cct_adresse": "954 AV DES LANDIERS",
    "cct_tel": "479627500",
    "cct_url": "www.dekra-norisko.fr",
    "cat_vehicule_id": "5",
    "cat_vehicule_libelle": "Camping-car (moins de 3,5 tonnes)",
    "cat_energie_id": "5",
    "cat_energie_libelle": "Electrique",
    "prix_visite": 110,
    "date_application_visite": "2020-08-28",
    "prix_contre_visite_min": 15,
    "prix_contre_visite_max": 50,
    "date_application_contre_visite": "2020-08-28",
    "cct_siret": 48279495500021,
    "latitude": 45.592307,
    "longitude": 5.90255,
    "coordgeo": {
      "lon": 5.90255,
      "lat": 45.592307
    },
    "cct_statut": "actif"
  },
  {
    "cct_code_dept": "Savoie",
    "code_postal": "73310",
    "cct_code_commune": "Ruffieux",
    "cct_denomination": "CHAUTAGNE CONTROLE TECHNIQUE",
    "cct_adresse": "47 RUE DE JERUSALEM",
    "cct_tel": "479522876",
    "cct_url": "https://www.dekra-norisko.fr/centres-controle-technique/ruffieux,73310/chautagne-controle-technique,s073d101",
    "cat_vehicule_id": "2",
    "cat_vehicule_libelle": "4 x 4",
    "cat_energie_id": "5",
    "cat_energie_libelle": "Electrique",
    "prix_visite": 102,
    "date_application_visite": "2023-05-04",
    "prix_contre_visite_min": 22,
    "prix_contre_visite_max": 42,
    "date_application_contre_visite": "2023-05-04",
    "cct_siret": 94910812000013,
    "latitude": 45.848679,
    "longitude": 5.836792,
    "coordgeo": {
      "lon": 5.836792,
      "lat": 45.848679
    },
    "cct_statut": "actif"
  },
  {
    "cct_code_dept": "Savoie",
    "code_postal": "73310",
    "cct_code_commune": "Ruffieux",
    "cct_denomination": "CHAUTAGNE CONTROLE TECHNIQUE",
    "cct_adresse": "47 RUE DE JERUSALEM",
    "cct_tel": "479522876",
    "cct_url": "https://www.dekra-norisko.fr/centres-controle-technique/ruffieux,73310/chautagne-controle-technique,s073d101",
    "cat_vehicule_id": "5",
    "cat_vehicule_libelle": "Camping-car (moins de 3,5 tonnes)",
    "cat_energie_id": "2",
    "cat_energie_libelle": "Diesel",
    "prix_visite": 91,
    "date_application_visite": "2023-05-04",
    "prix_contre_visite_min": 22,
    "prix_contre_visite_max": 42,
    "date_application_contre_visite": "2023-05-04",
    "cct_siret": 94910812000013,
    "latitude": 45.848679,
    "longitude": 5.836792,
    "coordgeo": {
      "lon": 5.836792,
      "lat": 45.848679
    },
    "cct_statut": "actif"
  },
  {
    "cct_code_dept": "Savoie",
    "code_postal": null,
    "cct_code_commune": "Gilly-sur-Isère",
    "cct_denomination": "CENTRE CONTROLE AUTOMOB GILLY SUR ISERE",
    "cct_adresse": "2176 RTE DE CHAMBERY",
    "cct_tel": "479323793",
    "cct_url": null,
    "cat_vehicule_id": "4",
    "cat_vehicule_libelle": "Camionnette",
    "cat_energie_id": "1",
    "cat_energie_libelle": "Essence",
    "prix_visite": 90,
    "date_application_visite": "2021-02-23",
    "prix_contre_visite_min": 0,
    "prix_contre_visite_max": 30,
    "date_application_contre_visite": "2021-02-23",
    "cct_siret": 38794393900018,
    "latitude": 45.651472,
    "longitude": 6.336774,
    "coordgeo": {
      "lon": 6.336774,
      "lat": 45.651472
    },
    "cct_statut": "actif"
  },
  {
    "cct_code_dept": "Savoie",
    "code_postal": "08300",
    "cct_code_commune": "Barby",
    "cct_denomination": "BARBY CTA",
    "cct_adresse": "L'AVENUE PAUL CHEVALIER",
    "cct_tel": "479729349",
    "cct_url": null,
    "cat_vehicule_id": "2",
    "cat_vehicule_libelle": "4 x 4",
    "cat_energie_id": "2",
    "cat_energie_libelle": "Diesel",
    "prix_visite": 98,
    "date_application_visite": "2022-05-02",
    "prix_contre_visite_min": 10,
    "prix_contre_visite_max": 45,
    "date_application_contre_visite": "2020-09-04",
    "cct_siret": 38819772500012,
    "latitude": 45.568745,
    "longitude": 5.975211,
    "coordgeo": {
      "lon": 5.975211,
      "lat": 45.568745
    },
    "cct_statut": "actif"
  },
  {
    "cct_code_dept": "Savoie",
    "code_postal": "08300",
    "cct_code_commune": "Barby",
    "cct_denomination": "BARBY CTA",
    "cct_adresse": "L'AVENUE PAUL CHEVALIER",
    "cct_tel": "479729349",
    "cct_url": null,
    "cat_vehicule_id": "2",
    "cat_vehicule_libelle": "4 x 4",
    "cat_energie_id": "5",
    "cat_energie_libelle": "Electrique",
    "prix_visite": 100,
    "date_application_visite": "2022-05-02",
    "prix_contre_visite_min": 10,
    "prix_contre_visite_max": 45,
    "date_application_contre_visite": "2020-09-04",
    "cct_siret": 38819772500012,
    "latitude": 45.568745,
    "longitude": 5.975211,
    "coordgeo": {
      "lon": 5.975211,
      "lat": 45.568745
    },
    "cct_statut": "actif"
  },
  {
    "cct_code_dept": "Savoie",
    "code_postal": "73230",
    "cct_code_commune": "Barby",
    "cct_denomination": "BARBY CTA",
    "cct_adresse": "L'AVENUE PAUL CHEVALIER",
    "cct_tel": "479729349",
    "cct_url": null,
    "cat_vehicule_id": "2",
    "cat_vehicule_libelle": "4 x 4",
    "cat_energie_id": "4",
    "cat_energie_libelle": "Hybride",
    "prix_visite": 100,
    "date_application_visite": "2022-05-02",
    "prix_contre_visite_min": 10,
    "prix_contre_visite_max": 45,
    "date_application_contre_visite": "2020-09-04",
    "cct_siret": 38819772500012,
    "latitude": 45.568745,
    "longitude": 5.975211,
    "coordgeo": {
      "lon": 5.975211,
      "lat": 45.568745
    },
    "cct_statut": "actif"
  },
  {
    "cct_code_dept": "Savoie",
    "code_postal": "73230",
    "cct_code_commune": "Barby",
    "cct_denomination": "BARBY CTA",
    "cct_adresse": "L'AVENUE PAUL CHEVALIER",
    "cct_tel": "479729349",
    "cct_url": null,
    "cat_vehicule_id": "5",
    "cat_vehicule_libelle": "Camping-car (moins de 3,5 tonnes)",
    "cat_energie_id": "2",
    "cat_energie_libelle": "Diesel",
    "prix_visite": 96,
    "date_application_visite": "2020-09-04",
    "prix_contre_visite_min": 10,
    "prix_contre_visite_max": 45,
    "date_application_contre_visite": "2020-09-04",
    "cct_siret": 38819772500012,
    "latitude": 45.568745,
    "longitude": 5.975211,
    "coordgeo": {
      "lon": 5.975211,
      "lat": 45.568745
    },
    "cct_statut": "actif"
  },
  {
    "cct_code_dept": "Savoie",
    "code_postal": "73230",
    "cct_code_commune": "Barby",
    "cct_denomination": "BARBY CTA",
    "cct_adresse": "L'AVENUE PAUL CHEVALIER",
    "cct_tel": "479729349",
    "cct_url": null,
    "cat_vehicule_id": "5",
    "cat_vehicule_libelle": "Camping-car (moins de 3,5 tonnes)",
    "cat_energie_id": "3",
    "cat_energie_libelle": "Gaz",
    "prix_visite": 100,
    "date_application_visite": "2022-05-02",
    "prix_contre_visite_min": 10,
    "prix_contre_visite_max": 50,
    "date_application_contre_visite": "2020-09-04",
    "cct_siret": 38819772500012,
    "latitude": 45.568745,
    "longitude": 5.975211,
    "coordgeo": {
      "lon": 5.975211,
      "lat": 45.568745
    },
    "cct_statut": "actif"
  },
  {
    "cct_code_dept": "Savoie",
    "code_postal": "08300",
    "cct_code_commune": "Barby",
    "cct_denomination": "BARBY CTA",
    "cct_adresse": "L'AVENUE PAUL CHEVALIER",
    "cct_tel": "479729349",
    "cct_url": null,
    "cat_vehicule_id": "3",
    "cat_vehicule_libelle": "Voiture de collection",
    "cat_energie_id": "4",
    "cat_energie_libelle": "Hybride",
    "prix_visite": 98,
    "date_application_visite": "2022-05-02",
    "prix_contre_visite_min": 10,
    "prix_contre_visite_max": 45,
    "date_application_contre_visite": "2020-09-04",
    "cct_siret": 38819772500012,
    "latitude": 45.568745,
    "longitude": 5.975211,
    "coordgeo": {
      "lon": 5.975211,
      "lat": 45.568745
    },
    "cct_statut": "actif"
  },
  {
    "cct_code_dept": "Savoie",
    "code_postal": null,
    "cct_code_commune": "Chambéry",
    "cct_denomination": "CENTRE CONTROLE AUTO DE BISSY CHAMBERY",
    "cct_adresse": "711 AV GAL CARTIER",
    "cct_tel": "479695946",
    "cct_url": null,
    "cat_vehicule_id": "2",
    "cat_vehicule_libelle": "4 x 4",
    "cat_energie_id": "2",
    "cat_energie_libelle": "Diesel",
    "prix_visite": 91,
    "date_application_visite": "2020-09-22",
    "prix_contre_visite_min": 10,
    "prix_contre_visite_max": 35,
    "date_application_contre_visite": "2020-09-22",
    "cct_siret": 42122159900010,
    "latitude": 45.57699,
    "longitude": 5.897291,
    "coordgeo": {
      "lon": 5.897291,
      "lat": 45.57699
    },
    "cct_statut": "actif"
  },
  {
    "cct_code_dept": "Savoie",
    "code_postal": null,
    "cct_code_commune": "Chambéry",
    "cct_denomination": "CENTRE CONTROLE AUTO DE BISSY CHAMBERY",
    "cct_adresse": "711 AV GAL CARTIER",
    "cct_tel": "479695946",
    "cct_url": null,
    "cat_vehicule_id": "5",
    "cat_vehicule_libelle": "Camping-car (moins de 3,5 tonnes)",
    "cat_energie_id": "2",
    "cat_energie_libelle": "Diesel",
    "prix_visite": 96,
    "date_application_visite": "2020-09-22",
    "prix_contre_visite_min": 10,
    "prix_contre_visite_max": 35,
    "date_application_contre_visite": "2020-09-22",
    "cct_siret": 42122159900010,
    "latitude": 45.57699,
    "longitude": 5.897291,
    "coordgeo": {
      "lon": 5.897291,
      "lat": 45.57699
    },
    "cct_statut": "actif"
  },
  {
    "cct_code_dept": "Savoie",
    "code_postal": null,
    "cct_code_commune": "Aix-les-Bains",
    "cct_denomination": "CTRE CONTROLE TECHNIQUE AUTO AIX LES BAINS",
    "cct_adresse": "529 BD PDT WILSON",
    "cct_tel": "610940760",
    "cct_url": null,
    "cat_vehicule_id": "5",
    "cat_vehicule_libelle": "Camping-car (moins de 3,5 tonnes)",
    "cat_energie_id": "2",
    "cat_energie_libelle": "Diesel",
    "prix_visite": 84,
    "date_application_visite": "2020-11-06",
    "prix_contre_visite_min": 10,
    "prix_contre_visite_max": 32,
    "date_application_contre_visite": "2020-11-06",
    "cct_siret": 50318199200010,
    "latitude": 45.686978,
    "longitude": 5.909969,
    "coordgeo": {
      "lon": 5.909969,
      "lat": 45.686978
    },
    "cct_statut": "actif"
  },
  {
    "cct_code_dept": "Savoie",
    "code_postal": null,
    "cct_code_commune": "Saint-Jean-de-Maurienne",
    "cct_denomination": "MAURIENNE CONTROLE TECHNIQUE",
    "cct_adresse": "1 RUE DU PARQUET",
    "cct_tel": "479640000",
    "cct_url": null,
    "cat_vehicule_id": "2",
    "cat_vehicule_libelle": "4 x 4",
    "cat_energie_id": "5",
    "cat_energie_libelle": "Electrique",
    "prix_visite": 95,
    "date_application_visite": "2020-10-16",
    "prix_contre_visite_min": 20,
    "prix_contre_visite_max": 40,
    "date_application_contre_visite": "2020-10-16",
    "cct_siret": 53875322900029,
    "latitude": 45.271111,
    "longitude": 6.360064,
    "coordgeo": {
      "lon": 6.360064,
      "lat": 45.271111
    },
    "cct_statut": "actif"
  },
  {
    "cct_code_dept": "Savoie",
    "code_postal": "73400",
    "cct_code_commune": "Ugine",
    "cct_denomination": "SARL CONTROLE TECHNIQUE UGINOIS",
    "cct_adresse": "206 RUE DU NANT DE CRUET",
    "cct_tel": "479890076",
    "cct_url": null,
    "cat_vehicule_id": "5",
    "cat_vehicule_libelle": "Camping-car (moins de 3,5 tonnes)",
    "cat_energie_id": "5",
    "cat_energie_libelle": "Electrique",
    "prix_visite": 90,
    "date_application_visite": "2018-05-21",
    "prix_contre_visite_min": 10,
    "prix_contre_visite_max": 30,
    "date_application_contre_visite": "2018-05-21",
    "cct_siret": 88168415300011,
    "latitude": 45.759722,
    "longitude": 6.395525,
    "coordgeo": {
      "lon": 6.395525,
      "lat": 45.759722
    },
    "cct_statut": "actif"
  },
  {
    "cct_code_dept": "Savoie",
    "code_postal": "73800",
    "cct_code_commune": "Laissaud",
    "cct_denomination": "CONTROLE TECHNIQUE DU GRESIVAUDAN",
    "cct_adresse": "RTE DEPARTEMENTALE 923",
    "cct_tel": "479289013",
    "cct_url": "https://controle-technique.autosur.fr/153-autosur-laissaud",
    "cat_vehicule_id": "3",
    "cat_vehicule_libelle": "Voiture de collection",
    "cat_energie_id": "2",
    "cat_energie_libelle": "Diesel",
    "prix_visite": 95,
    "date_application_visite": "2020-09-10",
    "prix_contre_visite_min": 15,
    "prix_contre_visite_max": 65,
    "date_application_contre_visite": "2020-09-10",
    "cct_siret": 38524343100017,
    "latitude": 45.446241,
    "longitude": 6.036373,
    "coordgeo": {
      "lon": 6.036373,
      "lat": 45.446241
    },
    "cct_statut": "actif"
  },
  {
    "cct_code_dept": "Savoie",
    "code_postal": null,
    "cct_code_commune": "Saint-Jean-de-Maurienne",
    "cct_denomination": "AUTO CONTROLE LUCIA",
    "cct_adresse": "353 RUE DES CHAUDANNES",
    "cct_tel": "479640889",
    "cct_url": null,
    "cat_vehicule_id": "1",
    "cat_vehicule_libelle": "Voiture Particulière",
    "cat_energie_id": "5",
    "cat_energie_libelle": "Electrique",
    "prix_visite": 82,
    "date_application_visite": "2020-09-14",
    "prix_contre_visite_min": 0,
    "prix_contre_visite_max": 40,
    "date_application_contre_visite": "2020-09-14",
    "cct_siret": 79322537600011,
    "latitude": 45.273138,
    "longitude": 6.357255,
    "coordgeo": {
      "lon": 6.357255,
      "lat": 45.273138
    },
    "cct_statut": "actif"
  },
  {
    "cct_code_dept": "Savoie",
    "code_postal": null,
    "cct_code_commune": "Saint-Alban-Leysse",
    "cct_denomination": "SAVOIE AUTOTEST",
    "cct_adresse": "13 CHE DE LA MARTINIERE",
    "cct_tel": "479856465",
    "cct_url": null,
    "cat_vehicule_id": "2",
    "cat_vehicule_libelle": "4 x 4",
    "cat_energie_id": "1",
    "cat_energie_libelle": "Essence",
    "prix_visite": 98,
    "date_application_visite": "2020-09-04",
    "prix_contre_visite_min": 10,
    "prix_contre_visite_max": 45,
    "date_application_contre_visite": "2020-09-04",
    "cct_siret": 38535542500021,
    "latitude": 45.572994,
    "longitude": 5.949631,
    "coordgeo": {
      "lon": 5.949631,
      "lat": 45.572994
    },
    "cct_statut": "actif"
  },
  {
    "cct_code_dept": "Savoie",
    "code_postal": null,
    "cct_code_commune": "Saint-Alban-Leysse",
    "cct_denomination": "SAVOIE AUTOTEST",
    "cct_adresse": "13 CHE DE LA MARTINIERE",
    "cct_tel": "479856465",
    "cct_url": null,
    "cat_vehicule_id": "3",
    "cat_vehicule_libelle": "Voiture de collection",
    "cat_energie_id": "4",
    "cat_energie_libelle": "Hybride",
    "prix_visite": 98,
    "date_application_visite": "2020-09-04",
    "prix_contre_visite_min": 10,
    "prix_contre_visite_max": 45,
    "date_application_contre_visite": "2020-09-04",
    "cct_siret": 38535542500021,
    "latitude": 45.572994,
    "longitude": 5.949631,
    "coordgeo": {
      "lon": 5.949631,
      "lat": 45.572994
    },
    "cct_statut": "actif"
  },
  {
    "cct_code_dept": "Savoie",
    "code_postal": null,
    "cct_code_commune": "Aix-les-Bains",
    "cct_denomination": "C 2 L",
    "cct_adresse": "200 AV DE ST SIMOND",
    "cct_tel": "479884050",
    "cct_url": null,
    "cat_vehicule_id": "2",
    "cat_vehicule_libelle": "4 x 4",
    "cat_energie_id": "1",
    "cat_energie_libelle": "Essence",
    "prix_visite": 103,
    "date_application_visite": "2020-09-09",
    "prix_contre_visite_min": 20,
    "prix_contre_visite_max": 50,
    "date_application_contre_visite": "2020-09-09",
    "cct_siret": 83384356800019,
    "latitude": 45.712097,
    "longitude": 5.918669,
    "coordgeo": {
      "lon": 5.918669,
      "lat": 45.712097
    },
    "cct_statut": "actif"
  },
  {
    "cct_code_dept": "Savoie",
    "code_postal": null,
    "cct_code_commune": "Aix-les-Bains",
    "cct_denomination": "C 2 L",
    "cct_adresse": "200 AV DE ST SIMOND",
    "cct_tel": "479884050",
    "cct_url": null,
    "cat_vehicule_id": "4",
    "cat_vehicule_libelle": "Camionnette",
    "cat_energie_id": "4",
    "cat_energie_libelle": "Hybride",
    "prix_visite": 103,
    "date_application_visite": "2020-09-09",
    "prix_contre_visite_min": 20,
    "prix_contre_visite_max": 50,
    "date_application_contre_visite": "2020-09-09",
    "cct_siret": 83384356800019,
    "latitude": 45.712097,
    "longitude": 5.918669,
    "coordgeo": {
      "lon": 5.918669,
      "lat": 45.712097
    },
    "cct_statut": "actif"
  },
  {
    "cct_code_dept": "Savoie",
    "code_postal": null,
    "cct_code_commune": "Aix-les-Bains",
    "cct_denomination": "C 2 L",
    "cct_adresse": "200 AV DE ST SIMOND",
    "cct_tel": "479884050",
    "cct_url": null,
    "cat_vehicule_id": "5",
    "cat_vehicule_libelle": "Camping-car (moins de 3,5 tonnes)",
    "cat_energie_id": "3",
    "cat_energie_libelle": "Gaz",
    "prix_visite": 118,
    "date_application_visite": "2020-09-09",
    "prix_contre_visite_min": 20,
    "prix_contre_visite_max": 50,
    "date_application_contre_visite": "2020-09-09",
    "cct_siret": 83384356800019,
    "latitude": 45.712097,
    "longitude": 5.918669,
    "coordgeo": {
      "lon": 5.918669,
      "lat": 45.712097
    },
    "cct_statut": "actif"
  },
  {
    "cct_code_dept": "Savoie",
    "code_postal": null,
    "cct_code_commune": "Saint-Pierre-d'Albigny",
    "cct_denomination": "DE L'ARCLUSAZ",
    "cct_adresse": "14 RUE DES ILES",
    "cct_tel": "479285195",
    "cct_url": "https://www.controletechnique-savoie.fr/",
    "cat_vehicule_id": "4",
    "cat_vehicule_libelle": "Camionnette",
    "cat_energie_id": "5",
    "cat_energie_libelle": "Electrique",
    "prix_visite": 109,
    "date_application_visite": "2020-01-01",
    "prix_contre_visite_min": 20,
    "prix_contre_visite_max": 87,
    "date_application_contre_visite": "2020-09-03",
    "cct_siret": 80216430100011,
    "latitude": 45.554467,
    "longitude": 6.16706,
    "coordgeo": {
      "lon": 6.16706,
      "lat": 45.554467
    },
    "cct_statut": "actif"
  },
  {
    "cct_code_dept": "Savoie",
    "code_postal": null,
    "cct_code_commune": "Saint-Pierre-d'Albigny",
    "cct_denomination": "DE L'ARCLUSAZ",
    "cct_adresse": "14 RUE DES ILES",
    "cct_tel": "479285195",
    "cct_url": "https://www.controletechnique-savoie.fr/",
    "cat_vehicule_id": "5",
    "cat_vehicule_libelle": "Camping-car (moins de 3,5 tonnes)",
    "cat_energie_id": "4",
    "cat_energie_libelle": "Hybride",
    "prix_visite": 87,
    "date_application_visite": "2020-01-01",
    "prix_contre_visite_min": 20,
    "prix_contre_visite_max": 87,
    "date_application_contre_visite": "2020-01-01",
    "cct_siret": 80216430100011,
    "latitude": 45.554467,
    "longitude": 6.16706,
    "coordgeo": {
      "lon": 6.16706,
      "lat": 45.554467
    },
    "cct_statut": "actif"
  },
  {
    "cct_code_dept": "Savoie",
    "code_postal": null,
    "cct_code_commune": "Saint-Pierre-d'Albigny",
    "cct_denomination": "DE L'ARCLUSAZ",
    "cct_adresse": "14 RUE DES ILES",
    "cct_tel": "479285195",
    "cct_url": "https://www.controletechnique-savoie.fr/",
    "cat_vehicule_id": "1",
    "cat_vehicule_libelle": "Voiture Particulière",
    "cat_energie_id": "4",
    "cat_energie_libelle": "Hybride",
    "prix_visite": 87,
    "date_application_visite": "2020-01-01",
    "prix_contre_visite_min": 20,
    "prix_contre_visite_max": 87,
    "date_application_contre_visite": "2020-01-01",
    "cct_siret": 80216430100011,
    "latitude": 45.554467,
    "longitude": 6.16706,
    "coordgeo": {
      "lon": 6.16706,
      "lat": 45.554467
    },
    "cct_statut": "actif"
  },
  {
    "cct_code_dept": "Savoie",
    "code_postal": null,
    "cct_code_commune": "Séez",
    "cct_denomination": "AUTOMOBILE CONTROLE DES ALPES",
    "cct_adresse": "6 RUE DES GLIERES",
    "cct_tel": "624883473",
    "cct_url": null,
    "cat_vehicule_id": "4",
    "cat_vehicule_libelle": "Camionnette",
    "cat_energie_id": "1",
    "cat_energie_libelle": "Essence",
    "prix_visite": 100,
    "date_application_visite": "2020-09-15",
    "prix_contre_visite_min": 15,
    "prix_contre_visite_max": 35,
    "date_application_contre_visite": "2020-09-15",
    "cct_siret": 45227205700012,
    "latitude": 45.621882,
    "longitude": 6.790163,
    "coordgeo": {
      "lon": 6.790163,
      "lat": 45.621882
    },
    "cct_statut": "actif"
  },
  {
    "cct_code_dept": "Savoie",
    "code_postal": null,
    "cct_code_commune": "Aime",
    "cct_denomination": "AIME CONTROLE AUTO",
    "cct_adresse": "460 RTE DES ILES",
    "cct_tel": "624883473",
    "cct_url": null,
    "cat_vehicule_id": "5",
    "cat_vehicule_libelle": "Camping-car (moins de 3,5 tonnes)",
    "cat_energie_id": "3",
    "cat_energie_libelle": "Gaz",
    "prix_visite": 125,
    "date_application_visite": "2020-09-15",
    "prix_contre_visite_min": 15,
    "prix_contre_visite_max": 35,
    "date_application_contre_visite": "2020-09-15",
    "cct_siret": 44109089100017,
    "latitude": 45.554305,
    "longitude": 6.644493,
    "coordgeo": {
      "lon": 6.644493,
      "lat": 45.554305
    },
    "cct_statut": "actif"
  },