[
  {
    "cct_code_dept": "Tarn-et-Garonne",
    "code_postal": null,
    "cct_code_commune": "Montaigu-de-Quercy",
    "cct_denomination": "CONTROL AUTO",
    "cct_adresse": "1 PL MERCADIEL",
    "cct_tel": "563943093",
    "cct_url": null,
    "cat_vehicule_id": "1",
    "cat_vehicule_libelle": "Voiture Particulière",
    "cat_energie_id": "1",
    "cat_energie_libelle": "Essence",
    "prix_visite": 70,
    "date_application_visite": "2020-09-14",
    "prix_contre_visite_min": 5,
    "prix_contre_visite_max": 20,
    "date_application_contre_visite": "2020-09-14",
    "cct_siret": 38407058700017,
    "latitude": 44.3396,
    "longitude": 1.018073,
    "coordgeo": {
      "lon": 1.018073,
      "lat": 44.3396
    },
    "cct_statut": "actif"
  },
  {
    "cct_code_dept": "Tarn-et-Garonne",
    "code_postal": "82120",
    "cct_code_commune": "Lavit",
    "cct_denomination": "DURRENS VINCENT",
    "cct_adresse": "Z.A. LE COUTRE",
    "cct_tel": "563940992",
    "cct_url": "www.ctlavit.autosecurite.com",
    "cat_vehicule_id": "1",
    "cat_vehicule_libelle": "Voiture Particulière",
    "cat_energie_id": "4",
    "cat_energie_libelle": "Hybride",
    "prix_visite": 90,
    "date_application_visite": "2020-09-03",
    "prix_contre_visite_min": 5,
    "prix_contre_visite_max": 35,
    "date_application_contre_visite": "2020-09-03",
    "cct_siret": 45037271900028,
    "latitude": 43.963322,
    "longitude": 0.93147,
    "coordgeo": {
      "lon": 0.93147,
      "lat": 43.963322
    },
    "cct_statut": "actif"
  },
  {
    "cct_code_dept": "Tarn-et-Garonne",
    "code_postal": "82700",
    "cct_code_commune": "Montech",
    "cct_denomination": "MONTECH CONTROLE AUTO",
    "cct_adresse": "1020 RTE DE MONTAUBAN",
    "cct_tel": "563647105",
    "cct_url": "www.controle-technique-montech.autosecurite.com",
    "cat_vehicule_id": "2",
    "cat_vehicule_libelle": "4 x 4",
    "cat_energie_id": "1",
    "cat_energie_libelle": "Essence",
    "prix_visite": 80,
    "date_application_visite": "2020-09-12",
    "prix_contre_visite_min": 5,
    "prix_contre_visite_max": 35,
    "date_application_contre_visite": "2020-09-12",
    "cct_siret": 83000432100030,
    "latitude": 43.963333,
    "longitude": 1.249005,
    "coordgeo": {
      "lon": 1.249005,
      "lat": 43.963333
    },
    "cct_statut": "actif"
  },
  {
    "cct_code_dept": "Tarn-et-Garonne",
    "code_postal": "82100",
    "cct_code_commune": "Castelsarrasin",
    "cct_denomination": "CASTEL CONTROLE AUTO",
    "cct_adresse": "RN 113",
    "cct_tel": "563325148",
    "cct_url": "www.castel.autosecurite.com",
    "cat_vehicule_id": "3",
    "cat_vehicule_libelle": "Voiture de collection",
    "cat_energie_id": "5",
    "cat_energie_libelle": "Electrique",
    "prix_visite": 100,
    "date_application_visite": "2020-09-12",
    "prix_contre_visite_min": 5,
    "prix_contre_visite_max": 35,
    "date_application_contre_visite": "2020-09-12",
    "cct_siret": 83000259800027,
    "latitude": null,
    "longitude": null,
    "coordgeo": null,
    "cct_statut": "actif"
  },
  {
    "cct_code_dept": "Tarn-et-Garonne",
    "code_postal": "26000",
    "cct_code_commune": "Valence",
    "cct_denomination": "C T M",
    "cct_adresse": "39 BD VICTOR GUILHEM",
    "cct_tel": "563395051",
    "cct_url": "https://www.dekra-norisko.fr/",
    "cat_vehicule_id": "4",
    "cat_vehicule_libelle": "Camionnette",
    "cat_energie_id": "3",
    "cat_energie_libelle": "Gaz",
    "prix_visite": 85,
    "date_application_visite": "2020-09-08",
    "prix_contre_visite_min": 15,
    "prix_contre_visite_max": 30,
    "date_application_contre_visite": "2020-09-08",
    "cct_siret": 48144396800054,
    "latitude": 44.109144,
    "longitude": 0.888319,
    "coordgeo": {
      "lon": 0.888319,
      "lat": 44.109144
    },
    "cct_statut": "actif"
  },
  {
    "cct_code_dept": "Tarn-et-Garonne",
    "code_postal": "82000",
    "cct_code_commune": "Montauban",
    "cct_denomination": "AUTO BILAN SAPIAC",
    "cct_adresse": "1255 RUE DE L ABBAYE",
    "cct_tel": "563668540",
    "cct_url": "https://noriskoauto-ct.fr/montauban-sapiac",
    "cat_vehicule_id": "3",
    "cat_vehicule_libelle": "Voiture de collection",
    "cat_energie_id": "1",
    "cat_energie_libelle": "Essence",
    "prix_visite": 80,
    "date_application_visite": "2020-09-14",
    "prix_contre_visite_min": 20,
    "prix_contre_visite_max": 35,
    "date_application_contre_visite": "2020-09-14",
    "cct_siret": 80379838800010,
    "latitude": 44.003721,
    "longitude": 1.35611,
    "coordgeo": {
      "lon": 1.35611,
      "lat": 44.003721
    },
    "cct_statut": "actif"
  },
  {
    "cct_code_dept": "Tarn-et-Garonne",
    "code_postal": "82300",
    "cct_code_commune": "Caussade",
    "cct_denomination": "EURL DAVID SERVICES AUTO",
    "cct_adresse": "1 RUE DES FRERES DUCLOS",
    "cct_tel": "563932599",
    "cct_url": "dekra-norisko.fr",
    "cat_vehicule_id": "1",
    "cat_vehicule_libelle": "Voiture Particulière",
    "cat_energie_id": "2",
    "cat_energie_libelle": "Diesel",
    "prix_visite": 80,
    "date_application_visite": "2020-09-15",
    "prix_contre_visite_min": 15,
    "prix_contre_visite_max": 25,
    "date_application_contre_visite": "2020-09-15",
    "cct_siret": 48777475400039,
    "latitude": 44.159616,
    "longitude": 1.53847,
    "coordgeo": {
      "lon": 1.53847,
      "lat": 44.159616
    },
    "cct_statut": "actif"
  },
  {
    "cct_code_dept": "Tarn-et-Garonne",
    "code_postal": "82300",
    "cct_code_commune": "Caussade",
    "cct_denomination": "EURL DAVID SERVICES AUTO",
    "cct_adresse": "1 RUE DES FRERES DUCLOS",
    "cct_tel": "563932599",
    "cct_url": "dekra-norisko.fr",
    "cat_vehicule_id": "3",
    "cat_vehicule_libelle": "Voiture de collection",
    "cat_energie_id": "2",
    "cat_energie_libelle": "Diesel",
    "prix_visite": 80,
    "date_application_visite": "2020-09-15",
    "prix_contre_visite_min": 15,
    "prix_contre_visite_max": 25,
    "date_application_contre_visite": "2020-09-15",
    "cct_siret": 48777475400039,
    "latitude": 44.159616,
    "longitude": 1.53847,
    "coordgeo": {
      "lon": 1.53847,
      "lat": 44.159616
    },
    "cct_statut": "actif"
  },
  {
    "cct_code_dept": "Tarn-et-Garonne",
    "code_postal": null,
    "cct_code_commune": "Verdun-sur-Garonne",
    "cct_denomination": "AUTO BILAN SAPIAC",
    "cct_adresse": "RTE DE GRENADE",
    "cct_tel": "563270535",
    "cct_url": "https://dekra-ct.fr/verdun-sur-garonne",
    "cat_vehicule_id": "4",
    "cat_vehicule_libelle": "Camionnette",
    "cat_energie_id": "2",
    "cat_energie_libelle": "Diesel",
    "prix_visite": 80,
    "date_application_visite": "2022-07-15",
    "prix_contre_visite_min": 10,
    "prix_contre_visite_max": 25,
    "date_application_contre_visite": "2022-07-15",
    "cct_siret": 80379838800028,
    "latitude": null,
    "longitude": null,
    "coordgeo": null,
    "cct_statut": "actif"
  },
  {
    "cct_code_dept": "Tarn-et-Garonne",
    "code_postal": "82000",
    "cct_code_commune": "Montauban",
    "cct_denomination": "EURL A.C.D.",
    "cct_adresse": "19 PL LALAQUE",
    "cct_tel": "563667044",
    "cct_url": null,
    "cat_vehicule_id": "3",
    "cat_vehicule_libelle": "Voiture de collection",
    "cat_energie_id": "1",
    "cat_energie_libelle": "Essence",
    "prix_visite": 75,
    "date_application_visite": "2022-04-29",
    "prix_contre_visite_min": 5,
    "prix_contre_visite_max": 35,
    "date_application_contre_visite": "2020-10-09",
    "cct_siret": 47785936700013,
    "latitude": 44.016359,
    "longitude": 1.34392,
    "coordgeo": {
      "lon": 1.34392,
      "lat": 44.016359
    },
    "cct_statut": "actif"
  },
  {
    "cct_code_dept": "Tarn-et-Garonne",
    "code_postal": "82000",
    "cct_code_commune": "Montauban",
    "cct_denomination": "AUTO CONTROLE 82",
    "cct_adresse": "ZI DES PARAGES",
    "cct_tel": "563021895",
    "cct_url": null,
    "cat_vehicule_id": "2",
    "cat_vehicule_libelle": "4 x 4",
    "cat_energie_id": "1",
    "cat_energie_libelle": "Essence",
    "prix_visite": 78,
    "date_application_visite": "2020-09-11",
    "prix_contre_visite_min": 5,
    "prix_contre_visite_max": 35,
    "date_application_contre_visite": "2020-09-11",
    "cct_siret": 35012964900017,
    "latitude": null,
    "longitude": null,
    "coordgeo": null,
    "cct_statut": "actif"
  },
  {
    "cct_code_dept": "Tarn-et-Garonne",
    "code_postal": "82000",
    "cct_code_commune": "Montauban",
    "cct_denomination": "AUTO CONTROLE 82",
    "cct_adresse": "ZI DES PARAGES",
    "cct_tel": "563021895",
    "cct_url": null,
    "cat_vehicule_id": "1",
    "cat_vehicule_libelle": "Voiture Particulière",
    "cat_energie_id": "5",
    "cat_energie_libelle": "Electrique",
    "prix_visite": 78,
    "date_application_visite": "2020-09-11",
    "prix_contre_visite_min": 5,
    "prix_contre_visite_max": 35,
    "date_application_contre_visite": "2020-09-11",
    "cct_siret": 35012964900017,
    "latitude": null,
    "longitude": null,
    "coordgeo": null,
    "cct_statut": "actif"
  },
  {
    "cct_code_dept": "Tarn-et-Garonne",
    "code_postal": "82000",
    "cct_code_commune": "Montauban",
    "cct_denomination": "SARL FALLIERES",
    "cct_adresse": "1803 CHE DE MATRAS",
    "cct_tel": "563200842",
    "cct_url": "montauban-zi-nord.autosur.fr",
    "cat_vehicule_id": "5",
    "cat_vehicule_libelle": "Camping-car (moins de 3,5 tonnes)",
    "cat_energie_id": "3",
    "cat_energie_libelle": "Gaz",
    "prix_visite": 95,
    "date_application_visite": "2020-09-10",
    "prix_contre_visite_min": 20,
    "prix_contre_visite_max": 95,
    "date_application_contre_visite": "2020-09-10",
    "cct_siret": 79368566000011,
    "latitude": 44.037204,
    "longitude": 1.375881,
    "coordgeo": {
      "lon": 1.375881,
      "lat": 44.037204
    },
    "cct_statut": "actif"
  },
  {
    "cct_code_dept": "Tarn-et-Garonne",
    "code_postal": "82400",
    "cct_code_commune": "Valence",
    "cct_denomination": "C T M",
    "cct_adresse": "AV JEAN BAYLET",
    "cct_tel": "643528065",
    "cct_url": null,
    "cat_vehicule_id": "2",
    "cat_vehicule_libelle": "4 x 4",
    "cat_energie_id": "2",
    "cat_energie_libelle": "Diesel",
    "prix_visite": 78,
    "date_application_visite": "2023-01-03",
    "prix_contre_visite_min": 15,
    "prix_contre_visite_max": 30,
    "date_application_contre_visite": "2023-01-03",
    "cct_siret": 48144396800070,
    "latitude": 44.108363,
    "longitude": 0.895486,
    "coordgeo": {
      "lon": 0.895486,
      "lat": 44.108363
    },
    "cct_statut": "actif"
  },
  {
    "cct_code_dept": "Tarn-et-Garonne",
    "code_postal": "16460",
    "cct_code_commune": "Valence",
    "cct_denomination": "C T M",
    "cct_adresse": "AV JEAN BAYLET",
    "cct_tel": "643528065",
    "cct_url": null,
    "cat_vehicule_id": "1",
    "cat_vehicule_libelle": "Voiture Particulière",
    "cat_energie_id": "2",
    "cat_energie_libelle": "Diesel",
    "prix_visite": 75,
    "date_application_visite": "2021-06-24",
    "prix_contre_visite_min": 15,
    "prix_contre_visite_max": 30,
    "date_application_contre_visite": "2021-06-24",
    "cct_siret": 48144396800070,
    "latitude": 44.108363,
    "longitude": 0.895486,
    "coordgeo": {
      "lon": 0.895486,
      "lat": 44.108363
    },
    "cct_statut": "actif"
  },
  {
    "cct_code_dept": "Tarn-et-Garonne",
    "code_postal": "16460",
    "cct_code_commune": "Valence",
    "cct_denomination": "C T M",
    "cct_adresse": "AV JEAN BAYLET",
    "cct_tel": "643528065",
    "cct_url": null,
    "cat_vehicule_id": "3",
    "cat_vehicule_libelle": "Voiture de collection",
    "cat_energie_id": "1",
    "cat_energie_libelle": "Essence",
    "prix_visite": 78,
    "date_application_visite": "2023-01-03",
    "prix_contre_visite_min": 15,
    "prix_contre_visite_max": 30,
    "date_application_contre_visite": "2021-06-24",
    "cct_siret": 48144396800070,
    "latitude": 44.108363,
    "longitude": 0.895486,
    "coordgeo": {
      "lon": 0.895486,
      "lat": 44.108363
    },
    "cct_statut": "actif"
  },
  {
    "cct_code_dept": "Tarn-et-Garonne",
    "code_postal": "82400",
    "cct_code_commune": "Golfech",
    "cct_denomination": "C T M",
    "cct_adresse": "LD BARAILLOL",
    "cct_tel": "563322091",
    "cct_url": "https://controle-technique-golfech.securitest.fr/",
    "cat_vehicule_id": "3",
    "cat_vehicule_libelle": "Voiture de collection",
    "cat_energie_id": "4",
    "cat_energie_libelle": "Hybride",
    "prix_visite": 88,
    "date_application_visite": "2023-01-03",
    "prix_contre_visite_min": 15,
    "prix_contre_visite_max": 30,
    "date_application_contre_visite": "2020-09-08",
    "cct_siret": 48144396800047,
    "latitude": 44.113409,
    "longitude": 0.869355,
    "coordgeo": {
      "lon": 0.869355,
      "lat": 44.113409
    },
    "cct_statut": "actif"
  },
  {
    "cct_code_dept": "Tarn-et-Garonne",
    "code_postal": "82700",
    "cct_code_commune": "Montech",
    "cct_denomination": "MONTECH CONTROLE AUTO",
    "cct_adresse": "FRAPPAT",
    "cct_tel": "563275458",
    "cct_url": "www.controle-technique-montech.securitest.fr",
    "cat_vehicule_id": "4",
    "cat_vehicule_libelle": "Camionnette",
    "cat_energie_id": "2",
    "cat_energie_libelle": "Diesel",
    "prix_visite": 80,
    "date_application_visite": "2020-09-12",
    "prix_contre_visite_min": 5,
    "prix_contre_visite_max": 35,
    "date_application_contre_visite": "2020-09-12",
    "cct_siret": 83000432100022,
    "latitude": 43.956062,
    "longitude": 1.221176,
    "coordgeo": {
      "lon": 1.221176,
      "lat": 43.956062
    },
    "cct_statut": "actif"
  },
  {
    "cct_code_dept": "Tarn-et-Garonne",
    "code_postal": "82700",
    "cct_code_commune": "Montech",
    "cct_denomination": "MONTECH CONTROLE AUTO",
    "cct_adresse": "FRAPPAT",
    "cct_tel": "563275458",
    "cct_url": "www.controle-technique-montech.securitest.fr",
    "cat_vehicule_id": "4",
    "cat_vehicule_libelle": "Camionnette",
    "cat_energie_id": "1",
    "cat_energie_libelle": "Essence",
    "prix_visite": 80,
    "date_application_visite": "2020-09-12",
    "prix_contre_visite_min": 5,
    "prix_contre_visite_max": 35,
    "date_application_contre_visite": "2020-09-12",
    "cct_siret": 83000432100022,
    "latitude": 43.956062,
    "longitude": 1.221176,
    "coordgeo": {
      "lon": 1.221176,
      "lat": 43.956062
    },
    "cct_statut": "actif"
  },
  {
    "cct_code_dept": "Tarn-et-Garonne",
    "code_postal": "82100",
    "cct_code_commune": "Castelsarrasin",
    "cct_denomination": "CASTEL CONTROLE AUTO",
    "cct_adresse": "18 BD MARCEAU FAURE",
    "cct_tel": "563321290",
    "cct_url": "www.castel.securitest.fr",
    "cat_vehicule_id": "4",
    "cat_vehicule_libelle": "Camionnette",
    "cat_energie_id": "5",
    "cat_energie_libelle": "Electrique",
    "prix_visite": 80,
    "date_application_visite": "2020-09-12",
    "prix_contre_visite_min": 5,
    "prix_contre_visite_max": 35,
    "date_application_contre_visite": "2020-09-12",
    "cct_siret": 83000259800035,
    "latitude": 44.036038,
    "longitude": 1.108989,
    "coordgeo": {
      "lon": 1.108989,
      "lat": 44.036038
    },
    "cct_statut": "actif"
  },
  {
    "cct_code_dept": "Tarn-et-Garonne",
    "code_postal": "82100",
    "cct_code_commune": "Castelsarrasin",
    "cct_denomination": "CASTEL CONTROLE AUTO",
    "cct_adresse": "18 BD MARCEAU FAURE",
    "cct_tel": "563321290",
    "cct_url": "www.castel.securitest.fr",
    "cat_vehicule_id": "4",
    "cat_vehicule_libelle": "Camionnette",
    "cat_energie_id": "1",
    "cat_energie_libelle": "Essence",
    "prix_visite": 80,
    "date_application_visite": "2020-09-12",
    "prix_contre_visite_min": 5,
    "prix_contre_visite_max": 35,
    "date_application_contre_visite": "2020-09-12",
    "cct_siret": 83000259800035,
    "latitude": 44.036038,
    "longitude": 1.108989,
    "coordgeo": {
      "lon": 1.108989,
      "lat": 44.036038
    },
    "cct_statut": "actif"
  },
  {
    "cct_code_dept": "Tarn-et-Garonne",
    "code_postal": "82100",
    "cct_code_commune": "Castelsarrasin",
    "cct_denomination": "CASTEL CONTROLE AUTO",
    "cct_adresse": "18 BD MARCEAU FAURE",
    "cct_tel": "563321290",
    "cct_url": "www.castel.securitest.fr",
    "cat_vehicule_id": "3",
    "cat_vehicule_libelle": "Voiture de collection",
    "cat_energie_id": "1",
    "cat_energie_libelle": "Essence",
    "prix_visite": 80,
    "date_application_visite": "2020-09-12",
    "prix_contre_visite_min": 5,
    "prix_contre_visite_max": 35,
    "date_application_contre_visite": "2020-09-12",
    "cct_siret": 83000259800035,
    "latitude": 44.036038,
    "longitude": 1.108989,
    "coordgeo": {
      "lon": 1.108989,
      "lat": 44.036038
    },
    "cct_statut": "actif"
  },
  {
    "cct_code_dept": "Tarn-et-Garonne",
    "code_postal": "82200",
    "cct_code_commune": "Moissac",
    "cct_denomination": "LDM",
    "cct_adresse": "RUE DES CERISES",
    "cct_tel": "563041002",
    "cct_url": null,
    "cat_vehicule_id": "2",
    "cat_vehicule_libelle": "4 x 4",
    "cat_energie_id": "3",
    "cat_energie_libelle": "Gaz",
    "prix_visite": 85,
    "date_application_visite": "2020-12-01",
    "prix_contre_visite_min": 15,
    "prix_contre_visite_max": 30,
    "date_application_contre_visite": "2020-12-01",
    "cct_siret": 88866607000014,
    "latitude": 44.1115,
    "longitude": 1.106108,
    "coordgeo": {
      "lon": 1.106108,
      "lat": 44.1115
    },
    "cct_statut": "actif"
  },
  {
    "cct_code_dept": "Tarn-et-Garonne",
    "code_postal": "82000",
    "cct_code_commune": "Montauban",
    "cct_denomination": "GROUPE CASTETS FRERES",
    "cct_adresse": "RUE DE LA PREMIERE ARMEE",
    "cct_tel": "563030791",
    "cct_url": "http://www.eurocontrole-sapiac.fr/",
    "cat_vehicule_id": "4",
    "cat_vehicule_libelle": "Camionnette",
    "cat_energie_id": "2",
    "cat_energie_libelle": "Diesel",
    "prix_visite": 79,
    "date_application_visite": "2020-09-01",
    "prix_contre_visite_min": 15,
    "prix_contre_visite_max": 25,
    "date_application_contre_visite": "2020-09-01",
    "cct_siret": 79236643700053,
    "latitude": 44.002655,
    "longitude": 1.355196,
    "coordgeo": {
      "lon": 1.355196,
      "lat": 44.002655
    },
    "cct_statut": "actif"
  },
  {
    "cct_code_dept": "Tarn-et-Garonne",
    "code_postal": "82200",
    "cct_code_commune": "Moissac",
    "cct_denomination": "MOISSAC CONTROLE TECHNIQUE",
    "cct_adresse": "491 ROUTE DE LA MEGERE",
    "cct_tel": "563954370",
    "cct_url": "www.moissac-controletechnique.fr",
    "cat_vehicule_id": "5",
    "cat_vehicule_libelle": "Camping-car (moins de 3,5 tonnes)",
    "cat_energie_id": "1",
    "cat_energie_libelle": "Essence",
    "prix_visite": 90,
    "date_application_visite": "2023-01-04",
    "prix_contre_visite_min": 0,
    "prix_contre_visite_max": 20,
    "date_application_contre_visite": "2023-01-04",
    "cct_siret": 91508868600018,
    "latitude": 44.117635,
    "longitude": 1.116878,
    "coordgeo": {
      "lon": 1.116878,
      "lat": 44.117635
    },
    "cct_statut": "actif"
  },
  {
    "cct_code_dept": "Tarn-et-Garonne",
    "code_postal": "82210",
    "cct_code_commune": "Castelmayran",
    "cct_denomination": "CONTROLE TECHNIQUE CASTELMAYRAN",
    "cct_adresse": "65 RTE D'AUVILLAR",
    "cct_tel": "569954363",
    "cct_url": null,
    "cat_vehicule_id": "1",
    "cat_vehicule_libelle": "Voiture Particulière",
    "cat_energie_id": "2",
    "cat_energie_libelle": "Diesel",
    "prix_visite": 78,
    "date_application_visite": "2020-11-17",
    "prix_contre_visite_min": 0,
    "prix_contre_visite_max": 35,
    "date_application_contre_visite": "2020-11-17",
    "cct_siret": 79872907500019,
    "latitude": 44.030924,
    "longitude": 1.036897,
    "coordgeo": {
      "lon": 1.036897,
      "lat": 44.030924
    },
    "cct_statut": "actif"
  },
  {
    "cct_code_dept": "Tarn-et-Garonne",
    "code_postal": "82300",
    "cct_code_commune": "Caussade",
    "cct_denomination": "CONTROLE BILAN SECURITE",
    "cct_adresse": "118 BD EDOUARD HERRIOT",
    "cct_tel": "563932929",
    "cct_url": null,
    "cat_vehicule_id": "2",
    "cat_vehicule_libelle": "4 x 4",
    "cat_energie_id": "2",
    "cat_energie_libelle": "Diesel",
    "prix_visite": 80,
    "date_application_visite": "2021-02-01",
    "prix_contre_visite_min": 5,
    "prix_contre_visite_max": 35,
    "date_application_contre_visite": "2021-02-01",
    "cct_siret": 38441893500050,
    "latitude": 44.154296,
    "longitude": 1.529882,
    "coordgeo": {
      "lon": 1.529882,
      "lat": 44.154296
    },
    "cct_statut": "actif"
  },
  {
    "cct_code_dept": "Tarn-et-Garonne",
    "code_postal": "82300",
    "cct_code_commune": "Caussade",
    "cct_denomination": "CONTROLE BILAN SECURITE",
    "cct_adresse": "118 BD EDOUARD HERRIOT",
    "cct_tel": "563932929",
    "cct_url": null,
    "cat_vehicule_id": "2",
    "cat_vehicule_libelle": "4 x 4",
    "cat_energie_id": "2",
    "cat_energie_libelle": "Diesel",
    "prix_visite": 80,
    "date_application_visite": "2021-02-01",
    "prix_contre_visite_min": 15,
    "prix_contre_visite_max": 35,
    "date_application_contre_visite": "2021-02-01",
    "cct_siret": 38441893500050,
    "latitude": 44.154296,
    "longitude": 1.529882,
    "coordgeo": {
      "lon": 1.529882,
      "lat": 44.154296
    },
    "cct_statut": "actif"
  },
  {
    "cct_code_dept": "Tarn-et-Garonne",
    "code_postal": "82300",
    "cct_code_commune": "Caussade",
    "cct_denomination": "CONTROLE BILAN SECURITE",
    "cct_adresse": "118 BD EDOUARD HERRIOT",
    "cct_tel": "563932929",
    "cct_url": null,
    "cat_vehicule_id": "4",
    "cat_vehicule_libelle": "Camionnette",
    "cat_energie_id": "3",
    "cat_energie_libelle": "Gaz",
    "prix_visite": 100,
    "date_application_visite": "2021-02-01",
    "prix_contre_visite_min": 5,
    "prix_contre_visite_max": 35,
    "date_application_contre_visite": "2021-02-01",
    "cct_siret": 38441893500050,
    "latitude": 44.154296,
    "longitude": 1.529882,
    "coordgeo": {
      "lon": 1.529882,
      "lat": 44.154296
    },
    "cct_statut": "actif"
  },
  {
    "cct_code_dept": "Tarn-et-Garonne",
    "code_postal": "82300",
    "cct_code_commune": "Caussade",
    "cct_denomination": "CONTROLE BILAN SECURITE",
    "cct_adresse": "118 BD EDOUARD HERRIOT",
    "cct_tel": "563932929",
    "cct_url": null,
    "cat_vehicule_id": "4",
    "cat_vehicule_libelle": "Camionnette",
    "cat_energie_id": "4",
    "cat_energie_libelle": "Hybride",
    "prix_visite": 100,
    "date_application_visite": "2021-02-01",
    "prix_contre_visite_min": 5,
    "prix_contre_visite_max": 35,
    "date_application_contre_visite": "2021-02-01",
    "cct_siret": 38441893500050,
    "latitude": 44.154296,
    "longitude": 1.529882,
    "coordgeo": {
      "lon": 1.529882,
      "lat": 44.154296
    },
    "cct_statut": "actif"
  },
  {
    "cct_code_dept": "Tarn-et-Garonne",
    "code_postal": "82300",
    "cct_code_commune": "Caussade",
    "cct_denomination": "CONTROLE BILAN SECURITE",
    "cct_adresse": "118 BD EDOUARD HERRIOT",
    "cct_tel": "563932929",
    "cct_url": null,
    "cat_vehicule_id": "5",
    "cat_vehicule_libelle": "Camping-car (moins de 3,5 tonnes)",
    "cat_energie_id": "4",
    "cat_energie_libelle": "Hybride",
    "prix_visite": 100,
    "date_application_visite": "2021-02-01",
    "prix_contre_visite_min": 5,
    "prix_contre_visite_max": 35,
    "date_application_contre_visite": "2021-02-01",
    "cct_siret": 38441893500050,
    "latitude": 44.154296,
    "longitude": 1.529882,
    "coordgeo": {
      "lon": 1.529882,
      "lat": 44.154296
    },
    "cct_statut": "actif"
  },
  {
    "cct_code_dept": "Tarn-et-Garonne",
    "code_postal": "82300",
    "cct_code_commune": "Caussade",
    "cct_denomination": "CONTROLE BILAN SECURITE",
    "cct_adresse": "118 BD EDOUARD HERRIOT",
    "cct_tel": "563932929",
    "cct_url": null,
    "cat_vehicule_id": "1",
    "cat_vehicule_libelle": "Voiture Particulière",
    "cat_energie_id": "2",
    "cat_energie_libelle": "Diesel",
    "prix_visite": 80,
    "date_application_visite": "2021-02-01",
    "prix_contre_visite_min": 5,
    "prix_contre_visite_max": 35,
    "date_application_contre_visite": "2021-02-01",
    "cct_siret": 38441893500050,
    "latitude": 44.154296,
    "longitude": 1.529882,
    "coordgeo": {
      "lon": 1.529882,
      "lat": 44.154296
    },
    "cct_statut": "actif"
  },
  {
    "cct_code_dept": "Tarn-et-Garonne",
    "code_postal": "82160",
    "cct_code_commune": "Parisot",
    "cct_denomination": "GUILBON CONTROLE AUTO",
    "cct_adresse": "LE VILLAGE",
    "cct_tel": "563240017",
    "cct_url": null,
    "cat_vehicule_id": "2",
    "cat_vehicule_libelle": "4 x 4",
    "cat_energie_id": "2",
    "cat_energie_libelle": "Diesel",
    "prix_visite": 75,
    "date_application_visite": "2020-09-01",
    "prix_contre_visite_min": 10,
    "prix_contre_visite_max": 15,
    "date_application_contre_visite": "2020-09-01",
    "cct_siret": 81068358100021,
    "latitude": 44.260102,
    "longitude": 1.906742,
    "coordgeo": {
      "lon": 1.906742,
      "lat": 44.260102
    },
    "cct_statut": "actif"
  },
  {
    "cct_code_dept": "Tarn-et-Garonne",
    "code_postal": "81310",
    "cct_code_commune": "Parisot",
    "cct_denomination": "GUILBON CONTROLE AUTO",
    "cct_adresse": "LE VILLAGE",
    "cct_tel": "563240017",
    "cct_url": null,
    "cat_vehicule_id": "2",
    "cat_vehicule_libelle": "4 x 4",
    "cat_energie_id": "1",
    "cat_energie_libelle": "Essence",
    "prix_visite": 75,
    "date_application_visite": "2020-09-01",
    "prix_contre_visite_min": 10,
    "prix_contre_visite_max": 15,
    "date_application_contre_visite": "2020-09-01",
    "cct_siret": 81068358100021,
    "latitude": 44.260102,
    "longitude": 1.906742,
    "coordgeo": {
      "lon": 1.906742,
      "lat": 44.260102
    },
    "cct_statut": "actif"
  },
  {
    "cct_code_dept": "Tarn-et-Garonne",
    "code_postal": "82160",
    "cct_code_commune": "Parisot",
    "cct_denomination": "GUILBON CONTROLE AUTO",
    "cct_adresse": "LE VILLAGE",
    "cct_tel": "563240017",
    "cct_url": null,
    "cat_vehicule_id": "4",
    "cat_vehicule_libelle": "Camionnette",
    "cat_energie_id": "1",
    "cat_energie_libelle": "Essence",
    "prix_visite": 75,
    "date_application_visite": "2020-09-01",
    "prix_contre_visite_min": 10,
    "prix_contre_visite_max": 15,
    "date_application_contre_visite": "2020-09-01",
    "cct_siret": 81068358100021,
    "latitude": 44.260102,
    "longitude": 1.906742,
    "coordgeo": {
      "lon": 1.906742,
      "lat": 44.260102
    },
    "cct_statut": "actif"
  },
  {
    "cct_code_dept": "Tarn-et-Garonne",
    "code_postal": "82000",
    "cct_code_commune": "Montauban",
    "cct_denomination": "DJ CONTROL",
    "cct_adresse": "2 CHE DU HAMEAU",
    "cct_tel": null,
    "cct_url": null,
    "cat_vehicule_id": "2",
    "cat_vehicule_libelle": "4 x 4",
    "cat_energie_id": "2",
    "cat_energie_libelle": "Diesel",
    "prix_visite": 80,
    "date_application_visite": "2020-09-14",
    "prix_contre_visite_min": 20,
    "prix_contre_visite_max": 25,
    "date_application_contre_visite": "2020-09-14",
    "cct_siret": 52532277200019,
    "latitude": 44.0565,
    "longitude": 1.404095,
    "coordgeo": {
      "lon": 1.404095,
      "lat": 44.0565
    },
    "cct_statut": "actif"
  },
  {
    "cct_code_dept": "Tarn-et-Garonne",
    "code_postal": "82710",
    "cct_code_commune": "Bressols",
    "cct_denomination": "CTA BRESSOLS",
    "cct_adresse": "1231 CHE DU PASTENC",
    "cct_tel": "952707302",
    "cct_url": "www.moncontroletechnique.fr",
    "cat_vehicule_id": "5",
    "cat_vehicule_libelle": "Camping-car (moins de 3,5 tonnes)",
    "cat_energie_id": "4",
    "cat_energie_libelle": "Hybride",
    "prix_visite": 80,
    "date_application_visite": "2023-01-30",
    "prix_contre_visite_min": 10,
    "prix_contre_visite_max": 70,
    "date_application_contre_visite": "2023-01-30",
    "cct_siret": 90998031000025,
    "latitude": 43.948423,
    "longitude": 1.323484,
    "coordgeo": {
      "lon": 1.323484,
      "lat": 43.948423
    },
    "cct_statut": "actif"
  },
  {
    "cct_code_dept": "Tarn-et-Garonne",
    "code_postal": "82800",
    "cct_code_commune": "Bruniquel",
    "cct_denomination": "LC SUD CONTROLE",
    "cct_adresse": "300 route des gorges de l'Aveyron",
    "cct_tel": "0563672771",
    "cct_url": null,
    "cat_vehicule_id": "4",
    "cat_vehicule_libelle": "Camionnette",
    "cat_energie_id": "5",
    "cat_energie_libelle": "Electrique",
    "prix_visite": 70,
    "date_application_visite": "2020-09-02",
    "prix_contre_visite_min": 10,
    "prix_contre_visite_max": 20,
    "date_application_contre_visite": "2020-09-02",
    "cct_siret": 87753916300015,
    "latitude": 44.073183,
    "longitude": 1.613576,
    "coordgeo": {
      "lon": 1.613576,
      "lat": 44.073183
    },
    "cct_statut": "actif"
  },
  {
    "cct_code_dept": "Tarn-et-Garonne",
    "code_postal": "82000",
    "cct_code_commune": "Montauban",
    "cct_denomination": "CONTROLE BILAN SECURITE",
    "cct_adresse": "125 AV DE NEGREPELISSE",
    "cct_tel": "563200204",
    "cct_url": null,
    "cat_vehicule_id": "2",
    "cat_vehicule_libelle": "4 x 4",
    "cat_energie_id": "1",
    "cat_energie_libelle": "Essence",
    "prix_visite": 80,
    "date_application_visite": "2020-09-09",
    "prix_contre_visite_min": 5,
    "prix_contre_visite_max": 35,
    "date_application_contre_visite": "2020-09-09",
    "cct_siret": 38441893500019,
    "latitude": 44.030782,
    "longitude": 1.373277,
    "coordgeo": {
      "lon": 1.373277,
      "lat": 44.030782
    },
    "cct_statut": "actif"
  },
  {
    "cct_code_dept": "Tarn-et-Garonne",
    "code_postal": "82300",
    "cct_code_commune": "Caussade",
    "cct_denomination": "CONTROLE BILAN SECURITE",
    "cct_adresse": "118 BD EDOUARD HERRIOT",
    "cct_tel": "563932929",
    "cct_url": null,
    "cat_vehicule_id": "3",
    "cat_vehicule_libelle": "Voiture de collection",
    "cat_energie_id": "5",
    "cat_energie_libelle": "Electrique",
    "prix_visite": 100,
    "date_application_visite": "2021-02-01",
    "prix_contre_visite_min": 15,
    "prix_contre_visite_max": 35,
    "date_application_contre_visite": "2021-02-01",
    "cct_siret": 38441893500050,
    "latitude": 44.154296,
    "longitude": 1.529882,
    "coordgeo": {
      "lon": 1.529882,
      "lat": 44.154296
    },
    "cct_statut": "actif"
  },
  {
    "cct_code_dept": "Tarn-et-Garonne",
    "code_postal": "82300",
    "cct_code_commune": "Caussade",
    "cct_denomination": "CONTROLE BILAN SECURITE",
    "cct_adresse": "118 BD EDOUARD HERRIOT",
    "cct_tel": "563932929",
    "cct_url": null,
    "cat_vehicule_id": "3",
    "cat_vehicule_libelle": "Voiture de collection",
    "cat_energie_id": "3",
    "cat_energie_libelle": "Gaz",
    "prix_visite": 100,
    "date_application_visite": "2021-02-01",
    "prix_contre_visite_min": 15,
    "prix_contre_visite_max": 35,
    "date_application_contre_visite": "2021-02-01",
    "cct_siret": 38441893500050,
    "latitude": 44.154296,
    "longitude": 1.529882,
    "coordgeo": {
      "lon": 1.529882,
      "lat": 44.154296
    },
    "cct_statut": "actif"
  },
  {
    "cct_code_dept": "Tarn-et-Garonne",
    "code_postal": "82160",
    "cct_code_commune": "Parisot",
    "cct_denomination": "GUILBON CONTROLE AUTO",
    "cct_adresse": "LE VILLAGE",
    "cct_tel": "563240017",
    "cct_url": null,
    "cat_vehicule_id": "2",
    "cat_vehicule_libelle": "4 x 4",
    "cat_energie_id": "1",
    "cat_energie_libelle": "Essence",
    "prix_visite": 75,
    "date_application_visite": "2020-09-01",
    "prix_contre_visite_min": 10,
    "prix_contre_visite_max": 15,
    "date_application_contre_visite": "2020-09-01",
    "cct_siret": 81068358100021,
    "latitude": 44.260102,
    "longitude": 1.906742,
    "coordgeo": {
      "lon": 1.906742,
      "lat": 44.260102
    },
    "cct_statut": "actif"
  },
  {
    "cct_code_dept": "Tarn-et-Garonne",
    "code_postal": "81310",
    "cct_code_commune": "Parisot",
    "cct_denomination": "GUILBON CONTROLE AUTO",
    "cct_adresse": "LE VILLAGE",
    "cct_tel": "563240017",
    "cct_url": null,
    "cat_vehicule_id": "4",
    "cat_vehicule_libelle": "Camionnette",
    "cat_energie_id": "4",
    "cat_energie_libelle": "Hybride",
    "prix_visite": 75,
    "date_application_visite": "2020-09-01",
    "prix_contre_visite_min": 10,
    "prix_contre_visite_max": 15,
    "date_application_contre_visite": "2020-09-01",
    "cct_siret": 81068358100021,
    "latitude": 44.260102,
    "longitude": 1.906742,
    "coordgeo": {
      "lon": 1.906742,
      "lat": 44.260102
    },
    "cct_statut": "actif"
  },
  {
    "cct_code_dept": "Tarn-et-Garonne",
    "code_postal": "82160",
    "cct_code_commune": "Parisot",
    "cct_denomination": "GUILBON CONTROLE AUTO",
    "cct_adresse": "LE VILLAGE",
    "cct_tel": "563240017",
    "cct_url": null,
    "cat_vehicule_id": "5",
    "cat_vehicule_libelle": "Camping-car (moins de 3,5 tonnes)",
    "cat_energie_id": "2",
    "cat_energie_libelle": "Diesel",
    "prix_visite": 75,
    "date_application_visite": "2020-09-01",
    "prix_contre_visite_min": 10,
    "prix_contre_visite_max": 15,
    "date_application_contre_visite": "2020-09-01",
    "cct_siret": 81068358100021,
    "latitude": 44.260102,
    "longitude": 1.906742,
    "coordgeo": {
      "lon": 1.906742,
      "lat": 44.260102
    },
    "cct_statut": "actif"
  },
  {
    "cct_code_dept": "Tarn-et-Garonne",
    "code_postal": null,
    "cct_code_commune": "Lafrançaise",
    "cct_denomination": "AUTOBILAN LAFRANCAISE",
    "cct_adresse": "ZA LE RIVAL",
    "cct_tel": "563263393",
    "cct_url": null,
    "cat_vehicule_id": "2",
    "cat_vehicule_libelle": "4 x 4",
    "cat_energie_id": "4",
    "cat_energie_libelle": "Hybride",
    "prix_visite": 95,
    "date_application_visite": "2020-10-06",
    "prix_contre_visite_min": 10,
    "prix_contre_visite_max": 20,
    "date_application_contre_visite": "2020-10-06",
    "cct_siret": 53103407200011,
    "latitude": 44.132041,
    "longitude": 1.236693,
    "coordgeo": {
      "lon": 1.236693,
      "lat": 44.132041
    },
    "cct_statut": "actif"
  },
  {
    "cct_code_dept": "Tarn-et-Garonne",
    "code_postal": "82000",
    "cct_code_commune": "Montauban",
    "cct_denomination": "DALMAU ETHUIN ASSOCIES ( PRO CONTROL )",
    "cct_adresse": "26 RUE ALPHONSE DAUDET",
    "cct_tel": "563647557",
    "cct_url": "https://www.moncontroletechnique.fr/centre/pro-control",
    "cat_vehicule_id": "2",
    "cat_vehicule_libelle": "4 x 4",
    "cat_energie_id": "2",
    "cat_energie_libelle": "Diesel",
    "prix_visite": 80,
    "date_application_visite": "2020-09-07",
    "prix_contre_visite_min": 80,
    "prix_contre_visite_max": 80,
    "date_application_contre_visite": "2020-09-07",
    "cct_siret": 85104418000012,
    "latitude": 44.035341,
    "longitude": 1.373557,
    "coordgeo": {
      "lon": 1.373557,
      "lat": 44.035341
    },
    "cct_statut": "actif"
  },
  {
    "cct_code_dept": "Tarn-et-Garonne",
    "code_postal": "82000",
    "cct_code_commune": "Montauban",
    "cct_denomination": "DALMAU ETHUIN ASSOCIES ( PRO CONTROL )",
    "cct_adresse": "26 RUE ALPHONSE DAUDET",
    "cct_tel": "563647557",
    "cct_url": "https://www.moncontroletechnique.fr/centre/pro-control",
    "cat_vehicule_id": "1",
    "cat_vehicule_libelle": "Voiture Particulière",
    "cat_energie_id": "5",
    "cat_energie_libelle": "Electrique",
    "prix_visite": 80,
    "date_application_visite": "2020-09-07",
    "prix_contre_visite_min": 5,
    "prix_contre_visite_max": 30,
    "date_application_contre_visite": "2020-09-07",
    "cct_siret": 85104418000012,
    "latitude": 44.035341,
    "longitude": 1.373557,
    "coordgeo": {
      "lon": 1.373557,
      "lat": 44.035341
    },
    "cct_statut": "actif"
  },
  {
    "cct_code_dept": "Tarn-et-Garonne",
    "code_postal": "82000",
    "cct_code_commune": "Montauban",
    "cct_denomination": "DALMAU ETHUIN ASSOCIES ( PRO CONTROL )",
    "cct_adresse": "26 RUE ALPHONSE DAUDET",
    "cct_tel": "563647557",
    "cct_url": "https://www.moncontroletechnique.fr/centre/pro-control",
    "cat_vehicule_id": "1",
    "cat_vehicule_libelle": "Voiture Particulière",
    "cat_energie_id": "3",
    "cat_energie_libelle": "Gaz",
    "prix_visite": 95,
    "date_application_visite": "2020-09-07",
    "prix_contre_visite_min": 5,
    "prix_contre_visite_max": 30,
    "date_application_contre_visite": "2020-09-07",
    "cct_siret": 85104418000012,
    "latitude": 44.035341,
    "longitude": 1.373557,
    "coordgeo": {
      "lon": 1.373557,
      "lat": 44.035341
    },
    "cct_statut": "actif"
  },
  {
    "cct_code_dept": "Tarn-et-Garonne",
    "code_postal": "82000",
    "cct_code_commune": "Montauban",
    "cct_denomination": "DALMAU ETHUIN ASSOCIES ( PRO CONTROL )",
    "cct_adresse": "26 RUE ALPHONSE DAUDET",
    "cct_tel": "563647557",
    "cct_url": "https://www.moncontroletechnique.fr/centre/pro-control",
    "cat_vehicule_id": "1",
    "cat_vehicule_libelle": "Voiture Particulière",
    "cat_energie_id": "3",
    "cat_energie_libelle": "Gaz",
    "prix_visite": 95,
    "date_application_visite": "2020-09-07",
    "prix_contre_visite_min": 95,
    "prix_contre_visite_max": 95,
    "date_application_contre_visite": "2020-09-07",
    "cct_siret": 85104418000012,
    "latitude": 44.035341,
    "longitude": 1.373557,
    "coordgeo": {
      "lon": 1.373557,
      "lat": 44.035341
    },
    "cct_statut": "actif"
  },
  {
    "cct_code_dept": "Tarn-et-Garonne",
    "code_postal": "82710",
    "cct_code_commune": "Bressols",
    "cct_denomination": "CTA BRESSOLS",
    "cct_adresse": "1231 CHE DU PASTENC",
    "cct_tel": "952707302",
    "cct_url": "www.moncontroletechnique.fr",
    "cat_vehicule_id": "4",
    "cat_vehicule_libelle": "Camionnette",
    "cat_energie_id": "4",
    "cat_energie_libelle": "Hybride",
    "prix_visite": 80,
    "date_application_visite": "2023-01-30",
    "prix_contre_visite_min": 10,
    "prix_contre_visite_max": 70,
    "date_application_contre_visite": "2023-01-30",
    "cct_siret": 90998031000025,
    "latitude": 43.948423,
    "longitude": 1.323484,
    "coordgeo": {
      "lon": 1.323484,
      "lat": 43.948423
    },
    "cct_statut": "actif"
  },
  {
    "cct_code_dept": "Tarn-et-Garonne",
    "code_postal": null,
    "cct_code_commune": "Montaigu-de-Quercy",
    "cct_denomination": "CONTROL AUTO",
    "cct_adresse": "1 PL MERCADIEL",
    "cct_tel": "563943093",
    "cct_url": null,
    "cat_vehicule_id": "4",
    "cat_vehicule_libelle": "Camionnette",
    "cat_energie_id": "5",
    "cat_energie_libelle": "Electrique",
    "prix_visite": 70,
    "date_application_visite": "2020-09-14",
    "prix_contre_visite_min": 5,
    "prix_contre_visite_max": 20,
    "date_application_contre_visite": "2020-09-14",
    "cct_siret": 38407058700017,
    "latitude": 44.3396,
    "longitude": 1.018073,
    "coordgeo": {
      "lon": 1.018073,
      "lat": 44.3396
    },
    "cct_statut": "actif"
  },
  {
    "cct_code_dept": "Tarn-et-Garonne",
    "code_postal": "82120",
    "cct_code_commune": "Lavit",
    "cct_denomination": "DURRENS VINCENT",
    "cct_adresse": "Z.A. LE COUTRE",
    "cct_tel": "563940992",
    "cct_url": "www.ctlavit.autosecurite.com",
    "cat_vehicule_id": "5",
    "cat_vehicule_libelle": "Camping-car (moins de 3,5 tonnes)",
    "cat_energie_id": "5",
    "cat_energie_libelle": "Electrique",
    "prix_visite": 90,
    "date_application_visite": "2020-09-03",
    "prix_contre_visite_min": 5,
    "prix_contre_visite_max": 35,
    "date_application_contre_visite": "2020-09-03",
    "cct_siret": 45037271900028,
    "latitude": 43.963322,
    "longitude": 0.93147,
    "coordgeo": {
      "lon": 0.93147,
      "lat": 43.963322
    },
    "cct_statut": "actif"
  },
  {
    "cct_code_dept": "Tarn-et-Garonne",
    "code_postal": "82100",
    "cct_code_commune": "Castelsarrasin",
    "cct_denomination": "CASTEL CONTROLE AUTO",
    "cct_adresse": "RN 113",
    "cct_tel": "563325148",
    "cct_url": "www.castel.autosecurite.com",
    "cat_vehicule_id": "3",
    "cat_vehicule_libelle": "Voiture de collection",
    "cat_energie_id": "2",
    "cat_energie_libelle": "Diesel",
    "prix_visite": 80,
    "date_application_visite": "2020-09-12",
    "prix_contre_visite_min": 5,
    "prix_contre_visite_max": 35,
    "date_application_contre_visite": "2020-09-12",
    "cct_siret": 83000259800027,
    "latitude": null,
    "longitude": null,
    "coordgeo": null,
    "cct_statut": "actif"
  },
  {
    "cct_code_dept": "Tarn-et-Garonne",
    "code_postal": "82100",
    "cct_code_commune": "Castelsarrasin",
    "cct_denomination": "CASTEL CONTROLE AUTO",
    "cct_adresse": "RN 113",
    "cct_tel": "563325148",
    "cct_url": "www.castel.autosecurite.com",
    "cat_vehicule_id": "3",
    "cat_vehicule_libelle": "Voiture de collection",
    "cat_energie_id": "3",
    "cat_energie_libelle": "Gaz",
    "prix_visite": 100,
    "date_application_visite": "2020-09-12",
    "prix_contre_visite_min": 5,
    "prix_contre_visite_max": 35,
    "date_application_contre_visite": "2020-09-12",
    "cct_siret": 83000259800027,
    "latitude": null,
    "longitude": null,
    "coordgeo": null,
    "cct_statut": "actif"
  },
  {
    "cct_code_dept": "Tarn-et-Garonne",
    "code_postal": null,
    "cct_code_commune": "Saint-Nauphary",
    "cct_denomination": "CTEM",
    "cct_adresse": "33  ZONE ARTISANALE SIMARRE",
    "cct_tel": "563265972",
    "cct_url": "https://ctem.autosecurite.com/?utm_source=googlemybusiness&utm_medium=fichegoogle&utm_campaign=googlemybusiness&utm_content=C082018",
    "cat_vehicule_id": "5",
    "cat_vehicule_libelle": "Camping-car (moins de 3,5 tonnes)",
    "cat_energie_id": "3",
    "cat_energie_libelle": "Gaz",
    "prix_visite": 95,
    "date_application_visite": "2020-09-04",
    "prix_contre_visite_min": 15,
    "prix_contre_visite_max": 40,
    "date_application_contre_visite": "2020-09-04",
    "cct_siret": 50993710800025,
    "latitude": 43.962382,
    "longitude": 1.430478,
    "coordgeo": {
      "lon": 1.430478,
      "lat": 43.962382
    },
    "cct_statut": "actif"
  },
  {
    "cct_code_dept": "Tarn-et-Garonne",
    "code_postal": null,
    "cct_code_commune": "La Ville-Dieu-du-Temple",
    "cct_denomination": "LAVILLEDIEU CONTROLE AUTO",
    "cct_adresse": "Z.A. VILLEDIEU",
    "cct_tel": "563025410",
    "cct_url": null,
    "cat_vehicule_id": "4",
    "cat_vehicule_libelle": "Camionnette",
    "cat_energie_id": "1",
    "cat_energie_libelle": "Essence",
    "prix_visite": 79,
    "date_application_visite": "2020-10-01",
    "prix_contre_visite_min": 20,
    "prix_contre_visite_max": 35,
    "date_application_contre_visite": "2020-10-01",
    "cct_siret": 53987636700019,
    "latitude": 44.042388,
    "longitude": 1.221096,
    "coordgeo": {
      "lon": 1.221096,
      "lat": 44.042388
    },
    "cct_statut": "actif"
  },
  {
    "cct_code_dept": "Tarn-et-Garonne",
    "code_postal": "16460",
    "cct_code_commune": "Valence",
    "cct_denomination": "C T M",
    "cct_adresse": "39 BD VICTOR GUILHEM",
    "cct_tel": "563395051",
    "cct_url": "https://www.dekra-norisko.fr/",
    "cat_vehicule_id": "4",
    "cat_vehicule_libelle": "Camionnette",
    "cat_energie_id": "5",
    "cat_energie_libelle": "Electrique",
    "prix_visite": 85,
    "date_application_visite": "2020-09-08",
    "prix_contre_visite_min": 15,
    "prix_contre_visite_max": 30,
    "date_application_contre_visite": "2020-09-08",
    "cct_siret": 48144396800054,
    "latitude": 44.109144,
    "longitude": 0.888319,
    "coordgeo": {
      "lon": 0.888319,
      "lat": 44.109144
    },
    "cct_statut": "actif"
  },
  {
    "cct_code_dept": "Tarn-et-Garonne",
    "code_postal": "16460",
    "cct_code_commune": "Valence",
    "cct_denomination": "C T M",
    "cct_adresse": "39 BD VICTOR GUILHEM",
    "cct_tel": "563395051",
    "cct_url": "https://www.dekra-norisko.fr/",
    "cat_vehicule_id": "1",
    "cat_vehicule_libelle": "Voiture Particulière",
    "cat_energie_id": "3",
    "cat_energie_libelle": "Gaz",
    "prix_visite": 85,
    "date_application_visite": "2020-09-08",
    "prix_contre_visite_min": 15,
    "prix_contre_visite_max": 30,
    "date_application_contre_visite": "2020-09-08",
    "cct_siret": 48144396800054,
    "latitude": 44.109144,
    "longitude": 0.888319,
    "coordgeo": {
      "lon": 0.888319,
      "lat": 44.109144
    },
    "cct_statut": "actif"
  },
  {
    "cct_code_dept": "Tarn-et-Garonne",
    "code_postal": "82000",
    "cct_code_commune": "Montauban",
    "cct_denomination": "AUTO BILAN SAPIAC",
    "cct_adresse": "1255 RUE DE L ABBAYE",
    "cct_tel": "563668540",
    "cct_url": "https://noriskoauto-ct.fr/montauban-sapiac",
    "cat_vehicule_id": "1",
    "cat_vehicule_libelle": "Voiture Particulière",
    "cat_energie_id": "5",
    "cat_energie_libelle": "Electrique",
    "prix_visite": 95,
    "date_application_visite": "2020-09-14",
    "prix_contre_visite_min": 20,
    "prix_contre_visite_max": 35,
    "date_application_contre_visite": "2020-09-14",
    "cct_siret": 80379838800010,
    "latitude": 44.003721,
    "longitude": 1.35611,
    "coordgeo": {
      "lon": 1.35611,
      "lat": 44.003721
    },
    "cct_statut": "actif"
  },
  {
    "cct_code_dept": "Tarn-et-Garonne",
    "code_postal": "82000",
    "cct_code_commune": "Montauban",
    "cct_denomination": "AUTO BILAN SAPIAC",
    "cct_adresse": "1255 RUE DE L ABBAYE",
    "cct_tel": "563668540",
    "cct_url": "https://noriskoauto-ct.fr/montauban-sapiac",
    "cat_vehicule_id": "1",
    "cat_vehicule_libelle": "Voiture Particulière",
    "cat_energie_id": "1",
    "cat_energie_libelle": "Essence",
    "prix_visite": 80,
    "date_application_visite": "2020-09-14",
    "prix_contre_visite_min": 20,
    "prix_contre_visite_max": 35,
    "date_application_contre_visite": "2020-09-14",
    "cct_siret": 80379838800010,
    "latitude": 44.003721,
    "longitude": 1.35611,
    "coordgeo": {
      "lon": 1.35611,
      "lat": 44.003721
    },
    "cct_statut": "actif"
  },
  {
    "cct_code_dept": "Tarn-et-Garonne",
    "code_postal": "82300",
    "cct_code_commune": "Caussade",
    "cct_denomination": "EURL DAVID SERVICES AUTO",
    "cct_adresse": "1 RUE DES FRERES DUCLOS",
    "cct_tel": "563932599",
    "cct_url": "dekra-norisko.fr",
    "cat_vehicule_id": "1",
    "cat_vehicule_libelle": "Voiture Particulière",
    "cat_energie_id": "4",
    "cat_energie_libelle": "Hybride",
    "prix_visite": 95,
    "date_application_visite": "2020-09-15",
    "prix_contre_visite_min": 15,
    "prix_contre_visite_max": 25,
    "date_application_contre_visite": "2020-09-15",
    "cct_siret": 48777475400039,
    "latitude": 44.159616,
    "longitude": 1.53847,
    "coordgeo": {
      "lon": 1.53847,
      "lat": 44.159616
    },
    "cct_statut": "actif"
  },
  {
    "cct_code_dept": "Tarn-et-Garonne",
    "code_postal": null,
    "cct_code_commune": "Nègrepelisse",
    "cct_denomination": "EURL DAVID SERVICES AUTO",
    "cct_adresse": "LD PORTS",
    "cct_tel": "563250131",
    "cct_url": "563250131",
    "cat_vehicule_id": "5",
    "cat_vehicule_libelle": "Camping-car (moins de 3,5 tonnes)",
    "cat_energie_id": "5",
    "cat_energie_libelle": "Electrique",
    "prix_visite": 95,
    "date_application_visite": "2021-01-12",
    "prix_contre_visite_min": 15,
    "prix_contre_visite_max": 25,
    "date_application_contre_visite": "2021-01-12",
    "cct_siret": 48777475400047,
    "latitude": 44.071427,
    "longitude": 1.533588,
    "coordgeo": {
      "lon": 1.533588,
      "lat": 44.071427
    },
    "cct_statut": "actif"
  },
  {
    "cct_code_dept": "Tarn-et-Garonne",
    "code_postal": null,
    "cct_code_commune": "Verdun-sur-Garonne",
    "cct_denomination": "AUTO BILAN SAPIAC",
    "cct_adresse": "RTE DE GRENADE",
    "cct_tel": "563270535",
    "cct_url": "https://dekra-ct.fr/verdun-sur-garonne",
    "cat_vehicule_id": "2",
    "cat_vehicule_libelle": "4 x 4",
    "cat_energie_id": "1",
    "cat_energie_libelle": "Essence",
    "prix_visite": 85,
    "date_application_visite": "2022-07-15",
    "prix_contre_visite_min": 15,
    "prix_contre_visite_max": 35,
    "date_application_contre_visite": "2022-07-15",
    "cct_siret": 80379838800028,
    "latitude": null,
    "longitude": null,
    "coordgeo": null,
    "cct_statut": "actif"
  },
  {
    "cct_code_dept": "Tarn-et-Garonne",
    "code_postal": "82000",
    "cct_code_commune": "Montauban",
    "cct_denomination": "EURL A.C.D.",
    "cct_adresse": "19 PL LALAQUE",
    "cct_tel": "563667044",
    "cct_url": null,
    "cat_vehicule_id": "3",
    "cat_vehicule_libelle": "Voiture de collection",
    "cat_energie_id": "4",
    "cat_energie_libelle": "Hybride",
    "prix_visite": 95,
    "date_application_visite": "2020-10-09",
    "prix_contre_visite_min": 5,
    "prix_contre_visite_max": 35,
    "date_application_contre_visite": "2020-10-09",
    "cct_siret": 47785936700013,
    "latitude": 44.016359,
    "longitude": 1.34392,
    "coordgeo": {
      "lon": 1.34392,
      "lat": 44.016359
    },
    "cct_statut": "actif"
  },
  {
    "cct_code_dept": "Tarn-et-Garonne",
    "code_postal": "82000",
    "cct_code_commune": "Montauban",
    "cct_denomination": "EURL A.C.D.",
    "cct_adresse": "630 AV DE TOULOUSE",
    "cct_tel": "563913362",
    "cct_url": null,
    "cat_vehicule_id": "4",
    "cat_vehicule_libelle": "Camionnette",
    "cat_energie_id": "2",
    "cat_energie_libelle": "Diesel",
    "prix_visite": 75,
    "date_application_visite": "2022-04-29",
    "prix_contre_visite_min": 5,
    "prix_contre_visite_max": 35,
    "date_application_contre_visite": "2020-10-09",
    "cct_siret": 47785936700021,
    "latitude": 44.00151,
    "longitude": 1.340195,
    "coordgeo": {
      "lon": 1.340195,
      "lat": 44.00151
    },
    "cct_statut": "actif"
  },
  {
    "cct_code_dept": "Tarn-et-Garonne",
    "code_postal": "82000",
    "cct_code_commune": "Montauban",
    "cct_denomination": "EURL A.C.D.",
    "cct_adresse": "630 AV DE TOULOUSE",
    "cct_tel": "563913362",
    "cct_url": null,
    "cat_vehicule_id": "4",
    "cat_vehicule_libelle": "Camionnette",
    "cat_energie_id": "1",
    "cat_energie_libelle": "Essence",
    "prix_visite": 80,
    "date_application_visite": "2020-10-09",
    "prix_contre_visite_min": 5,
    "prix_contre_visite_max": 35,
    "date_application_contre_visite": "2020-10-09",
    "cct_siret": 47785936700021,
    "latitude": 44.00151,
    "longitude": 1.340195,
    "coordgeo": {
      "lon": 1.340195,
      "lat": 44.00151
    },
    "cct_statut": "actif"
  },
  {
    "cct_code_dept": "Tarn-et-Garonne",
    "code_postal": "82000",
    "cct_code_commune": "Montauban",
    "cct_denomination": "EURL A.C.D.",
    "cct_adresse": "630 AV DE TOULOUSE",
    "cct_tel": "563913362",
    "cct_url": null,
    "cat_vehicule_id": "1",
    "cat_vehicule_libelle": "Voiture Particulière",
    "cat_energie_id": "3",
    "cat_energie_libelle": "Gaz",
    "prix_visite": 85,
    "date_application_visite": "2022-04-29",
    "prix_contre_visite_min": 5,
    "prix_contre_visite_max": 35,
    "date_application_contre_visite": "2020-10-09",
    "cct_siret": 47785936700021,
    "latitude": 44.00151,
    "longitude": 1.340195,
    "coordgeo": {
      "lon": 1.340195,
      "lat": 44.00151
    },
    "cct_statut": "actif"
  },
  {
    "cct_code_dept": "Tarn-et-Garonne",
    "code_postal": "82110",
    "cct_code_commune": "Lauzerte",
    "cct_denomination": "BOYER CONTROLE AUTO",
    "cct_adresse": "LA PEPINIERE",
    "cct_tel": "563943047",
    "cct_url": null,
    "cat_vehicule_id": "2",
    "cat_vehicule_libelle": "4 x 4",
    "cat_energie_id": "3",
    "cat_energie_libelle": "Gaz",
    "prix_visite": 95,
    "date_application_visite": "2020-11-24",
    "prix_contre_visite_min": 10,
    "prix_contre_visite_max": 20,
    "date_application_contre_visite": "2020-11-24",
    "cct_siret": 80805501600030,
    "latitude": null,
    "longitude": null,
    "coordgeo": null,
    "cct_statut": "actif"
  },
  {
    "cct_code_dept": "Tarn-et-Garonne",
    "code_postal": "82000",
    "cct_code_commune": "Montauban",
    "cct_denomination": "SARL FALLIERES",
    "cct_adresse": "1803 CHE DE MATRAS",
    "cct_tel": "563200842",
    "cct_url": "montauban-zi-nord.autosur.fr",
    "cat_vehicule_id": "2",
    "cat_vehicule_libelle": "4 x 4",
    "cat_energie_id": "4",
    "cat_energie_libelle": "Hybride",
    "prix_visite": 95,
    "date_application_visite": "2020-09-10",
    "prix_contre_visite_min": 20,
    "prix_contre_visite_max": 95,
    "date_application_contre_visite": "2020-09-10",
    "cct_siret": 79368566000011,
    "latitude": 44.037204,
    "longitude": 1.375881,
    "coordgeo": {
      "lon": 1.375881,
      "lat": 44.037204
    },
    "cct_statut": "actif"
  },
  {
    "cct_code_dept": "Tarn-et-Garonne",
    "code_postal": "26000",
    "cct_code_commune": "Valence",
    "cct_denomination": "C T M",
    "cct_adresse": "AV JEAN BAYLET",
    "cct_tel": "643528065",
    "cct_url": null,
    "cat_vehicule_id": "2",
    "cat_vehicule_libelle": "4 x 4",
    "cat_energie_id": "1",
    "cat_energie_libelle": "Essence",
    "prix_visite": 75,
    "date_application_visite": "2021-06-24",
    "prix_contre_visite_min": 15,
    "prix_contre_visite_max": 30,
    "date_application_contre_visite": "2021-06-24",
    "cct_siret": 48144396800070,
    "latitude": 44.108363,
    "longitude": 0.895486,
    "coordgeo": {
      "lon": 0.895486,
      "lat": 44.108363
    },
    "cct_statut": "actif"
  },
  {
    "cct_code_dept": "Tarn-et-Garonne",
    "code_postal": "16460",
    "cct_code_commune": "Valence",
    "cct_denomination": "C T M",
    "cct_adresse": "AV JEAN BAYLET",
    "cct_tel": "643528065",
    "cct_url": null,
    "cat_vehicule_id": "4",
    "cat_vehicule_libelle": "Camionnette",
    "cat_energie_id": "5",
    "cat_energie_libelle": "Electrique",
    "prix_visite": 88,
    "date_application_visite": "2023-01-03",
    "prix_contre_visite_min": 15,
    "prix_contre_visite_max": 30,
    "date_application_contre_visite": "2021-06-24",
    "cct_siret": 48144396800070,
    "latitude": 44.108363,
    "longitude": 0.895486,
    "coordgeo": {
      "lon": 0.895486,
      "lat": 44.108363
    },
    "cct_statut": "actif"
  },
  {
    "cct_code_dept": "Tarn-et-Garonne",
    "code_postal": "26000",
    "cct_code_commune": "Valence",
    "cct_denomination": "C T M",
    "cct_adresse": "AV JEAN BAYLET",
    "cct_tel": "643528065",
    "cct_url": null,
    "cat_vehicule_id": "5",
    "cat_vehicule_libelle": "Camping-car (moins de 3,5 tonnes)",
    "cat_energie_id": "2",
    "cat_energie_libelle": "Diesel",
    "prix_visite": 75,
    "date_application_visite": "2021-06-24",
    "prix_contre_visite_min": 15,
    "prix_contre_visite_max": 30,
    "date_application_contre_visite": "2021-06-24",
    "cct_siret": 48144396800070,
    "latitude": 44.108363,
    "longitude": 0.895486,
    "coordgeo": {
      "lon": 0.895486,
      "lat": 44.108363
    },
    "cct_statut": "actif"
  },
  {
    "cct_code_dept": "Tarn-et-Garonne",
    "code_postal": "82400",
    "cct_code_commune": "Valence",
    "cct_denomination": "C T M",
    "cct_adresse": "AV JEAN BAYLET",
    "cct_tel": "643528065",
    "cct_url": null,
    "cat_vehicule_id": "5",
    "cat_vehicule_libelle": "Camping-car (moins de 3,5 tonnes)",
    "cat_energie_id": "5",
    "cat_energie_libelle": "Electrique",
    "prix_visite": 88,
    "date_application_visite": "2023-01-03",
    "prix_contre_visite_min": 15,
    "prix_contre_visite_max": 30,
    "date_application_contre_visite": "2021-06-24",
    "cct_siret": 48144396800070,
    "latitude": 44.108363,
    "longitude": 0.895486,
    "coordgeo": {
      "lon": 0.895486,
      "lat": 44.108363
    },
    "cct_statut": "actif"
  },
  {
    "cct_code_dept": "Tarn-et-Garonne",
    "code_postal": "16460",
    "cct_code_commune": "Valence",
    "cct_denomination": "C T M",
    "cct_adresse": "AV JEAN BAYLET",
    "cct_tel": "643528065",
    "cct_url": null,
    "cat_vehicule_id": "3",
    "cat_vehicule_libelle": "Voiture de collection",
    "cat_energie_id": "5",
    "cat_energie_libelle": "Electrique",
    "prix_visite": 88,
    "date_application_visite": "2023-01-03",
    "prix_contre_visite_min": 15,
    "prix_contre_visite_max": 30,
    "date_application_contre_visite": "2021-06-24",
    "cct_siret": 48144396800070,
    "latitude": 44.108363,
    "longitude": 0.895486,
    "coordgeo": {
      "lon": 0.895486,
      "lat": 44.108363
    },
    "cct_statut": "actif"
  },
  {
    "cct_code_dept": "Tarn-et-Garonne",
    "code_postal": "82400",
    "cct_code_commune": "Valence",
    "cct_denomination": "C T M",
    "cct_adresse": "AV JEAN BAYLET",
    "cct_tel": "643528065",
    "cct_url": null,
    "cat_vehicule_id": "3",
    "cat_vehicule_libelle": "Voiture de collection",
    "cat_energie_id": "3",
    "cat_energie_libelle": "Gaz",
    "prix_visite": 88,
    "date_application_visite": "2023-01-03",
    "prix_contre_visite_min": 15,
    "prix_contre_visite_max": 30,
    "date_application_contre_visite": "2021-06-24",
    "cct_siret": 48144396800070,
    "latitude": 44.108363,
    "longitude": 0.895486,
    "coordgeo": {
      "lon": 0.895486,
      "lat": 44.108363
    },
    "cct_statut": "actif"
  },
  {
    "cct_code_dept": "Tarn-et-Garonne",
    "code_postal": "82170",
    "cct_code_commune": "Canals",
    "cct_denomination": "CE-DAC CENTRE DE DIAGNOSTIC AUTO CANALAI",
    "cct_adresse": "ZONE INDUSTRIELLE DU PARC",
    "cct_tel": "563028252",
    "cct_url": null,
    "cat_vehicule_id": "5",
    "cat_vehicule_libelle": "Camping-car (moins de 3,5 tonnes)",
    "cat_energie_id": "4",
    "cat_energie_libelle": "Hybride",
    "prix_visite": 100,
    "date_application_visite": "2020-08-31",
    "prix_contre_visite_min": 20,
    "prix_contre_visite_max": 35,
    "date_application_contre_visite": "2020-08-31",
    "cct_siret": 38533859500015,
    "latitude": 43.851926,
    "longitude": 1.295091,
    "coordgeo": {
      "lon": 1.295091,
      "lat": 43.851926
    },
    "cct_statut": "actif"
  },
  {
    "cct_code_dept": "Tarn-et-Garonne",
    "code_postal": "82400",
    "cct_code_commune": "Golfech",
    "cct_denomination": "C T M",
    "cct_adresse": "LD BARAILLOL",
    "cct_tel": "563322091",
    "cct_url": "https://controle-technique-golfech.securitest.fr/",
    "cat_vehicule_id": "2",
    "cat_vehicule_libelle": "4 x 4",
    "cat_energie_id": "5",
    "cat_energie_libelle": "Electrique",
    "prix_visite": 88,
    "date_application_visite": "2023-01-03",
    "prix_contre_visite_min": 15,
    "prix_contre_visite_max": 30,
    "date_application_contre_visite": "2020-09-08",
    "cct_siret": 48144396800047,
    "latitude": 44.113409,
    "longitude": 0.869355,
    "coordgeo": {
      "lon": 0.869355,
      "lat": 44.113409
    },
    "cct_statut": "actif"
  },
  {
    "cct_code_dept": "Tarn-et-Garonne",
    "code_postal": "82400",
    "cct_code_commune": "Golfech",
    "cct_denomination": "C T M",
    "cct_adresse": "LD BARAILLOL",
    "cct_tel": "563322091",
    "cct_url": "https://controle-technique-golfech.securitest.fr/",
    "cat_vehicule_id": "5",
    "cat_vehicule_libelle": "Camping-car (moins de 3,5 tonnes)",
    "cat_energie_id": "4",
    "cat_energie_libelle": "Hybride",
    "prix_visite": 85,
    "date_application_visite": "2020-09-08",
    "prix_contre_visite_min": 15,
    "prix_contre_visite_max": 30,
    "date_application_contre_visite": "2020-09-08",
    "cct_siret": 48144396800047,
    "latitude": 44.113409,
    "longitude": 0.869355,
    "coordgeo": {
      "lon": 0.869355,
      "lat": 44.113409
    },
    "cct_statut": "actif"
  },
  {
    "cct_code_dept": "Tarn-et-Garonne",
    "code_postal": null,
    "cct_code_commune": "Beaumont-de-Lomagne",
    "cct_denomination": "VERIF AUTOS BEAUMONTOIS",
    "cct_adresse": "37  ZA DE BORDEVIEILLE",
    "cct_tel": "563681909",
    "cct_url": "www.beaumont.verifautos.fr",
    "cat_vehicule_id": "3",
    "cat_vehicule_libelle": "Voiture de collection",
    "cat_energie_id": "2",
    "cat_energie_libelle": "Diesel",
    "prix_visite": 75,
    "date_application_visite": "2020-09-12",
    "prix_contre_visite_min": 5,
    "prix_contre_visite_max": 35,
    "date_application_contre_visite": "2020-09-12",
    "cct_siret": 45037271900051,
    "latitude": 43.891055,
    "longitude": 1.008348,
    "coordgeo": {
      "lon": 1.008348,
      "lat": 43.891055
    },
    "cct_statut": "actif"
  },
  {
    "cct_code_dept": "Tarn-et-Garonne",
    "code_postal": "82700",
    "cct_code_commune": "Montech",
    "cct_denomination": "MONTECH CONTROLE AUTO",
    "cct_adresse": "FRAPPAT",
    "cct_tel": "563275458",
    "cct_url": "www.controle-technique-montech.securitest.fr",
    "cat_vehicule_id": "2",
    "cat_vehicule_libelle": "4 x 4",
    "cat_energie_id": "3",
    "cat_energie_libelle": "Gaz",
    "prix_visite": 100,
    "date_application_visite": "2020-09-12",
    "prix_contre_visite_min": 5,
    "prix_contre_visite_max": 35,
    "date_application_contre_visite": "2020-09-12",
    "cct_siret": 83000432100022,
    "latitude": 43.956062,
    "longitude": 1.221176,
    "coordgeo": {
      "lon": 1.221176,
      "lat": 43.956062
    },
    "cct_statut": "actif"
  },
  {
    "cct_code_dept": "Tarn-et-Garonne",
    "code_postal": "82100",
    "cct_code_commune": "Castelsarrasin",
    "cct_denomination": "CASTEL CONTROLE AUTO",
    "cct_adresse": "18 BD MARCEAU FAURE",
    "cct_tel": "563321290",
    "cct_url": "www.castel.securitest.fr",
    "cat_vehicule_id": "2",
    "cat_vehicule_libelle": "4 x 4",
    "cat_energie_id": "4",
    "cat_energie_libelle": "Hybride",
    "prix_visite": 100,
    "date_application_visite": "2020-09-12",
    "prix_contre_visite_min": 5,
    "prix_contre_visite_max": 35,
    "date_application_contre_visite": "2020-09-12",
    "cct_siret": 83000259800035,
    "latitude": 44.036038,
    "longitude": 1.108989,
    "coordgeo": {
      "lon": 1.108989,
      "lat": 44.036038
    },
    "cct_statut": "actif"
  },
  {
    "cct_code_dept": "Tarn-et-Garonne",
    "code_postal": "82100",
    "cct_code_commune": "Castelsarrasin",
    "cct_denomination": "CASTEL CONTROLE AUTO",
    "cct_adresse": "18 BD MARCEAU FAURE",
    "cct_tel": "563321290",
    "cct_url": "www.castel.securitest.fr",
    "cat_vehicule_id": "4",
    "cat_vehicule_libelle": "Camionnette",
    "cat_energie_id": "2",
    "cat_energie_libelle": "Diesel",
    "prix_visite": 80,
    "date_application_visite": "2020-09-12",
    "prix_contre_visite_min": 5,
    "prix_contre_visite_max": 35,
    "date_application_contre_visite": "2020-09-12",
    "cct_siret": 83000259800035,
    "latitude": 44.036038,
    "longitude": 1.108989,
    "coordgeo": {
      "lon": 1.108989,
      "lat": 44.036038
    },
    "cct_statut": "actif"
  },
  {
    "cct_code_dept": "Tarn-et-Garonne",
    "code_postal": "82000",
    "cct_code_commune": "Montauban",
    "cct_denomination": "GROUPE CASTETS FRERES",
    "cct_adresse": "RUE DE LA PREMIERE ARMEE",
    "cct_tel": "563030791",
    "cct_url": "http://www.eurocontrole-sapiac.fr/",
    "cat_vehicule_id": "3",
    "cat_vehicule_libelle": "Voiture de collection",
    "cat_energie_id": "5",
    "cat_energie_libelle": "Electrique",
    "prix_visite": 90,
    "date_application_visite": "2020-09-01",
    "prix_contre_visite_min": 15,
    "prix_contre_visite_max": 26,
    "date_application_contre_visite": "2020-09-01",
    "cct_siret": 79236643700053,
    "latitude": 44.002655,
    "longitude": 1.355196,
    "coordgeo": {
      "lon": 1.355196,
      "lat": 44.002655
    },
    "cct_statut": "actif"
  },
  {
    "cct_code_dept": "Tarn-et-Garonne",
    "code_postal": "82800",
    "cct_code_commune": "Bruniquel",
    "cct_denomination": "LC SUD CONTROLE",
    "cct_adresse": "PECOS DEL PORT D115",
    "cct_tel": "563672771",
    "cct_url": null,
    "cat_vehicule_id": "5",
    "cat_vehicule_libelle": "Camping-car (moins de 3,5 tonnes)",
    "cat_energie_id": "2",
    "cat_energie_libelle": "Diesel",
    "prix_visite": 70,
    "date_application_visite": "2020-09-02",
    "prix_contre_visite_min": 10,
    "prix_contre_visite_max": 20,
    "date_application_contre_visite": "2020-09-02",
    "cct_siret": 87753916300015,
    "latitude": 44.073067,
    "longitude": 1.612931,
    "coordgeo": {
      "lon": 1.612931,
      "lat": 44.073067
    },
    "cct_statut": "actif"
  },
  {
    "cct_code_dept": "Tarn-et-Garonne",
    "code_postal": "82200",
    "cct_code_commune": "Moissac",
    "cct_denomination": "MOISSAC CONTROLE TECHNIQUE",
    "cct_adresse": "491 ROUTE DE LA MEGERE",
    "cct_tel": "563954370",
    "cct_url": "www.moissac-controletechnique.fr",
    "cat_vehicule_id": "5",
    "cat_vehicule_libelle": "Camping-car (moins de 3,5 tonnes)",
    "cat_energie_id": "5",
    "cat_energie_libelle": "Electrique",
    "prix_visite": 95,
    "date_application_visite": "2023-01-04",
    "prix_contre_visite_min": 0,
    "prix_contre_visite_max": 20,
    "date_application_contre_visite": "2023-01-04",
    "cct_siret": 91508868600018,
    "latitude": 44.117635,
    "longitude": 1.116878,
    "coordgeo": {
      "lon": 1.116878,
      "lat": 44.117635
    },
    "cct_statut": "actif"
  },
  {
    "cct_code_dept": "Tarn-et-Garonne",
    "code_postal": "82000",
    "cct_code_commune": "Montauban",
    "cct_denomination": "AUTO BILAN DURRENS",
    "cct_adresse": "578 AV JEAN MOULIN",
    "cct_tel": "563667745",
    "cct_url": "www.controle-technique-montauban.securitest.fr/",
    "cat_vehicule_id": "3",
    "cat_vehicule_libelle": "Voiture de collection",
    "cat_energie_id": "5",
    "cat_energie_libelle": "Electrique",
    "prix_visite": 95,
    "date_application_visite": "2020-11-16",
    "prix_contre_visite_min": 20,
    "prix_contre_visite_max": 35,
    "date_application_contre_visite": "2020-11-16",
    "cct_siret": 53797445300012,
    "latitude": 44.027635,
    "longitude": 1.368282,
    "coordgeo": {
      "lon": 1.368282,
      "lat": 44.027635
    },
    "cct_statut": "actif"
  },
  {
    "cct_code_dept": "Tarn-et-Garonne",
    "code_postal": "82000",
    "cct_code_commune": "Montauban",
    "cct_denomination": "AUTO BILAN DURRENS",
    "cct_adresse": "578 AV JEAN MOULIN",
    "cct_tel": "563667745",
    "cct_url": "www.controle-technique-montauban.securitest.fr/",
    "cat_vehicule_id": "3",
    "cat_vehicule_libelle": "Voiture de collection",
    "cat_energie_id": "3",
    "cat_energie_libelle": "Gaz",
    "prix_visite": 95,
    "date_application_visite": "2020-11-16",
    "prix_contre_visite_min": 20,
    "prix_contre_visite_max": 35,
    "date_application_contre_visite": "2020-11-16",
    "cct_siret": 53797445300012,
    "latitude": 44.027635,
    "longitude": 1.368282,
    "coordgeo": {
      "lon": 1.368282,
      "lat": 44.027635
    },
    "cct_statut": "actif"
  },
  {
    "cct_code_dept": "Tarn-et-Garonne",
    "code_postal": "82800",
    "cct_code_commune": "Bruniquel",
    "cct_denomination": "LC SUD CONTROLE",
    "cct_adresse": "300 route des gorges de l'Aveyron",
    "cct_tel": "0563672771",
    "cct_url": null,
    "cat_vehicule_id": "4",
    "cat_vehicule_libelle": "Camionnette",
    "cat_energie_id": "2",
    "cat_energie_libelle": "Diesel",
    "prix_visite": 60,
    "date_application_visite": "2023-10-01",
    "prix_contre_visite_min": 10,
    "prix_contre_visite_max": 20,
    "date_application_contre_visite": "2020-09-02",
    "cct_siret": 87753916300015,
    "latitude": 44.073183,
    "longitude": 1.613576,
    "coordgeo": {
      "lon": 1.613576,
      "lat": 44.073183
    },
    "cct_statut": "actif"
  },
  {
    "cct_code_dept": "Tarn-et-Garonne",
    "code_postal": "82000",
    "cct_code_commune": "Montauban",
    "cct_denomination": "AS RODRIGUEZ",
    "cct_adresse": "1 RUE VOLTAIRE",
    "cct_tel": null,
    "cct_url": null,
    "cat_vehicule_id": "2",
    "cat_vehicule_libelle": "4 x 4",
    "cat_energie_id": "5",
    "cat_energie_libelle": "Electrique",
    "prix_visite": 95,
    "date_application_visite": "2020-09-07",
    "prix_contre_visite_min": 10,
    "prix_contre_visite_max": 35,
    "date_application_contre_visite": "2020-09-07",
    "cct_siret": 48370699000015,
    "latitude": 44.032076,
    "longitude": 1.376455,
    "coordgeo": {
      "lon": 1.376455,
      "lat": 44.032076
    },
    "cct_statut": "actif"
  },
  {
    "cct_code_dept": "Tarn-et-Garonne",
    "code_postal": "82000",
    "cct_code_commune": "Montauban",
    "cct_denomination": "AS RODRIGUEZ",
    "cct_adresse": "1 RUE VOLTAIRE",
    "cct_tel": null,
    "cct_url": null,
    "cat_vehicule_id": "4",
    "cat_vehicule_libelle": "Camionnette",
    "cat_energie_id": "1",
    "cat_energie_libelle": "Essence",
    "prix_visite": 79,
    "date_application_visite": "2020-09-07",
    "prix_contre_visite_min": 10,
    "prix_contre_visite_max": 35,
    "date_application_contre_visite": "2020-09-07",
    "cct_siret": 48370699000015,
    "latitude": 44.032076,
    "longitude": 1.376455,
    "coordgeo": {
      "lon": 1.376455,
      "lat": 44.032076
    },
    "cct_statut": "actif"
  },
  {
    "cct_code_dept": "Tarn-et-Garonne",
    "code_postal": "82000",
    "cct_code_commune": "Montauban",
    "cct_denomination": "AS RODRIGUEZ",
    "cct_adresse": "1 RUE VOLTAIRE",
    "cct_tel": null,
    "cct_url": null,
    "cat_vehicule_id": "3",
    "cat_vehicule_libelle": "Voiture de collection",
    "cat_energie_id": "2",
    "cat_energie_libelle": "Diesel",
    "prix_visite": 79,
    "date_application_visite": "2020-09-07",
    "prix_contre_visite_min": 10,
    "prix_contre_visite_max": 35,
    "date_application_contre_visite": "2020-09-07",
    "cct_siret": 48370699000015,
    "latitude": 44.032076,
    "longitude": 1.376455,
    "coordgeo": {
      "lon": 1.376455,
      "lat": 44.032076
    },
    "cct_statut": "actif"
  },
  {
    "cct_code_dept": "Tarn-et-Garonne",
    "code_postal": null,
    "cct_code_commune": "La Ville-Dieu-du-Temple",
    "cct_denomination": "LAVILLEDIEU CONTROLE AUTO",
    "cct_adresse": "Z.A. VILLEDIEU",
    "cct_tel": "563025410",
    "cct_url": null,
    "cat_vehicule_id": "2",
    "cat_vehicule_libelle": "4 x 4",
    "cat_energie_id": "4",
    "cat_energie_libelle": "Hybride",
    "prix_visite": 95,
    "date_application_visite": "2020-10-01",
    "prix_contre_visite_min": 20,
    "prix_contre_visite_max": 35,
    "date_application_contre_visite": "2020-10-01",
    "cct_siret": 53987636700019,
    "latitude": 44.042388,
    "longitude": 1.221096,
    "coordgeo": {
      "lon": 1.221096,
      "lat": 44.042388
    },
    "cct_statut": "actif"
  },
  {
    "cct_code_dept": "Tarn-et-Garonne",
    "code_postal": "82400",
    "cct_code_commune": "Valence",
    "cct_denomination": "C T M",
    "cct_adresse": "39 BD VICTOR GUILHEM",
    "cct_tel": "563395051",
    "cct_url": "https://www.dekra-norisko.fr/",
    "cat_vehicule_id": "4",
    "cat_vehicule_libelle": "Camionnette",
    "cat_energie_id": "2",
    "cat_energie_libelle": "Diesel",
    "prix_visite": 75,
    "date_application_visite": "2020-09-08",
    "prix_contre_visite_min": 15,
    "prix_contre_visite_max": 30,
    "date_application_contre_visite": "2020-09-08",
    "cct_siret": 48144396800054,
    "latitude": 44.109144,
    "longitude": 0.888319,
    "coordgeo": {
      "lon": 0.888319,
      "lat": 44.109144
    },
    "cct_statut": "actif"
  },
  {
    "cct_code_dept": "Tarn-et-Garonne",
    "code_postal": "26000",
    "cct_code_commune": "Valence",
    "cct_denomination": "C T M",
    "cct_adresse": "39 BD VICTOR GUILHEM",
    "cct_tel": "563395051",
    "cct_url": "https://www.dekra-norisko.fr/",
    "cat_vehicule_id": "4",
    "cat_vehicule_libelle": "Camionnette",
    "cat_energie_id": "5",
    "cat_energie_libelle": "Electrique",
    "prix_visite": 85,
    "date_application_visite": "2020-09-08",
    "prix_contre_visite_min": 15,
    "prix_contre_visite_max": 30,
    "date_application_contre_visite": "2020-09-08",
    "cct_siret": 48144396800054,
    "latitude": 44.109144,
    "longitude": 0.888319,
    "coordgeo": {
      "lon": 0.888319,
      "lat": 44.109144
    },
    "cct_statut": "actif"
  },
  {
    "cct_code_dept": "Tarn-et-Garonne",
    "code_postal": "26000",
    "cct_code_commune": "Valence",
    "cct_denomination": "C T M",
    "cct_adresse": "39 BD VICTOR GUILHEM",
    "cct_tel": "563395051",
    "cct_url": "https://www.dekra-norisko.fr/",
    "cat_vehicule_id": "4",
    "cat_vehicule_libelle": "Camionnette",
    "cat_energie_id": "4",
    "cat_energie_libelle": "Hybride",
    "prix_visite": 85,
    "date_application_visite": "2020-09-08",
    "prix_contre_visite_min": 15,
    "prix_contre_visite_max": 30,
    "date_application_contre_visite": "2020-09-08",
    "cct_siret": 48144396800054,
    "latitude": 44.109144,
    "longitude": 0.888319,
    "coordgeo": {
      "lon": 0.888319,
      "lat": 44.109144
    },
    "cct_statut": "actif"
  },
  {
    "cct_code_dept": "Tarn-et-Garonne",
    "code_postal": "16460",
    "cct_code_commune": "Valence",
    "cct_denomination": "C T M",
    "cct_adresse": "39 BD VICTOR GUILHEM",
    "cct_tel": "563395051",
    "cct_url": "https://www.dekra-norisko.fr/",
    "cat_vehicule_id": "1",
    "cat_vehicule_libelle": "Voiture Particulière",
    "cat_energie_id": "1",
    "cat_energie_libelle": "Essence",
    "prix_visite": 75,
    "date_application_visite": "2020-09-08",
    "prix_contre_visite_min": 15,
    "prix_contre_visite_max": 30,
    "date_application_contre_visite": "2020-09-08",
    "cct_siret": 48144396800054,
    "latitude": 44.109144,
    "longitude": 0.888319,
    "coordgeo": {
      "lon": 0.888319,
      "lat": 44.109144
    },
    "cct_statut": "actif"
  },
  {
    "cct_code_dept": "Tarn-et-Garonne",
    "code_postal": "82000",
    "cct_code_commune": "Montauban",
    "cct_denomination": "AUTO BILAN SAPIAC",
    "cct_adresse": "1255 RUE DE L ABBAYE",
    "cct_tel": "563668540",
    "cct_url": "https://noriskoauto-ct.fr/montauban-sapiac",
    "cat_vehicule_id": "5",
    "cat_vehicule_libelle": "Camping-car (moins de 3,5 tonnes)",
    "cat_energie_id": "3",
    "cat_energie_libelle": "Gaz",
    "prix_visite": 95,
    "date_application_visite": "2020-09-14",
    "prix_contre_visite_min": 20,
    "prix_contre_visite_max": 35,
    "date_application_contre_visite": "2020-09-14",
    "cct_siret": 80379838800010,
    "latitude": 44.003721,
    "longitude": 1.35611,
    "coordgeo": {
      "lon": 1.35611,
      "lat": 44.003721
    },
    "cct_statut": "actif"
  },
  {
    "cct_code_dept": "Tarn-et-Garonne",
    "code_postal": null,
    "cct_code_commune": "Nègrepelisse",
    "cct_denomination": "EURL DAVID SERVICES AUTO",
    "cct_adresse": "LD PORTS",
    "cct_tel": "563250131",
    "cct_url": "563250131",
    "cat_vehicule_id": "2",
    "cat_vehicule_libelle": "4 x 4",
    "cat_energie_id": "5",
    "cat_energie_libelle": "Electrique",
    "prix_visite": 95,
    "date_application_visite": "2021-01-12",
    "prix_contre_visite_min": 15,
    "prix_contre_visite_max": 25,
    "date_application_contre_visite": "2021-01-12",
    "cct_siret": 48777475400047,
    "latitude": 44.071427,
    "longitude": 1.533588,
    "coordgeo": {
      "lon": 1.533588,
      "lat": 44.071427
    },
    "cct_statut": "actif"
  },
  {
    "cct_code_dept": "Tarn-et-Garonne",
    "code_postal": null,
    "cct_code_commune": "Nègrepelisse",
    "cct_denomination": "EURL DAVID SERVICES AUTO",
    "cct_adresse": "LD PORTS",
    "cct_tel": "563250131",
    "cct_url": "563250131",
    "cat_vehicule_id": "4",
    "cat_vehicule_libelle": "Camionnette",
    "cat_energie_id": "2",
    "cat_energie_libelle": "Diesel",
    "prix_visite": 95,
    "date_application_visite": "2021-01-12",
    "prix_contre_visite_min": 15,
    "prix_contre_visite_max": 25,
    "date_application_contre_visite": "2021-01-12",
    "cct_siret": 48777475400047,
    "latitude": 44.071427,
    "longitude": 1.533588,
    "coordgeo": {
      "lon": 1.533588,
      "lat": 44.071427
    },
    "cct_statut": "actif"
  },
  {
    "cct_code_dept": "Tarn-et-Garonne",
    "code_postal": null,
    "cct_code_commune": "Nègrepelisse",
    "cct_denomination": "EURL DAVID SERVICES AUTO",
    "cct_adresse": "LD PORTS",
    "cct_tel": "563250131",
    "cct_url": "563250131",
    "cat_vehicule_id": "1",
    "cat_vehicule_libelle": "Voiture Particulière",
    "cat_energie_id": "3",
    "cat_energie_libelle": "Gaz",
    "prix_visite": 99,
    "date_application_visite": "2021-01-12",
    "prix_contre_visite_min": 15,
    "prix_contre_visite_max": 25,
    "date_application_contre_visite": "2021-01-12",
    "cct_siret": 48777475400047,
    "latitude": 44.071427,
    "longitude": 1.533588,
    "coordgeo": {
      "lon": 1.533588,
      "lat": 44.071427
    },
    "cct_statut": "actif"
  },
  {
    "cct_code_dept": "Tarn-et-Garonne",
    "code_postal": "82000",
    "cct_code_commune": "Montauban",
    "cct_denomination": "AUTO BILAN SAPIAC",
    "cct_adresse": "28 RUE VOLTAIRE",
    "cct_tel": "563667042",
    "cct_url": "https://dekra-ct.fr/montauban",
    "cat_vehicule_id": "2",
    "cat_vehicule_libelle": "4 x 4",
    "cat_energie_id": "2",
    "cat_energie_libelle": "Diesel",
    "prix_visite": 85,
    "date_application_visite": "2022-07-15",
    "prix_contre_visite_min": 15,
    "prix_contre_visite_max": 35,
    "date_application_contre_visite": "2022-07-15",
    "cct_siret": 80379838800036,
    "latitude": 44.037733,
    "longitude": 1.362716,
    "coordgeo": {
      "lon": 1.362716,
      "lat": 44.037733
    },
    "cct_statut": "actif"
  },
  {
    "cct_code_dept": "Tarn-et-Garonne",
    "code_postal": null,
    "cct_code_commune": "Verdun-sur-Garonne",
    "cct_denomination": "AUTO BILAN SAPIAC",
    "cct_adresse": "RTE DE GRENADE",
    "cct_tel": "563270535",
    "cct_url": "https://dekra-ct.fr/verdun-sur-garonne",
    "cat_vehicule_id": "2",
    "cat_vehicule_libelle": "4 x 4",
    "cat_energie_id": "5",
    "cat_energie_libelle": "Electrique",
    "prix_visite": 95,
    "date_application_visite": "2022-07-15",
    "prix_contre_visite_min": 10,
    "prix_contre_visite_max": 25,
    "date_application_contre_visite": "2022-07-15",
    "cct_siret": 80379838800028,
    "latitude": null,
    "longitude": null,
    "coordgeo": null,
    "cct_statut": "actif"
  },
  {
    "cct_code_dept": "Tarn-et-Garonne",
    "code_postal": null,
    "cct_code_commune": "Verdun-sur-Garonne",
    "cct_denomination": "AUTO BILAN SAPIAC",
    "cct_adresse": "RTE DE GRENADE",
    "cct_tel": "563270535",
    "cct_url": "https://dekra-ct.fr/verdun-sur-garonne",
    "cat_vehicule_id": "5",
    "cat_vehicule_libelle": "Camping-car (moins de 3,5 tonnes)",
    "cat_energie_id": "1",
    "cat_energie_libelle": "Essence",
    "prix_visite": 85,
    "date_application_visite": "2022-07-15",
    "prix_contre_visite_min": 15,
    "prix_contre_visite_max": 35,
    "date_application_contre_visite": "2022-07-15",
    "cct_siret": 80379838800028,
    "latitude": null,
    "longitude": null,
    "coordgeo": null,
    "cct_statut": "actif"
  },
  {
    "cct_code_dept": "Tarn-et-Garonne",
    "code_postal": "82000",
    "cct_code_commune": "Montauban",
    "cct_denomination": "EURL A.C.D.",
    "cct_adresse": "19 PL LALAQUE",
    "cct_tel": "563667044",
    "cct_url": null,
    "cat_vehicule_id": "2",
    "cat_vehicule_libelle": "4 x 4",
    "cat_energie_id": "4",
    "cat_energie_libelle": "Hybride",
    "prix_visite": 85,
    "date_application_visite": "2022-04-29",
    "prix_contre_visite_min": 5,
    "prix_contre_visite_max": 35,
    "date_application_contre_visite": "2020-10-09",
    "cct_siret": 47785936700013,
    "latitude": 44.016359,
    "longitude": 1.34392,
    "coordgeo": {
      "lon": 1.34392,
      "lat": 44.016359
    },
    "cct_statut": "actif"
  },
  {
    "cct_code_dept": "Tarn-et-Garonne",
    "code_postal": "82000",
    "cct_code_commune": "Montauban",
    "cct_denomination": "EURL A.C.D.",
    "cct_adresse": "630 AV DE TOULOUSE",
    "cct_tel": "563913362",
    "cct_url": null,
    "cat_vehicule_id": "2",
    "cat_vehicule_libelle": "4 x 4",
    "cat_energie_id": "2",
    "cat_energie_libelle": "Diesel",
    "prix_visite": 75,
    "date_application_visite": "2022-04-29",
    "prix_contre_visite_min": 5,
    "prix_contre_visite_max": 35,
    "date_application_contre_visite": "2020-10-09",
    "cct_siret": 47785936700021,
    "latitude": 44.00151,
    "longitude": 1.340195,
    "coordgeo": {
      "lon": 1.340195,
      "lat": 44.00151
    },
    "cct_statut": "actif"
  },
  {
    "cct_code_dept": "Tarn-et-Garonne",
    "code_postal": "82000",
    "cct_code_commune": "Montauban",
    "cct_denomination": "EURL A.C.D.",
    "cct_adresse": "630 AV DE TOULOUSE",
    "cct_tel": "563913362",
    "cct_url": null,
    "cat_vehicule_id": "2",
    "cat_vehicule_libelle": "4 x 4",
    "cat_energie_id": "5",
    "cat_energie_libelle": "Electrique",
    "prix_visite": 95,
    "date_application_visite": "2020-10-09",
    "prix_contre_visite_min": 5,
    "prix_contre_visite_max": 35,
    "date_application_contre_visite": "2020-10-09",
    "cct_siret": 47785936700021,
    "latitude": 44.00151,
    "longitude": 1.340195,
    "coordgeo": {
      "lon": 1.340195,
      "lat": 44.00151
    },
    "cct_statut": "actif"
  },
  {
    "cct_code_dept": "Tarn-et-Garonne",
    "code_postal": "82000",
    "cct_code_commune": "Montauban",
    "cct_denomination": "EURL A.C.D.",
    "cct_adresse": "630 AV DE TOULOUSE",
    "cct_tel": "563913362",
    "cct_url": null,
    "cat_vehicule_id": "2",
    "cat_vehicule_libelle": "4 x 4",
    "cat_energie_id": "3",
    "cat_energie_libelle": "Gaz",
    "prix_visite": 85,
    "date_application_visite": "2022-04-29",
    "prix_contre_visite_min": 5,
    "prix_contre_visite_max": 35,
    "date_application_contre_visite": "2020-10-09",
    "cct_siret": 47785936700021,
    "latitude": 44.00151,
    "longitude": 1.340195,
    "coordgeo": {
      "lon": 1.340195,
      "lat": 44.00151
    },
    "cct_statut": "actif"
  },
  {
    "cct_code_dept": "Tarn-et-Garonne",
    "code_postal": "82000",
    "cct_code_commune": "Montauban",
    "cct_denomination": "EURL A.C.D.",
    "cct_adresse": "630 AV DE TOULOUSE",
    "cct_tel": "563913362",
    "cct_url": null,
    "cat_vehicule_id": "1",
    "cat_vehicule_libelle": "Voiture Particulière",
    "cat_energie_id": "4",
    "cat_energie_libelle": "Hybride",
    "prix_visite": 95,
    "date_application_visite": "2020-10-09",
    "prix_contre_visite_min": 5,
    "prix_contre_visite_max": 35,
    "date_application_contre_visite": "2020-10-09",
    "cct_siret": 47785936700021,
    "latitude": 44.00151,
    "longitude": 1.340195,
    "coordgeo": {
      "lon": 1.340195,
      "lat": 44.00151
    },
    "cct_statut": "actif"
  },
  {
    "cct_code_dept": "Tarn-et-Garonne",
    "code_postal": "82000",
    "cct_code_commune": "Montauban",
    "cct_denomination": "EURL A.C.D.",
    "cct_adresse": "630 AV DE TOULOUSE",
    "cct_tel": "563913362",
    "cct_url": null,
    "cat_vehicule_id": "3",
    "cat_vehicule_libelle": "Voiture de collection",
    "cat_energie_id": "3",
    "cat_energie_libelle": "Gaz",
    "prix_visite": 85,
    "date_application_visite": "2022-04-29",
    "prix_contre_visite_min": 5,
    "prix_contre_visite_max": 35,
    "date_application_contre_visite": "2020-10-09",
    "cct_siret": 47785936700021,
    "latitude": 44.00151,
    "longitude": 1.340195,
    "coordgeo": {
      "lon": 1.340195,
      "lat": 44.00151
    },
    "cct_statut": "actif"
  },
  {
    "cct_code_dept": "Tarn-et-Garonne",
    "code_postal": "82110",
    "cct_code_commune": "Lauzerte",
    "cct_denomination": "BOYER CONTROLE AUTO",
    "cct_adresse": "LA PEPINIERE",
    "cct_tel": "563943047",
    "cct_url": null,
    "cat_vehicule_id": "4",
    "cat_vehicule_libelle": "Camionnette",
    "cat_energie_id": "4",
    "cat_energie_libelle": "Hybride",
    "prix_visite": 76,
    "date_application_visite": "2020-11-24",
    "prix_contre_visite_min": 10,
    "prix_contre_visite_max": 20,
    "date_application_contre_visite": "2020-11-24",
    "cct_siret": 80805501600030,
    "latitude": null,
    "longitude": null,
    "coordgeo": null,
    "cct_statut": "actif"
  },
  {
    "cct_code_dept": "Tarn-et-Garonne",
    "code_postal": "82110",
    "cct_code_commune": "Lauzerte",
    "cct_denomination": "BOYER CONTROLE AUTO",
    "cct_adresse": "LA PEPINIERE",
    "cct_tel": "563943047",
    "cct_url": null,
    "cat_vehicule_id": "5",
    "cat_vehicule_libelle": "Camping-car (moins de 3,5 tonnes)",
    "cat_energie_id": "4",
    "cat_energie_libelle": "Hybride",
    "prix_visite": 76,
    "date_application_visite": "2020-11-24",
    "prix_contre_visite_min": 10,
    "prix_contre_visite_max": 20,
    "date_application_contre_visite": "2020-11-24",
    "cct_siret": 80805501600030,
    "latitude": null,
    "longitude": null,
    "coordgeo": null,
    "cct_statut": "actif"
  },
  {
    "cct_code_dept": "Tarn-et-Garonne",
    "code_postal": "82000",
    "cct_code_commune": "Montauban",
    "cct_denomination": "AUTO CONTROLE 82",
    "cct_adresse": "ZI DES PARAGES",
    "cct_tel": "563021895",
    "cct_url": null,
    "cat_vehicule_id": "3",
    "cat_vehicule_libelle": "Voiture de collection",
    "cat_energie_id": "1",
    "cat_energie_libelle": "Essence",
    "prix_visite": 78,
    "date_application_visite": "2020-09-11",
    "prix_contre_visite_min": 5,
    "prix_contre_visite_max": 35,
    "date_application_contre_visite": "2020-09-11",
    "cct_siret": 35012964900017,
    "latitude": null,
    "longitude": null,
    "coordgeo": null,
    "cct_statut": "actif"
  },
  {
    "cct_code_dept": "Tarn-et-Garonne",
    "code_postal": "82200",
    "cct_code_commune": "Moissac",
    "cct_denomination": "LDM",
    "cct_adresse": "RTE DE L AVENIR",
    "cct_tel": "536044485",
    "cct_url": null,
    "cat_vehicule_id": "5",
    "cat_vehicule_libelle": "Camping-car (moins de 3,5 tonnes)",
    "cat_energie_id": "4",
    "cat_energie_libelle": "Hybride",
    "prix_visite": 85,
    "date_application_visite": "2021-01-06",
    "prix_contre_visite_min": 15,
    "prix_contre_visite_max": 30,
    "date_application_contre_visite": "2021-01-06",
    "cct_siret": 88866607000022,
    "latitude": 44.099786,
    "longitude": 1.112951,
    "coordgeo": {
      "lon": 1.112951,
      "lat": 44.099786
    },
    "cct_statut": "actif"
  },
  {
    "cct_code_dept": "Tarn-et-Garonne",
    "code_postal": "82200",
    "cct_code_commune": "Moissac",
    "cct_denomination": "LDM",
    "cct_adresse": "RTE DE L AVENIR",
    "cct_tel": "536044485",
    "cct_url": null,
    "cat_vehicule_id": "3",
    "cat_vehicule_libelle": "Voiture de collection",
    "cat_energie_id": "1",
    "cat_energie_libelle": "Essence",
    "prix_visite": 75,
    "date_application_visite": "2021-01-06",
    "prix_contre_visite_min": 15,
    "prix_contre_visite_max": 30,
    "date_application_contre_visite": "2021-01-06",
    "cct_siret": 88866607000022,
    "latitude": 44.099786,
    "longitude": 1.112951,
    "coordgeo": {
      "lon": 1.112951,
      "lat": 44.099786
    },
    "cct_statut": "actif"
  },
  {
    "cct_code_dept": "Tarn-et-Garonne",
    "code_postal": "16460",
    "cct_code_commune": "Valence",
    "cct_denomination": "C T M",
    "cct_adresse": "AV JEAN BAYLET",
    "cct_tel": "643528065",
    "cct_url": null,
    "cat_vehicule_id": "2",
    "cat_vehicule_libelle": "4 x 4",
    "cat_energie_id": "5",
    "cat_energie_libelle": "Electrique",
    "prix_visite": 85,
    "date_application_visite": "2021-06-24",
    "prix_contre_visite_min": 15,
    "prix_contre_visite_max": 30,
    "date_application_contre_visite": "2021-06-24",
    "cct_siret": 48144396800070,
    "latitude": 44.108363,
    "longitude": 0.895486,
    "coordgeo": {
      "lon": 0.895486,
      "lat": 44.108363
    },
    "cct_statut": "actif"
  },
  {
    "cct_code_dept": "Tarn-et-Garonne",
    "code_postal": "16460",
    "cct_code_commune": "Valence",
    "cct_denomination": "C T M",
    "cct_adresse": "AV JEAN BAYLET",
    "cct_tel": "643528065",
    "cct_url": null,
    "cat_vehicule_id": "2",
    "cat_vehicule_libelle": "4 x 4",
    "cat_energie_id": "3",
    "cat_energie_libelle": "Gaz",
    "prix_visite": 88,
    "date_application_visite": "2023-01-03",
    "prix_contre_visite_min": 15,
    "prix_contre_visite_max": 30,
    "date_application_contre_visite": "2023-01-03",
    "cct_siret": 48144396800070,
    "latitude": 44.108363,
    "longitude": 0.895486,
    "coordgeo": {
      "lon": 0.895486,
      "lat": 44.108363
    },
    "cct_statut": "actif"
  },
  {
    "cct_code_dept": "Tarn-et-Garonne",
    "code_postal": "26000",
    "cct_code_commune": "Valence",
    "cct_denomination": "C T M",
    "cct_adresse": "AV JEAN BAYLET",
    "cct_tel": "643528065",
    "cct_url": null,
    "cat_vehicule_id": "4",
    "cat_vehicule_libelle": "Camionnette",
    "cat_energie_id": "2",
    "cat_energie_libelle": "Diesel",
    "prix_visite": 75,
    "date_application_visite": "2021-06-24",
    "prix_contre_visite_min": 15,
    "prix_contre_visite_max": 30,
    "date_application_contre_visite": "2021-06-24",
    "cct_siret": 48144396800070,
    "latitude": 44.108363,
    "longitude": 0.895486,
    "coordgeo": {
      "lon": 0.895486,
      "lat": 44.108363
    },
    "cct_statut": "actif"
  },
  {
    "cct_code_dept": "Tarn-et-Garonne",
    "code_postal": "26000",
    "cct_code_commune": "Valence",
    "cct_denomination": "C T M",
    "cct_adresse": "AV JEAN BAYLET",
    "cct_tel": "643528065",
    "cct_url": null,
    "cat_vehicule_id": "4",
    "cat_vehicule_libelle": "Camionnette",
    "cat_energie_id": "1",
    "cat_energie_libelle": "Essence",
    "prix_visite": 75,
    "date_application_visite": "2021-06-24",
    "prix_contre_visite_min": 15,
    "prix_contre_visite_max": 30,
    "date_application_contre_visite": "2021-06-24",
    "cct_siret": 48144396800070,
    "latitude": 44.108363,
    "longitude": 0.895486,
    "coordgeo": {
      "lon": 0.895486,
      "lat": 44.108363
    },
    "cct_statut": "actif"
  },
  {
    "cct_code_dept": "Tarn-et-Garonne",
    "code_postal": "82400",
    "cct_code_commune": "Valence",
    "cct_denomination": "C T M",
    "cct_adresse": "AV JEAN BAYLET",
    "cct_tel": "643528065",
    "cct_url": null,
    "cat_vehicule_id": "1",
    "cat_vehicule_libelle": "Voiture Particulière",
    "cat_energie_id": "5",
    "cat_energie_libelle": "Electrique",
    "prix_visite": 85,
    "date_application_visite": "2021-06-24",
    "prix_contre_visite_min": 15,
    "prix_contre_visite_max": 30,
    "date_application_contre_visite": "2021-06-24",
    "cct_siret": 48144396800070,
    "latitude": 44.108363,
    "longitude": 0.895486,
    "coordgeo": {
      "lon": 0.895486,
      "lat": 44.108363
    },
    "cct_statut": "actif"
  },
  {
    "cct_code_dept": "Tarn-et-Garonne",
    "code_postal": "82170",
    "cct_code_commune": "Canals",
    "cct_denomination": "CE-DAC CENTRE DE DIAGNOSTIC AUTO CANALAI",
    "cct_adresse": "ZONE INDUSTRIELLE DU PARC",
    "cct_tel": "563028252",
    "cct_url": null,
    "cat_vehicule_id": "4",
    "cat_vehicule_libelle": "Camionnette",
    "cat_energie_id": "1",
    "cat_energie_libelle": "Essence",
    "prix_visite": 94,
    "date_application_visite": "2020-08-31",
    "prix_contre_visite_min": 20,
    "prix_contre_visite_max": 35,
    "date_application_contre_visite": "2020-08-31",
    "cct_siret": 38533859500015,
    "latitude": 43.851926,
    "longitude": 1.295091,
    "coordgeo": {
      "lon": 1.295091,
      "lat": 43.851926
    },
    "cct_statut": "actif"
  },
  {
    "cct_code_dept": "Tarn-et-Garonne",
    "code_postal": "82170",
    "cct_code_commune": "Canals",
    "cct_denomination": "CE-DAC CENTRE DE DIAGNOSTIC AUTO CANALAI",
    "cct_adresse": "ZONE INDUSTRIELLE DU PARC",
    "cct_tel": "563028252",
    "cct_url": null,
    "cat_vehicule_id": "5",
    "cat_vehicule_libelle": "Camping-car (moins de 3,5 tonnes)",
    "cat_energie_id": "2",
    "cat_energie_libelle": "Diesel",
    "prix_visite": 94,
    "date_application_visite": "2020-08-31",
    "prix_contre_visite_min": 20,
    "prix_contre_visite_max": 35,
    "date_application_contre_visite": "2020-08-31",
    "cct_siret": 38533859500015,
    "latitude": 43.851926,
    "longitude": 1.295091,
    "coordgeo": {
      "lon": 1.295091,
      "lat": 43.851926
    },
    "cct_statut": "actif"
  },
  {
    "cct_code_dept": "Tarn-et-Garonne",
    "code_postal": "82170",
    "cct_code_commune": "Canals",
    "cct_denomination": "CE-DAC CENTRE DE DIAGNOSTIC AUTO CANALAI",
    "cct_adresse": "ZONE INDUSTRIELLE DU PARC",
    "cct_tel": "563028252",
    "cct_url": null,
    "cat_vehicule_id": "3",
    "cat_vehicule_libelle": "Voiture de collection",
    "cat_energie_id": "2",
    "cat_energie_libelle": "Diesel",
    "prix_visite": 85,
    "date_application_visite": "2020-08-31",
    "prix_contre_visite_min": 20,
    "prix_contre_visite_max": 35,
    "date_application_contre_visite": "2020-08-31",
    "cct_siret": 38533859500015,
    "latitude": 43.851926,
    "longitude": 1.295091,
    "coordgeo": {
      "lon": 1.295091,
      "lat": 43.851926
    },
    "cct_statut": "actif"
  },
  {
    "cct_code_dept": "Tarn-et-Garonne",
    "code_postal": "82400",
    "cct_code_commune": "Golfech",
    "cct_denomination": "C T M",
    "cct_adresse": "LD BARAILLOL",
    "cct_tel": "563322091",
    "cct_url": "https://controle-technique-golfech.securitest.fr/",
    "cat_vehicule_id": "3",
    "cat_vehicule_libelle": "Voiture de collection",
    "cat_energie_id": "3",
    "cat_energie_libelle": "Gaz",
    "prix_visite": 88,
    "date_application_visite": "2023-01-03",
    "prix_contre_visite_min": 15,
    "prix_contre_visite_max": 30,
    "date_application_contre_visite": "2020-09-08",
    "cct_siret": 48144396800047,
    "latitude": 44.113409,
    "longitude": 0.869355,
    "coordgeo": {
      "lon": 0.869355,
      "lat": 44.113409
    },
    "cct_statut": "actif"
  },
  {
    "cct_code_dept": "Tarn-et-Garonne",
    "code_postal": "82400",
    "cct_code_commune": "Golfech",
    "cct_denomination": "C T M",
    "cct_adresse": "LD BARAILLOL",
    "cct_tel": "563322091",
    "cct_url": "https://controle-technique-golfech.securitest.fr/",
    "cat_vehicule_id": "3",
    "cat_vehicule_libelle": "Voiture de collection",
    "cat_energie_id": "3",
    "cat_energie_libelle": "Gaz",
    "prix_visite": 85,
    "date_application_visite": "2020-09-08",
    "prix_contre_visite_min": 15,
    "prix_contre_visite_max": 30,
    "date_application_contre_visite": "2020-09-08",
    "cct_siret": 48144396800047,
    "latitude": 44.113409,
    "longitude": 0.869355,
    "coordgeo": {
      "lon": 0.869355,
      "lat": 44.113409
    },
    "cct_statut": "actif"
  },
  {
    "cct_code_dept": "Tarn-et-Garonne",
    "code_postal": null,
    "cct_code_commune": "Beaumont-de-Lomagne",
    "cct_denomination": "VERIF AUTOS BEAUMONTOIS",
    "cct_adresse": "37  ZA DE BORDEVIEILLE",
    "cct_tel": "563681909",
    "cct_url": "www.beaumont.verifautos.fr",
    "cat_vehicule_id": "1",
    "cat_vehicule_libelle": "Voiture Particulière",
    "cat_energie_id": "2",
    "cat_energie_libelle": "Diesel",
    "prix_visite": 75,
    "date_application_visite": "2020-09-12",
    "prix_contre_visite_min": 5,
    "prix_contre_visite_max": 35,
    "date_application_contre_visite": "2020-09-12",
    "cct_siret": 45037271900051,
    "latitude": 43.891055,
    "longitude": 1.008348,
    "coordgeo": {
      "lon": 1.008348,
      "lat": 43.891055
    },
    "cct_statut": "actif"
  },
  {
    "cct_code_dept": "Tarn-et-Garonne",
    "code_postal": null,
    "cct_code_commune": "Beaumont-de-Lomagne",
    "cct_denomination": "VERIF AUTOS BEAUMONTOIS",
    "cct_adresse": "37  ZA DE BORDEVIEILLE",
    "cct_tel": "563681909",
    "cct_url": "www.beaumont.verifautos.fr",
    "cat_vehicule_id": "3",
    "cat_vehicule_libelle": "Voiture de collection",
    "cat_energie_id": "5",
    "cat_energie_libelle": "Electrique",
    "prix_visite": 90,
    "date_application_visite": "2020-09-12",
    "prix_contre_visite_min": 5,
    "prix_contre_visite_max": 35,
    "date_application_contre_visite": "2020-09-12",
    "cct_siret": 45037271900051,
    "latitude": 43.891055,
    "longitude": 1.008348,
    "coordgeo": {
      "lon": 1.008348,
      "lat": 43.891055
    },
    "cct_statut": "actif"
  },
  {
    "cct_code_dept": "Tarn-et-Garonne",
    "code_postal": "82700",
    "cct_code_commune": "Montech",
    "cct_denomination": "MONTECH CONTROLE AUTO",
    "cct_adresse": "FRAPPAT",
    "cct_tel": "563275458",
    "cct_url": "www.controle-technique-montech.securitest.fr",
    "cat_vehicule_id": "2",
    "cat_vehicule_libelle": "4 x 4",
    "cat_energie_id": "1",
    "cat_energie_libelle": "Essence",
    "prix_visite": 80,
    "date_application_visite": "2020-09-12",
    "prix_contre_visite_min": 5,
    "prix_contre_visite_max": 35,
    "date_application_contre_visite": "2020-09-12",
    "cct_siret": 83000432100022,
    "latitude": 43.956062,
    "longitude": 1.221176,
    "coordgeo": {
      "lon": 1.221176,
      "lat": 43.956062
    },
    "cct_statut": "actif"
  },
  {
    "cct_code_dept": "Tarn-et-Garonne",
    "code_postal": "82700",
    "cct_code_commune": "Montech",
    "cct_denomination": "MONTECH CONTROLE AUTO",
    "cct_adresse": "FRAPPAT",
    "cct_tel": "563275458",
    "cct_url": "www.controle-technique-montech.securitest.fr",
    "cat_vehicule_id": "3",
    "cat_vehicule_libelle": "Voiture de collection",
    "cat_energie_id": "4",
    "cat_energie_libelle": "Hybride",
    "prix_visite": 100,
    "date_application_visite": "2020-09-12",
    "prix_contre_visite_min": 5,
    "prix_contre_visite_max": 35,
    "date_application_contre_visite": "2020-09-12",
    "cct_siret": 83000432100022,
    "latitude": 43.956062,
    "longitude": 1.221176,
    "coordgeo": {
      "lon": 1.221176,
      "lat": 43.956062
    },
    "cct_statut": "actif"
  },
  {
    "cct_code_dept": "Tarn-et-Garonne",
    "code_postal": null,
    "cct_code_commune": "Beaumont-de-Lomagne",
    "cct_denomination": "LAFFONT",
    "cct_adresse": "RTE DE LAVIT BP 31",
    "cct_tel": "563022434",
    "cct_url": null,
    "cat_vehicule_id": "1",
    "cat_vehicule_libelle": "Voiture Particulière",
    "cat_energie_id": "1",
    "cat_energie_libelle": "Essence",
    "prix_visite": 75,
    "date_application_visite": "2020-11-06",
    "prix_contre_visite_min": 15,
    "prix_contre_visite_max": 35,
    "date_application_contre_visite": "2020-11-06",
    "cct_siret": 88888134900011,
    "latitude": 43.89379,
    "longitude": 0.968805,
    "coordgeo": {
      "lon": 0.968805,
      "lat": 43.89379
    },
    "cct_statut": "actif"
  },
  {
    "cct_code_dept": "Tarn-et-Garonne",
    "code_postal": "82200",
    "cct_code_commune": "Moissac",
    "cct_denomination": "LDM",
    "cct_adresse": "RUE DES CERISES",
    "cct_tel": "563041002",
    "cct_url": null,
    "cat_vehicule_id": "1",
    "cat_vehicule_libelle": "Voiture Particulière",
    "cat_energie_id": "3",
    "cat_energie_libelle": "Gaz",
    "prix_visite": 85,
    "date_application_visite": "2020-12-01",
    "prix_contre_visite_min": 15,
    "prix_contre_visite_max": 30,
    "date_application_contre_visite": "2020-12-01",
    "cct_siret": 88866607000014,
    "latitude": 44.1115,
    "longitude": 1.106108,
    "coordgeo": {
      "lon": 1.106108,
      "lat": 44.1115
    },
    "cct_statut": "actif"
  },